% program   : RTKPOST ver.2.4.3 b33
% inp file  : E:\Study\master\semester 3\Satellite Navigation\lab6\data_sets\INS_3250.19O
% inp file  : E:\Study\master\semester 3\Satellite Navigation\lab6\data_sets\66870397.19o
% inp file  : E:\Study\master\semester 3\Satellite Navigation\lab6\data_sets\66870397.19n
% obs start : 2019/11/21 10:49:00.0 GPST (week2080 384540.0s)
% obs end   : 2019/11/21 13:55:09.0 GPST (week2080 395709.0s)
% pos mode  : dgps
% freqs     : L1+L2
% solution  : forward
% elev mask : 15.0 deg
% dynamics  : off
% tidecorr  : off
% ionos opt : broadcast
% tropo opt : saastamoinen
% ephemeris : broadcast
% antenna1  :                       ( 0.0000  0.0000  0.0000)
% antenna2  :                       ( 0.0000  0.0000  0.0000)
% ref pos   : 48.083587276    9.223909177   645.4353
%
% (lat/lon/height=WGS84/ellipsoidal,Q=1:fix,2:float,3:sbas,4:dgps,5:single,6:ppp,ns=# of satellites)
%  GPST          latitude(deg) longitude(deg)  height(m)   Q  ns   sdn(m)   sde(m)   sdu(m)  sdne(m)  sdeu(m)  sdun(m) age(s)  ratio
2080 384540.000   48.055282878    9.365188759   603.6648   4   8   0.8252   0.3802   0.9495   0.1827  -0.2247  -0.3327   0.00    0.0
2080 384541.000   48.055282811    9.365189026   603.6483   4   8   0.8253   0.3802   0.9495   0.1828  -0.2246  -0.3328   0.00    0.0
2080 384542.000   48.055285841    9.365188653   603.9509   4   8   0.8253   0.3802   0.9494   0.1829  -0.2245  -0.3329   0.00    0.0
2080 384543.000   48.055284237    9.365189639   603.6817   4   8   0.8254   0.3803   0.9494   0.1830  -0.2245  -0.3330   0.00    0.0
2080 384544.000   48.055284245    9.365188895   604.1861   4   8   0.8255   0.3803   0.9493   0.1832  -0.2244  -0.3330   0.00    0.0
2080 384545.000   48.055282030    9.365190372   603.9401   4   8   0.8255   0.3803   0.9492   0.1833  -0.2243  -0.3331   0.00    0.0
2080 384546.000   48.055279780    9.365188818   604.0305   4   8   0.8256   0.3803   0.9492   0.1834  -0.2242  -0.3332   0.00    0.0
2080 384547.000   48.055281485    9.365189895   603.7728   4   8   0.8256   0.3803   0.9491   0.1836  -0.2241  -0.3333   0.00    0.0
2080 384548.000   48.055278865    9.365188913   603.9765   4   8   0.8257   0.3804   0.9490   0.1837  -0.2240  -0.3334   0.00    0.0
2080 384549.000   48.055280245    9.365190043   604.1602   4   8   0.8257   0.3804   0.9490   0.1838  -0.2239  -0.3335   0.00    0.0
2080 384550.000   48.055280475    9.365189833   604.2007   4   8   0.8258   0.3804   0.9489   0.1840  -0.2239  -0.3336   0.00    0.0
2080 384551.000   48.055281694    9.365188020   604.0242   4   8   0.8259   0.3804   0.9488   0.1841  -0.2238  -0.3336   0.00    0.0
2080 384552.000   48.055282285    9.365187897   604.1469   4   8   0.8259   0.3804   0.9488   0.1842  -0.2237  -0.3337   0.00    0.0
2080 384553.000   48.055283035    9.365187791   604.0047   4   8   0.8260   0.3805   0.9487   0.1844  -0.2236  -0.3338   0.00    0.0
2080 384554.000   48.055285090    9.365188741   603.7870   4   8   0.8260   0.3805   0.9486   0.1845  -0.2235  -0.3339   0.00    0.0
2080 384555.000   48.055282815    9.365187854   604.0396   4   8   0.8261   0.3805   0.9486   0.1846  -0.2234  -0.3340   0.00    0.0
2080 384556.000   48.055283317    9.365187531   603.7288   4   8   0.8262   0.3805   0.9485   0.1848  -0.2233  -0.3341   0.00    0.0
2080 384557.000   48.055283287    9.365188651   604.1690   4   8   0.8262   0.3805   0.9485   0.1849  -0.2233  -0.3342   0.00    0.0
2080 384558.000   48.055284919    9.365187497   603.8264   4   8   0.8263   0.3806   0.9484   0.1850  -0.2232  -0.3343   0.00    0.0
2080 384559.000   48.055284628    9.365188517   604.0058   4   8   0.8263   0.3806   0.9483   0.1852  -0.2231  -0.3343   0.00    0.0
2080 384560.000   48.055284505    9.365188624   603.8738   4   8   0.8264   0.3806   0.9483   0.1853  -0.2230  -0.3344   0.00    0.0
2080 384561.000   48.055284301    9.365188549   603.9803   4   8   0.8264   0.3806   0.9482   0.1854  -0.2229  -0.3345   0.00    0.0
2080 384562.000   48.055282228    9.365188991   603.9756   4   8   0.8265   0.3806   0.9481   0.1856  -0.2228  -0.3346   0.00    0.0
2080 384563.000   48.055284280    9.365189593   604.0998   4   8   0.8266   0.3806   0.9481   0.1857  -0.2227  -0.3347   0.00    0.0
2080 384564.000   48.055283930    9.365189424   603.6674   4   8   0.8266   0.3807   0.9480   0.1858  -0.2226  -0.3348   0.00    0.0
2080 384565.000   48.055286952    9.365189618   603.5998   4   8   0.8267   0.3807   0.9480   0.1859  -0.2226  -0.3348   0.00    0.0
2080 384566.000   48.055285678    9.365188530   603.6530   4   8   0.8267   0.3807   0.9479   0.1861  -0.2225  -0.3349   0.00    0.0
2080 384567.000   48.055287035    9.365190261   603.8435   4   8   0.8268   0.3807   0.9478   0.1862  -0.2224  -0.3350   0.00    0.0
2080 384568.000   48.055286165    9.365191263   603.7661   4   8   0.8269   0.3807   0.9478   0.1863  -0.2223  -0.3351   0.00    0.0
2080 384569.000   48.055285399    9.365190446   603.6645   4   8   0.8269   0.3808   0.9477   0.1865  -0.2222  -0.3352   0.00    0.0
2080 384570.000   48.055286177    9.365190258   603.5787   4   8   0.8270   0.3808   0.9476   0.1866  -0.2221  -0.3353   0.00    0.0
2080 384571.000   48.055285170    9.365190822   603.6511   4   8   0.8270   0.3808   0.9476   0.1867  -0.2220  -0.3354   0.00    0.0
2080 384572.000   48.055286414    9.365190922   603.6747   4   8   0.8271   0.3808   0.9475   0.1869  -0.2220  -0.3354   0.00    0.0
2080 384573.000   48.055285635    9.365189730   603.7599   4   8   0.8271   0.3808   0.9475   0.1870  -0.2219  -0.3355   0.00    0.0
2080 384574.000   48.055284405    9.365190615   603.5582   4   8   0.8272   0.3809   0.9474   0.1871  -0.2218  -0.3356   0.00    0.0
2080 384575.000   48.055284992    9.365187888   603.6553   4   8   0.8273   0.3809   0.9473   0.1872  -0.2217  -0.3357   0.00    0.0
2080 384576.000   48.055281667    9.365190157   603.7521   4   8   0.8273   0.3809   0.9473   0.1874  -0.2216  -0.3358   0.00    0.0
2080 384577.000   48.055282661    9.365189669   603.7163   4   8   0.8274   0.3809   0.9472   0.1875  -0.2215  -0.3359   0.00    0.0
2080 384578.000   48.055285726    9.365189942   603.2652   4   8   0.8274   0.3809   0.9471   0.1876  -0.2214  -0.3359   0.00    0.0
2080 384579.000   48.055284232    9.365189283   603.5745   4   8   0.8275   0.3810   0.9471   0.1878  -0.2214  -0.3360   0.00    0.0
2080 384580.000   48.055282286    9.365189838   603.9331   4   8   0.8275   0.3810   0.9470   0.1879  -0.2213  -0.3361   0.00    0.0
2080 384581.000   48.055283196    9.365189418   603.8499   4   8   0.8276   0.3810   0.9470   0.1880  -0.2212  -0.3362   0.00    0.0
2080 384582.000   48.055282780    9.365192274   603.4929   4   8   0.8277   0.3810   0.9469   0.1882  -0.2211  -0.3363   0.00    0.0
2080 384583.000   48.055284203    9.365190303   603.7326   4   8   0.8277   0.3810   0.9468   0.1883  -0.2210  -0.3364   0.00    0.0
2080 384584.000   48.055285223    9.365189357   603.6228   4   8   0.8278   0.3811   0.9468   0.1884  -0.2209  -0.3364   0.00    0.0
2080 384585.000   48.055280970    9.365190168   603.5976   4   8   0.8278   0.3811   0.9467   0.1885  -0.2208  -0.3365   0.00    0.0
2080 384586.000   48.055285236    9.365189114   603.6238   4   8   0.8279   0.3811   0.9467   0.1887  -0.2208  -0.3366   0.00    0.0
2080 384587.000   48.055286637    9.365189897   603.6060   4   8   0.8280   0.3811   0.9466   0.1888  -0.2207  -0.3367   0.00    0.0
2080 384588.000   48.055288569    9.365191371   603.3718   4   8   0.8280   0.3811   0.9465   0.1889  -0.2206  -0.3368   0.00    0.0
2080 384589.000   48.055285195    9.365190297   603.4473   4   8   0.8281   0.3812   0.9465   0.1891  -0.2205  -0.3368   0.00    0.0
2080 384590.000   48.055285380    9.365191167   603.5525   4   8   0.8281   0.3812   0.9464   0.1892  -0.2204  -0.3369   0.00    0.0
2080 384591.000   48.055286583    9.365189084   603.3884   4   8   0.8282   0.3812   0.9464   0.1893  -0.2203  -0.3370   0.00    0.0
2080 384592.000   48.055286005    9.365190092   603.3399   4   8   0.8282   0.3812   0.9463   0.1895  -0.2203  -0.3371   0.00    0.0
2080 384593.000   48.055285662    9.365190541   603.6379   4   8   0.8283   0.3812   0.9462   0.1896  -0.2202  -0.3372   0.00    0.0
2080 384594.000   48.055286432    9.365191501   603.7616   4   8   0.8284   0.3813   0.9462   0.1897  -0.2201  -0.3373   0.00    0.0
2080 384595.000   48.055286769    9.365190264   603.8117   4   8   0.8284   0.3813   0.9461   0.1898  -0.2200  -0.3373   0.00    0.0
2080 384596.000   48.055286654    9.365190235   603.7976   4   8   0.8285   0.3813   0.9461   0.1900  -0.2199  -0.3374   0.00    0.0
2080 384597.000   48.055287511    9.365191252   603.5990   4   8   0.8285   0.3813   0.9460   0.1901  -0.2198  -0.3375   0.00    0.0
2080 384598.000   48.055286087    9.365191930   603.4097   4   8   0.8286   0.3813   0.9459   0.1902  -0.2197  -0.3376   0.00    0.0
2080 384599.000   48.055286414    9.365189613   603.6131   4   8   0.8287   0.3814   0.9459   0.1904  -0.2197  -0.3377   0.00    0.0
2080 384600.000   48.055285018    9.365190515   603.7969   4   8   0.8287   0.3814   0.9458   0.1905  -0.2196  -0.3377   0.00    0.0
2080 384601.000   48.055286417    9.365191176   603.6199   4   8   0.8288   0.3814   0.9458   0.1906  -0.2195  -0.3378   0.00    0.0
2080 384602.000   48.055286436    9.365192377   603.3481   4   8   0.8288   0.3814   0.9457   0.1907  -0.2194  -0.3379   0.00    0.0
2080 384603.000   48.055284561    9.365192179   603.3862   4   8   0.8289   0.3814   0.9456   0.1909  -0.2193  -0.3380   0.00    0.0
2080 384604.000   48.055287191    9.365193244   603.3996   4   8   0.8290   0.3815   0.9456   0.1910  -0.2192  -0.3381   0.00    0.0
2080 384605.000   48.055284041    9.365193346   603.2437   4   8   0.8290   0.3815   0.9455   0.1911  -0.2191  -0.3381   0.00    0.0
2080 384606.000   48.055285678    9.365192908   603.3812   4   8   0.8291   0.3815   0.9455   0.1913  -0.2191  -0.3382   0.00    0.0
2080 384607.000   48.055285316    9.365193170   603.5282   4   8   0.8291   0.3815   0.9454   0.1914  -0.2190  -0.3383   0.00    0.0
2080 384608.000   48.055284021    9.365192319   603.3300   4   8   0.8292   0.3816   0.9453   0.1915  -0.2189  -0.3384   0.00    0.0
2080 384609.000   48.055285009    9.365190740   603.4750   4   8   0.8292   0.3816   0.9453   0.1916  -0.2188  -0.3385   0.00    0.0
2080 384610.000   48.055285869    9.365191920   603.4304   4   8   0.8293   0.3816   0.9452   0.1918  -0.2187  -0.3385   0.00    0.0
2080 384611.000   48.055286712    9.365189787   603.4001   4   8   0.8294   0.3816   0.9452   0.1919  -0.2186  -0.3386   0.00    0.0
2080 384612.000   48.055284146    9.365190971   603.3131   4   8   0.8294   0.3816   0.9451   0.1920  -0.2185  -0.3387   0.00    0.0
2080 384613.000   48.055286262    9.365191550   603.5710   4   8   0.8295   0.3817   0.9450   0.1922  -0.2185  -0.3388   0.00    0.0
2080 384614.000   48.055285236    9.365190161   603.1779   4   8   0.8295   0.3817   0.9450   0.1923  -0.2184  -0.3389   0.00    0.0
2080 384615.000   48.055285971    9.365190866   603.3074   4   8   0.8296   0.3817   0.9449   0.1924  -0.2183  -0.3389   0.00    0.0
2080 384616.000   48.055285463    9.365192160   603.3428   4   8   0.8297   0.3817   0.9449   0.1925  -0.2182  -0.3390   0.00    0.0
2080 384617.000   48.055285098    9.365191991   603.0353   4   8   0.8297   0.3817   0.9448   0.1927  -0.2181  -0.3391   0.00    0.0
2080 384618.000   48.055287556    9.365191510   602.6527   4   8   0.8298   0.3818   0.9448   0.1928  -0.2180  -0.3392   0.00    0.0
2080 384619.000   48.055286639    9.365191291   602.8592   4   8   0.8298   0.3818   0.9447   0.1929  -0.2180  -0.3393   0.00    0.0
2080 384620.000   48.055286600    9.365191603   603.0156   4   8   0.8299   0.3818   0.9446   0.1930  -0.2179  -0.3393   0.00    0.0
2080 384621.000   48.055286806    9.365191655   602.9532   4   8   0.8299   0.3818   0.9446   0.1932  -0.2178  -0.3394   0.00    0.0
2080 384622.000   48.055283508    9.365192494   602.8881   4   8   0.8300   0.3818   0.9445   0.1933  -0.2177  -0.3395   0.00    0.0
2080 384623.000   48.055283610    9.365190161   602.6215   4   8   0.8301   0.3819   0.9445   0.1934  -0.2176  -0.3396   0.00    0.0
2080 384624.000   48.055284302    9.365190751   602.6725   4   8   0.8301   0.3819   0.9444   0.1936  -0.2175  -0.3397   0.00    0.0
2080 384625.000   48.055282260    9.365190955   602.7519   4   8   0.8302   0.3819   0.9444   0.1937  -0.2174  -0.3397   0.00    0.0
2080 384626.000   48.055285912    9.365191677   603.0014   4   8   0.8302   0.3819   0.9443   0.1938  -0.2174  -0.3398   0.00    0.0
2080 384627.000   48.055283649    9.365190816   602.8755   4   8   0.8303   0.3819   0.9442   0.1939  -0.2173  -0.3399   0.00    0.0
2080 384628.000   48.055282392    9.365191495   602.6521   4   8   0.8304   0.3820   0.9442   0.1941  -0.2172  -0.3400   0.00    0.0
2080 384629.000   48.055280601    9.365192672   602.8179   4   8   0.8304   0.3820   0.9441   0.1942  -0.2171  -0.3400   0.00    0.0
2080 384630.000   48.055281562    9.365191245   602.9304   4   8   0.8305   0.3820   0.9441   0.1943  -0.2170  -0.3401   0.00    0.0
2080 384631.000   48.055279693    9.365192699   602.5823   4   8   0.8305   0.3820   0.9440   0.1944  -0.2169  -0.3402   0.00    0.0
2080 384632.000   48.055281832    9.365191571   602.6214   4   8   0.8306   0.3821   0.9440   0.1946  -0.2168  -0.3403   0.00    0.0
2080 384633.000   48.055281571    9.365191014   602.6931   4   8   0.8307   0.3821   0.9439   0.1947  -0.2168  -0.3404   0.00    0.0
2080 384634.000   48.055281438    9.365193232   602.7702   4   8   0.8307   0.3821   0.9438   0.1948  -0.2167  -0.3404   0.00    0.0
2080 384635.000   48.055280216    9.365192437   602.9794   4   8   0.8308   0.3821   0.9438   0.1950  -0.2166  -0.3405   0.00    0.0
2080 384636.000   48.055280334    9.365191683   603.1886   4   8   0.8308   0.3821   0.9437   0.1951  -0.2165  -0.3406   0.00    0.0
2080 384637.000   48.055281661    9.365190121   603.1305   4   8   0.8309   0.3822   0.9437   0.1952  -0.2164  -0.3407   0.00    0.0
2080 384638.000   48.055281088    9.365190836   602.9753   4   8   0.8310   0.3822   0.9436   0.1953  -0.2163  -0.3407   0.00    0.0
2080 384639.000   48.055281713    9.365190962   602.8958   4   8   0.8310   0.3822   0.9436   0.1955  -0.2163  -0.3408   0.00    0.0
2080 384640.000   48.055281530    9.365191099   602.4528   4   8   0.8311   0.3822   0.9435   0.1956  -0.2162  -0.3409   0.00    0.0
2080 384641.000   48.055280127    9.365192309   602.7857   4   8   0.8311   0.3822   0.9434   0.1957  -0.2161  -0.3410   0.00    0.0
2080 384642.000   48.055278112    9.365189903   602.8810   4   8   0.8312   0.3823   0.9434   0.1958  -0.2160  -0.3410   0.00    0.0
2080 384643.000   48.055280741    9.365190965   603.1649   4   8   0.8312   0.3823   0.9433   0.1960  -0.2159  -0.3411   0.00    0.0
2080 384644.000   48.055280710    9.365190955   602.9508   4   8   0.8313   0.3823   0.9433   0.1961  -0.2158  -0.3412   0.00    0.0
2080 384645.000   48.055279999    9.365192320   603.4103   4   8   0.8314   0.3823   0.9432   0.1962  -0.2157  -0.3413   0.00    0.0
2080 384646.000   48.055280604    9.365192265   603.1395   4   8   0.8314   0.3824   0.9432   0.1963  -0.2157  -0.3413   0.00    0.0
2080 384647.000   48.055281109    9.365193263   603.1443   4   8   0.8315   0.3824   0.9431   0.1965  -0.2156  -0.3414   0.00    0.0
2080 384648.000   48.055279595    9.365192085   603.0826   4   8   0.8315   0.3824   0.9431   0.1966  -0.2155  -0.3415   0.00    0.0
2080 384649.000   48.055281577    9.365192390   603.3021   4   8   0.8316   0.3824   0.9430   0.1967  -0.2154  -0.3416   0.00    0.0
2080 384650.000   48.055282786    9.365191977   603.0174   4   8   0.8317   0.3824   0.9429   0.1968  -0.2153  -0.3416   0.00    0.0
2080 384651.000   48.055280228    9.365192645   603.1838   4   8   0.8317   0.3825   0.9429   0.1970  -0.2152  -0.3417   0.00    0.0
2080 384652.000   48.055281557    9.365191065   603.2249   4   8   0.8318   0.3825   0.9428   0.1971  -0.2152  -0.3418   0.00    0.0
2080 384653.000   48.055280013    9.365191680   603.2201   4   8   0.8318   0.3825   0.9428   0.1972  -0.2151  -0.3419   0.00    0.0
2080 384654.000   48.055279612    9.365188511   603.2194   4   8   0.8319   0.3825   0.9427   0.1973  -0.2150  -0.3420   0.00    0.0
2080 384655.000   48.055281185    9.365188701   603.1722   4   8   0.8320   0.3825   0.9427   0.1975  -0.2149  -0.3420   0.00    0.0
2080 384656.000   48.055283017    9.365189540   602.4583   4   8   0.8320   0.3826   0.9426   0.1976  -0.2148  -0.3421   0.00    0.0
2080 384657.000   48.055283650    9.365189578   602.9092   4   8   0.8321   0.3826   0.9426   0.1977  -0.2147  -0.3422   0.00    0.0
2080 384658.000   48.055281802    9.365190103   602.7988   4   8   0.8321   0.3826   0.9425   0.1978  -0.2146  -0.3423   0.00    0.0
2080 384659.000   48.055281725    9.365189482   602.8596   4   8   0.8322   0.3826   0.9425   0.1980  -0.2146  -0.3423   0.00    0.0
2080 384660.000   48.055277357    9.365189820   602.8519   4   8   0.8323   0.3827   0.9424   0.1981  -0.2145  -0.3424   0.00    0.0
2080 384661.000   48.055279379    9.365190116   602.8225   4   8   0.8323   0.3827   0.9423   0.1982  -0.2144  -0.3425   0.00    0.0
2080 384662.000   48.055279299    9.365190372   602.7691   4   8   0.8324   0.3827   0.9423   0.1983  -0.2143  -0.3425   0.00    0.0
2080 384663.000   48.055281240    9.365189431   602.8768   4   8   0.8324   0.3827   0.9422   0.1985  -0.2142  -0.3426   0.00    0.0
2080 384664.000   48.055281373    9.365190960   602.7494   4   8   0.8325   0.3827   0.9422   0.1986  -0.2141  -0.3427   0.00    0.0
2080 384665.000   48.055281147    9.365189547   602.8598   4   8   0.8325   0.3828   0.9421   0.1987  -0.2141  -0.3428   0.00    0.0
2080 384666.000   48.055281618    9.365190246   603.0015   4   8   0.8326   0.3828   0.9421   0.1988  -0.2140  -0.3428   0.00    0.0
2080 384667.000   48.055281069    9.365189742   603.0067   4   8   0.8327   0.3828   0.9420   0.1990  -0.2139  -0.3429   0.00    0.0
2080 384668.000   48.055282990    9.365189550   602.8944   4   8   0.8327   0.3828   0.9420   0.1991  -0.2138  -0.3430   0.00    0.0
2080 384669.000   48.055281014    9.365189473   603.0235   4   8   0.8328   0.3829   0.9419   0.1992  -0.2137  -0.3431   0.00    0.0
2080 384670.000   48.055279788    9.365190714   602.8980   4   8   0.8328   0.3829   0.9419   0.1993  -0.2136  -0.3431   0.00    0.0
2080 384671.000   48.055280051    9.365190687   603.2291   4   8   0.8329   0.3829   0.9418   0.1995  -0.2136  -0.3432   0.00    0.0
2080 384672.000   48.055281528    9.365190182   602.7483   4   8   0.8330   0.3829   0.9418   0.1996  -0.2135  -0.3433   0.00    0.0
2080 384673.000   48.055282388    9.365189284   602.7750   4   8   0.8330   0.3829   0.9417   0.1997  -0.2134  -0.3434   0.00    0.0
2080 384674.000   48.055281618    9.365189332   603.1184   4   8   0.8331   0.3830   0.9416   0.1998  -0.2133  -0.3434   0.00    0.0
2080 384675.000   48.055281831    9.365190716   603.2659   4   8   0.8331   0.3830   0.9416   0.2000  -0.2132  -0.3435   0.00    0.0
2080 384676.000   48.055282915    9.365189948   602.9215   4   8   0.8332   0.3830   0.9415   0.2001  -0.2131  -0.3436   0.00    0.0
2080 384677.000   48.055283833    9.365190678   602.7935   4   8   0.8333   0.3830   0.9415   0.2002  -0.2130  -0.3437   0.00    0.0
2080 384678.000   48.055282119    9.365189656   603.0249   4   8   0.8333   0.3831   0.9414   0.2003  -0.2130  -0.3437   0.00    0.0
2080 384679.000   48.055281016    9.365188313   602.8558   4   8   0.8334   0.3831   0.9414   0.2005  -0.2129  -0.3438   0.00    0.0
2080 384680.000   48.055279435    9.365187835   603.1235   4   8   0.8334   0.3831   0.9413   0.2006  -0.2128  -0.3439   0.00    0.0
2080 384681.000   48.055282025    9.365187109   602.7472   4   8   0.8335   0.3831   0.9413   0.2007  -0.2127  -0.3439   0.00    0.0
2080 384682.000   48.055279986    9.365187740   603.0719   4   8   0.8336   0.3831   0.9412   0.2008  -0.2126  -0.3440   0.00    0.0
2080 384683.000   48.055282446    9.365188154   603.1570   4   8   0.8336   0.3832   0.9412   0.2010  -0.2125  -0.3441   0.00    0.0
2080 384684.000   48.055282089    9.365187808   603.1184   4   8   0.8337   0.3832   0.9411   0.2011  -0.2125  -0.3442   0.00    0.0
2080 384685.000   48.055282806    9.365189714   603.0068   4   8   0.8337   0.3832   0.9411   0.2012  -0.2124  -0.3442   0.00    0.0
2080 384686.000   48.055284181    9.365188198   603.0277   4   8   0.8338   0.3832   0.9410   0.2013  -0.2123  -0.3443   0.00    0.0
2080 384687.000   48.055281835    9.365190522   603.3935   4   8   0.8339   0.3833   0.9410   0.2015  -0.2122  -0.3444   0.00    0.0
2080 384688.000   48.055284663    9.365187378   602.9304   4   8   0.8339   0.3833   0.9409   0.2016  -0.2121  -0.3444   0.00    0.0
2080 384689.000   48.055285627    9.365188197   602.8896   4   8   0.8340   0.3833   0.9409   0.2017  -0.2120  -0.3445   0.00    0.0
2080 384690.000   48.055283563    9.365188249   603.0644   4   8   0.8340   0.3833   0.9408   0.2018  -0.2120  -0.3446   0.00    0.0
2080 384691.000   48.055284413    9.365188463   603.0157   4   8   0.8341   0.3833   0.9408   0.2020  -0.2119  -0.3447   0.00    0.0
2080 384692.000   48.055284100    9.365188069   603.2057   4   8   0.8342   0.3834   0.9407   0.2021  -0.2118  -0.3447   0.00    0.0
2080 384693.000   48.055284740    9.365187773   603.0056   4   8   0.8342   0.3834   0.9407   0.2022  -0.2117  -0.3448   0.00    0.0
2080 384694.000   48.055286142    9.365189462   602.7774   4   8   0.8343   0.3834   0.9406   0.2023  -0.2116  -0.3449   0.00    0.0
2080 384695.000   48.055283689    9.365188618   603.0435   4   8   0.8343   0.3834   0.9405   0.2024  -0.2115  -0.3449   0.00    0.0
2080 384696.000   48.055286232    9.365190298   603.2227   4   8   0.8344   0.3835   0.9405   0.2026  -0.2115  -0.3450   0.00    0.0
2080 384697.000   48.055285444    9.365188681   603.1868   4   8   0.8345   0.3835   0.9404   0.2027  -0.2114  -0.3451   0.00    0.0
2080 384698.000   48.055284820    9.365190074   602.8507   4   8   0.8345   0.3835   0.9404   0.2028  -0.2113  -0.3452   0.00    0.0
2080 384699.000   48.055284908    9.365188548   602.7961   4   8   0.8346   0.3835   0.9403   0.2029  -0.2112  -0.3452   0.00    0.0
2080 384700.000   48.055283971    9.365190655   602.8962   4   8   0.8346   0.3836   0.9403   0.2031  -0.2111  -0.3453   0.00    0.0
2080 384701.000   48.055285663    9.365191519   602.8664   4   8   0.8347   0.3836   0.9402   0.2032  -0.2110  -0.3454   0.00    0.0
2080 384702.000   48.055283380    9.365190668   603.0045   4   8   0.8348   0.3836   0.9402   0.2033  -0.2109  -0.3454   0.00    0.0
2080 384703.000   48.055283772    9.365191930   603.0879   4   8   0.8348   0.3836   0.9401   0.2034  -0.2109  -0.3455   0.00    0.0
2080 384704.000   48.055284217    9.365190558   603.1739   4   8   0.8349   0.3836   0.9401   0.2036  -0.2108  -0.3456   0.00    0.0
2080 384705.000   48.055285868    9.365190161   603.0918   4   8   0.8349   0.3837   0.9400   0.2037  -0.2107  -0.3457   0.00    0.0
2080 384706.000   48.055287197    9.365190673   603.3291   4   8   0.8350   0.3837   0.9400   0.2038  -0.2106  -0.3457   0.00    0.0
2080 384707.000   48.055287075    9.365192814   603.1375   4   8   0.8350   0.3837   0.9399   0.2039  -0.2105  -0.3458   0.00    0.0
2080 384708.000   48.055287483    9.365191280   603.5394   4   8   0.8351   0.3837   0.9399   0.2040  -0.2104  -0.3459   0.00    0.0
2080 384709.000   48.055286930    9.365191710   603.3323   4   8   0.8352   0.3838   0.9398   0.2042  -0.2104  -0.3459   0.00    0.0
2080 384710.000   48.055286753    9.365191642   603.4849   4   8   0.8352   0.3838   0.9398   0.2043  -0.2103  -0.3460   0.00    0.0
2080 384711.000   48.055288692    9.365191214   602.9577   4   8   0.8353   0.3838   0.9397   0.2044  -0.2102  -0.3461   0.00    0.0
2080 384712.000   48.055289096    9.365190795   603.5033   4   8   0.8353   0.3838   0.9397   0.2045  -0.2101  -0.3461   0.00    0.0
2080 384713.000   48.055286593    9.365189856   603.3758   4   8   0.8354   0.3838   0.9396   0.2047  -0.2100  -0.3462   0.00    0.0
2080 384714.000   48.055288224    9.365192347   603.0822   4   8   0.8355   0.3839   0.9396   0.2048  -0.2099  -0.3463   0.00    0.0
2080 384715.000   48.055286667    9.365192009   603.4833   4   8   0.8355   0.3839   0.9395   0.2049  -0.2099  -0.3463   0.00    0.0
2080 384716.000   48.055288247    9.365191386   603.8453   4   8   0.8356   0.3839   0.9395   0.2050  -0.2098  -0.3464   0.00    0.0
2080 384717.000   48.055287122    9.365190841   603.3892   4   8   0.8356   0.3839   0.9394   0.2051  -0.2097  -0.3465   0.00    0.0
2080 384718.000   48.055287478    9.365191845   603.7094   4   8   0.8357   0.3840   0.9394   0.2053  -0.2096  -0.3466   0.00    0.0
2080 384719.000   48.055286985    9.365192226   603.4733   4   8   0.8358   0.3840   0.9393   0.2054  -0.2095  -0.3466   0.00    0.0
2080 384720.000   48.055285918    9.365192193   603.4019   4   8   0.8358   0.3840   0.9393   0.2055  -0.2094  -0.3467   0.00    0.0
2080 384721.000   48.055288098    9.365193751   603.2343   4   8   0.8359   0.3840   0.9392   0.2056  -0.2094  -0.3468   0.00    0.0
2080 384722.000   48.055285894    9.365193774   603.1534   4   8   0.8359   0.3841   0.9392   0.2058  -0.2093  -0.3468   0.00    0.0
2080 384723.000   48.055287705    9.365192289   603.4306   4   8   0.8360   0.3841   0.9391   0.2059  -0.2092  -0.3469   0.00    0.0
2080 384724.000   48.055287381    9.365192576   603.6564   4   8   0.8361   0.3841   0.9391   0.2060  -0.2091  -0.3470   0.00    0.0
2080 384725.000   48.055287376    9.365192519   603.5636   4   8   0.8361   0.3841   0.9390   0.2061  -0.2090  -0.3470   0.00    0.0
2080 384726.000   48.055288108    9.365191965   603.3744   4   8   0.8362   0.3842   0.9390   0.2062  -0.2089  -0.3471   0.00    0.0
2080 384727.000   48.055287760    9.365193669   603.5691   4   8   0.8362   0.3842   0.9390   0.2064  -0.2089  -0.3472   0.00    0.0
2080 384728.000   48.055288193    9.365193702   603.5783   4   8   0.8363   0.3842   0.9389   0.2065  -0.2088  -0.3472   0.00    0.0
2080 384729.000   48.055286146    9.365194188   603.5701   4   8   0.8364   0.3842   0.9389   0.2066  -0.2087  -0.3473   0.00    0.0
2080 384730.000   48.055287732    9.365193352   603.7188   4   8   0.8364   0.3842   0.9388   0.2067  -0.2086  -0.3474   0.00    0.0
2080 384731.000   48.055286897    9.365193752   603.9104   4   8   0.8365   0.3843   0.9388   0.2069  -0.2085  -0.3474   0.00    0.0
2080 384732.000   48.055286186    9.365192610   603.4878   4   8   0.8365   0.3843   0.9387   0.2070  -0.2084  -0.3475   0.00    0.0
2080 384733.000   48.055285407    9.365193144   603.5392   4   8   0.8366   0.3843   0.9387   0.2071  -0.2084  -0.3476   0.00    0.0
2080 384734.000   48.055285349    9.365193570   603.7290   4   8   0.8367   0.3843   0.9386   0.2072  -0.2083  -0.3476   0.00    0.0
2080 384735.000   48.055286179    9.365193588   603.9183   4   8   0.8367   0.3844   0.9386   0.2073  -0.2082  -0.3477   0.00    0.0
2080 384736.000   48.055284844    9.365193672   603.7279   4   8   0.8368   0.3844   0.9385   0.2075  -0.2081  -0.3478   0.00    0.0
2080 384737.000   48.055285042    9.365194051   603.6571   4   8   0.8369   0.3844   0.9385   0.2076  -0.2080  -0.3478   0.00    0.0
2080 384738.000   48.055284690    9.365195459   603.7614   4   8   0.8369   0.3844   0.9384   0.2077  -0.2079  -0.3479   0.00    0.0
2080 384739.000   48.055283317    9.365193874   603.6171   4   8   0.8370   0.3845   0.9384   0.2078  -0.2079  -0.3480   0.00    0.0
2080 384740.000   48.055284292    9.365194105   603.8739   4   8   0.8370   0.3845   0.9383   0.2079  -0.2078  -0.3480   0.00    0.0
2080 384741.000   48.055284832    9.365194086   603.9306   4   8   0.8371   0.3845   0.9383   0.2081  -0.2077  -0.3481   0.00    0.0
2080 384742.000   48.055285528    9.365197321   603.8731   4   8   0.8372   0.3845   0.9382   0.2082  -0.2076  -0.3482   0.00    0.0
2080 384743.000   48.055284868    9.365195310   603.6975   4   8   0.8372   0.3846   0.9382   0.2083  -0.2075  -0.3482   0.00    0.0
2080 384744.000   48.055283911    9.365196067   603.2094   4   8   0.8373   0.3846   0.9381   0.2084  -0.2074  -0.3483   0.00    0.0
2080 384745.000   48.055284967    9.365197233   603.3991   4   8   0.8373   0.3846   0.9381   0.2085  -0.2074  -0.3484   0.00    0.0
2080 384746.000   48.055287850    9.365196411   603.1751   4   8   0.8374   0.3846   0.9380   0.2087  -0.2073  -0.3484   0.00    0.0
2080 384747.000   48.055285992    9.365194975   603.2461   4   8   0.8375   0.3847   0.9380   0.2088  -0.2072  -0.3485   0.00    0.0
2080 384748.000   48.055282351    9.365196001   602.9602   4   8   0.8375   0.3847   0.9379   0.2089  -0.2071  -0.3486   0.00    0.0
2080 384749.000   48.055284997    9.365196045   603.1805   4   8   0.8376   0.3847   0.9379   0.2090  -0.2070  -0.3486   0.00    0.0
2080 384750.000   48.055283782    9.365196126   602.9202   4   8   0.8376   0.3847   0.9379   0.2092  -0.2069  -0.3487   0.00    0.0
2080 384751.000   48.055284494    9.365196670   603.0389   4   8   0.8377   0.3847   0.9378   0.2093  -0.2069  -0.3488   0.00    0.0
2080 384752.000   48.055285893    9.365194725   603.0849   4   8   0.8378   0.3848   0.9378   0.2094  -0.2068  -0.3488   0.00    0.0
2080 384753.000   48.055285034    9.365195483   602.8773   4   8   0.8378   0.3848   0.9377   0.2095  -0.2067  -0.3489   0.00    0.0
2080 384754.000   48.055284952    9.365195012   602.9856   4   8   0.8379   0.3848   0.9377   0.2096  -0.2066  -0.3490   0.00    0.0
2080 384755.000   48.055284042    9.365192600   603.0960   4   8   0.8379   0.3848   0.9376   0.2098  -0.2065  -0.3490   0.00    0.0
2080 384756.000   48.055283323    9.365194371   602.9042   4   8   0.8380   0.3849   0.9376   0.2099  -0.2064  -0.3491   0.00    0.0
2080 384757.000   48.055284797    9.365193736   602.9135   4   8   0.8381   0.3849   0.9375   0.2100  -0.2064  -0.3492   0.00    0.0
2080 384758.000   48.055284962    9.365193753   603.0037   4   8   0.8381   0.3849   0.9375   0.2101  -0.2063  -0.3492   0.00    0.0
2080 384759.000   48.055286526    9.365193219   603.1398   4   8   0.8382   0.3849   0.9374   0.2102  -0.2062  -0.3493   0.00    0.0
2080 384760.000   48.055283079    9.365193751   603.0548   4   8   0.8382   0.3850   0.9374   0.2104  -0.2061  -0.3493   0.00    0.0
2080 384761.000   48.055284895    9.365193214   603.0724   4   8   0.8383   0.3850   0.9373   0.2105  -0.2060  -0.3494   0.00    0.0
2080 384762.000   48.055286323    9.365194306   602.7241   4   8   0.8384   0.3850   0.9373   0.2106  -0.2059  -0.3495   0.00    0.0
2080 384763.000   48.055286948    9.365192831   602.8696   4   8   0.8384   0.3850   0.9373   0.2107  -0.2059  -0.3495   0.00    0.0
2080 384764.000   48.055285560    9.365192575   602.5715   4   8   0.8385   0.3851   0.9372   0.2108  -0.2058  -0.3496   0.00    0.0
2080 384765.000   48.055288331    9.365192259   602.8400   4   8   0.8385   0.3851   0.9372   0.2110  -0.2057  -0.3497   0.00    0.0
2080 384766.000   48.055287423    9.365193761   602.7792   4   8   0.8386   0.3851   0.9371   0.2111  -0.2056  -0.3497   0.00    0.0
2080 384767.000   48.055288626    9.365193235   602.6925   4   8   0.8387   0.3851   0.9371   0.2112  -0.2055  -0.3498   0.00    0.0
2080 384768.000   48.055288569    9.365193283   602.4938   4   8   0.8387   0.3852   0.9370   0.2113  -0.2054  -0.3499   0.00    0.0
2080 384769.000   48.055288708    9.365194056   602.5281   4   8   0.8388   0.3852   0.9370   0.2114  -0.2054  -0.3499   0.00    0.0
2080 384770.000   48.055287594    9.365193644   602.4808   4   8   0.8388   0.3852   0.9369   0.2116  -0.2053  -0.3500   0.00    0.0
2080 384771.000   48.055285312    9.365195733   602.6323   4   8   0.8389   0.3852   0.9369   0.2117  -0.2052  -0.3501   0.00    0.0
2080 384772.000   48.055284540    9.365193936   603.1396   4   8   0.8390   0.3853   0.9368   0.2118  -0.2051  -0.3501   0.00    0.0
2080 384773.000   48.055286682    9.365196043   603.1124   4   8   0.8390   0.3853   0.9368   0.2119  -0.2050  -0.3502   0.00    0.0
2080 384774.000   48.055287496    9.365196025   603.1186   4   8   0.8391   0.3853   0.9368   0.2120  -0.2049  -0.3502   0.00    0.0
2080 384775.000   48.055285971    9.365194593   603.1918   4   8   0.8391   0.3853   0.9367   0.2122  -0.2049  -0.3503   0.00    0.0
2080 384776.000   48.055286303    9.365196864   602.9507   4   8   0.8392   0.3854   0.9367   0.2123  -0.2048  -0.3504   0.00    0.0
2080 384777.000   48.055283892    9.365194863   603.0861   4   8   0.8393   0.3854   0.9366   0.2124  -0.2047  -0.3504   0.00    0.0
2080 384778.000   48.055285878    9.365194215   602.9921   4   8   0.8393   0.3854   0.9366   0.2125  -0.2046  -0.3505   0.00    0.0
2080 384779.000   48.055287200    9.365196573   602.2781   4   8   0.8394   0.3854   0.9365   0.2126  -0.2045  -0.3506   0.00    0.0
2080 384780.000   48.055286038    9.365196579   602.5543   4   8   0.8394   0.3855   0.9365   0.2127  -0.2044  -0.3506   0.00    0.0
2080 384781.000   48.055286282    9.365194380   602.4651   4   8   0.8395   0.3855   0.9364   0.2129  -0.2044  -0.3507   0.00    0.0
2080 384782.000   48.055286558    9.365194420   602.6430   4   8   0.8396   0.3855   0.9364   0.2130  -0.2043  -0.3507   0.00    0.0
2080 384783.000   48.055288884    9.365194651   602.8618   4   7   0.9212   0.4024   1.0035   0.2985  -0.0092   0.1170   0.00    0.0
2080 384784.000   48.055286897    9.365194470   602.4324   4   7   0.9213   0.4024   1.0034   0.2986  -0.0078   0.1166   0.00    0.0
2080 384785.000   48.055285680    9.365194113   602.4319   4   7   0.9213   0.4025   1.0033   0.2987  -0.0060   0.1161   0.00    0.0
2080 384786.000   48.055285835    9.365195638   602.4223   4   7   0.9214   0.4025   1.0032   0.2988  -0.0036   0.1157   0.00    0.0
2080 384787.000   48.055283231    9.365195303   602.2206   4   7   0.9214   0.4025   1.0031   0.2989   0.0033   0.1153   0.00    0.0
2080 384788.000   48.055282823    9.365194200   602.5536   4   7   0.9214   0.4025   1.0030   0.2990   0.0059   0.1149   0.00    0.0
2080 384789.000   48.055282308    9.365193343   602.5303   4   7   0.9215   0.4026   1.0030   0.2991   0.0077   0.1144   0.00    0.0
2080 384790.000   48.055286378    9.365194724   602.7110   4   7   0.9215   0.4026   1.0029   0.2991   0.0091   0.1140   0.00    0.0
2080 384791.000   48.055285348    9.365195031   602.5636   4   7   0.9216   0.4026   1.0028   0.2992   0.0103   0.1136   0.00    0.0
2080 384792.000   48.055286984    9.365195858   602.9189   4   7   0.9216   0.4026   1.0027   0.2993   0.0114   0.1131   0.00    0.0
2080 384793.000   48.055284990    9.365195085   602.5425   4   7   0.9217   0.4027   1.0026   0.2994   0.0124   0.1127   0.00    0.0
2080 384794.000   48.055284667    9.365195613   602.9824   4   7   0.9217   0.4027   1.0026   0.2995   0.0133   0.1123   0.00    0.0
2080 384795.000   48.055287388    9.365196540   603.0509   4   7   0.9217   0.4027   1.0025   0.2996   0.0142   0.1118   0.00    0.0
2080 384796.000   48.055285724    9.365195543   602.7671   4   7   0.9218   0.4028   1.0024   0.2996   0.0150   0.1114   0.00    0.0
2080 384797.000   48.055285520    9.365195751   603.1046   4   7   0.9218   0.4028   1.0023   0.2997   0.0157   0.1110   0.00    0.0
2080 384798.000   48.055284904    9.365194314   602.6872   4   7   0.9219   0.4028   1.0022   0.2998   0.0165   0.1105   0.00    0.0
2080 384799.000   48.055283209    9.365194444   602.5575   4   7   0.9219   0.4028   1.0021   0.2999   0.0172   0.1101   0.00    0.0
2080 384800.000   48.055282407    9.365193435   602.9083   4   7   0.9220   0.4029   1.0021   0.3000   0.0178   0.1096   0.00    0.0
2080 384801.000   48.055283291    9.365192921   603.0696   4   7   0.9220   0.4029   1.0020   0.3001   0.0185   0.1092   0.00    0.0
2080 384802.000   48.055283620    9.365194115   602.8657   4   7   0.9221   0.4029   1.0019   0.3002   0.0191   0.1087   0.00    0.0
2080 384803.000   48.055280347    9.365193758   603.0967   4   7   0.9221   0.4029   1.0018   0.3002   0.0197   0.1083   0.00    0.0
2080 384804.000   48.055282057    9.365192623   602.8840   4   7   0.9221   0.4030   1.0017   0.3003   0.0203   0.1078   0.00    0.0
2080 384805.000   48.055285245    9.365194360   603.1133   4   7   0.9222   0.4030   1.0017   0.3004   0.0209   0.1074   0.00    0.0
2080 384806.000   48.055285136    9.365192580   603.0611   4   7   0.9222   0.4030   1.0016   0.3005   0.0214   0.1069   0.00    0.0
2080 384807.000   48.055284584    9.365193308   602.9403   4   7   0.9223   0.4030   1.0015   0.3006   0.0220   0.1065   0.00    0.0
2080 384808.000   48.055282221    9.365193181   602.9787   4   7   0.9223   0.4031   1.0014   0.3007   0.0225   0.1060   0.00    0.0
2080 384809.000   48.055283809    9.365194193   602.9503   4   7   0.9224   0.4031   1.0013   0.3008   0.0230   0.1056   0.00    0.0
2080 384810.000   48.055286092    9.365193419   602.7979   4   7   0.9224   0.4031   1.0012   0.3008   0.0235   0.1051   0.00    0.0
2080 384811.000   48.055284362    9.365193583   602.8898   4   7   0.9224   0.4032   1.0012   0.3009   0.0240   0.1046   0.00    0.0
2080 384812.000   48.055286298    9.365194234   602.5654   4   7   0.9225   0.4032   1.0011   0.3010   0.0245   0.1042   0.00    0.0
2080 384813.000   48.055283043    9.365193646   602.8184   4   7   0.9225   0.4032   1.0010   0.3011   0.0249   0.1037   0.00    0.0
2080 384814.000   48.055285620    9.365194090   603.3031   4   7   0.9226   0.4032   1.0009   0.3012   0.0254   0.1032   0.00    0.0
2080 384815.000   48.055287503    9.365194047   603.0738   4   7   0.9226   0.4033   1.0008   0.3013   0.0259   0.1028   0.00    0.0
2080 384816.000   48.055289297    9.365193115   602.9176   4   7   0.9227   0.4033   1.0008   0.3013   0.0263   0.1023   0.00    0.0
2080 384817.000   48.055286608    9.365193820   603.2803   4   7   0.9227   0.4033   1.0007   0.3014   0.0267   0.1018   0.00    0.0
2080 384818.000   48.055285399    9.365194015   603.3548   4   7   0.9227   0.4033   1.0006   0.3015   0.0272   0.1014   0.00    0.0
2080 384819.000   48.055284066    9.365191431   603.0400   4   7   0.9228   0.4034   1.0005   0.3016   0.0276   0.1009   0.00    0.0
2080 384820.000   48.055284066    9.365192700   603.2647   4   7   0.9228   0.4034   1.0004   0.3017   0.0280   0.1004   0.00    0.0
2080 384821.000   48.055286057    9.365193824   603.4723   4   7   0.9229   0.4034   1.0004   0.3018   0.0284   0.0999   0.00    0.0
2080 384822.000   48.055285408    9.365194114   603.4179   4   7   0.9229   0.4035   1.0003   0.3018   0.0288   0.0994   0.00    0.0
2080 384823.000   48.055285831    9.365193624   603.4546   4   7   0.9230   0.4035   1.0002   0.3019   0.0292   0.0990   0.00    0.0
2080 384824.000   48.055285593    9.365193424   603.3292   4   7   0.9230   0.4035   1.0001   0.3020   0.0296   0.0985   0.00    0.0
2080 384825.000   48.055286055    9.365193744   603.6070   4   7   0.9230   0.4035   1.0000   0.3021   0.0300   0.0980   0.00    0.0
2080 384826.000   48.055285847    9.365193918   603.3099   4   7   0.9231   0.4036   1.0000   0.3022   0.0304   0.0975   0.00    0.0
2080 384827.000   48.055288660    9.365195983   603.3417   4   7   0.9231   0.4036   0.9999   0.3023   0.0307   0.0970   0.00    0.0
2080 384828.000   48.055286698    9.365194660   603.1010   4   7   0.9232   0.4036   0.9998   0.3024   0.0311   0.0965   0.00    0.0
2080 384829.000   48.055283471    9.365194026   603.3327   4   7   0.9232   0.4036   0.9997   0.3024   0.0315   0.0960   0.00    0.0
2080 384830.000   48.055282694    9.365193120   603.2111   4   7   0.9233   0.4037   0.9997   0.3025   0.0318   0.0955   0.00    0.0
2080 384831.000   48.055283366    9.365194130   603.4458   4   7   0.9233   0.4037   0.9996   0.3026   0.0322   0.0950   0.00    0.0
2080 384832.000   48.055284800    9.365195077   603.6117   4   7   0.9234   0.4037   0.9995   0.3027   0.0325   0.0945   0.00    0.0
2080 384833.000   48.055284144    9.365194236   603.3533   4   7   0.9234   0.4038   0.9994   0.3028   0.0329   0.0940   0.00    0.0
2080 384834.000   48.055281328    9.365193000   603.3165   4   7   0.9234   0.4038   0.9993   0.3029   0.0332   0.0935   0.00    0.0
2080 384835.000   48.055282978    9.365193695   603.4174   4   7   0.9235   0.4038   0.9993   0.3029   0.0336   0.0930   0.00    0.0
2080 384836.000   48.055283616    9.365192546   603.1451   4   7   0.9235   0.4038   0.9992   0.3030   0.0339   0.0924   0.00    0.0
2080 384837.000   48.055284595    9.365193254   603.4198   4   7   0.9236   0.4039   0.9991   0.3031   0.0342   0.0919   0.00    0.0
2080 384838.000   48.055286371    9.365194021   603.0962   4   7   0.9236   0.4039   0.9990   0.3032   0.0346   0.0914   0.00    0.0
2080 384839.000   48.055284719    9.365193623   603.3155   4   7   0.9237   0.4039   0.9990   0.3033   0.0349   0.0909   0.00    0.0
2080 384840.000   48.055281370    9.365192089   603.0006   4   7   0.9237   0.4039   0.9989   0.3034   0.0352   0.0903   0.00    0.0
2080 384841.000   48.055282677    9.365192003   602.9771   4   7   0.9237   0.4040   0.9988   0.3034   0.0355   0.0898   0.00    0.0
2080 384842.000   48.055285692    9.365191033   603.3553   4   7   0.9238   0.4040   0.9987   0.3035   0.0358   0.0893   0.00    0.0
2080 384843.000   48.055283265    9.365191583   602.8612   4   7   0.9238   0.4040   0.9986   0.3036   0.0362   0.0888   0.00    0.0
2080 384844.000   48.055284583    9.365191022   603.4887   4   7   0.9239   0.4040   0.9986   0.3037   0.0365   0.0882   0.00    0.0
2080 384845.000   48.055283832    9.365191394   603.5803   4   7   0.9239   0.4041   0.9985   0.3038   0.0368   0.0877   0.00    0.0
2080 384846.000   48.055284933    9.365191568   603.2462   4   7   0.9240   0.4041   0.9984   0.3039   0.0371   0.0871   0.00    0.0
2080 384847.000   48.055285816    9.365190762   603.3075   4   7   0.9240   0.4041   0.9983   0.3039   0.0374   0.0866   0.00    0.0
2080 384848.000   48.055287296    9.365191275   603.7400   4   7   0.9240   0.4042   0.9983   0.3040   0.0377   0.0860   0.00    0.0
2080 384849.000   48.055283750    9.365190879   603.4867   4   7   0.9241   0.4042   0.9982   0.3041   0.0380   0.0855   0.00    0.0
2080 384850.000   48.055284996    9.365190716   603.5069   4   7   0.9241   0.4042   0.9981   0.3042   0.0383   0.0849   0.00    0.0
2080 384851.000   48.055287408    9.365191043   603.5702   4   7   0.9242   0.4042   0.9980   0.3043   0.0386   0.0844   0.00    0.0
2080 384852.000   48.055285892    9.365190734   603.8282   4   7   0.9242   0.4043   0.9979   0.3044   0.0388   0.0838   0.00    0.0
2080 384853.000   48.055285015    9.365190478   603.7516   4   7   0.9243   0.4043   0.9979   0.3044   0.0391   0.0832   0.00    0.0
2080 384854.000   48.055285238    9.365192261   603.6105   4   7   0.9243   0.4043   0.9978   0.3045   0.0394   0.0827   0.00    0.0
2080 384855.000   48.055284923    9.365191742   603.8368   4   7   0.9243   0.4044   0.9977   0.3046   0.0397   0.0821   0.00    0.0
2080 384856.000   48.055282998    9.365192972   603.8765   4   7   0.9244   0.4044   0.9976   0.3047   0.0400   0.0815   0.00    0.0
2080 384857.000   48.055283928    9.365191595   603.7092   4   7   0.9244   0.4044   0.9976   0.3048   0.0403   0.0809   0.00    0.0
2080 384858.000   48.055284558    9.365192481   603.7950   4   7   0.9245   0.4044   0.9975   0.3048   0.0405   0.0803   0.00    0.0
2080 384859.000   48.055282847    9.365192328   603.7259   4   7   0.9245   0.4045   0.9974   0.3049   0.0408   0.0798   0.00    0.0
2080 384860.000   48.055284677    9.365192409   603.8499   4   7   0.9246   0.4045   0.9973   0.3050   0.0411   0.0792   0.00    0.0
2080 384861.000   48.055283537    9.365191646   603.6880   4   7   0.9246   0.4045   0.9973   0.3051   0.0413   0.0786   0.00    0.0
2080 384862.000   48.055283717    9.365191826   603.7179   4   7   0.9246   0.4045   0.9972   0.3052   0.0416   0.0780   0.00    0.0
2080 384863.000   48.055281432    9.365190406   603.5771   4   7   0.9247   0.4046   0.9971   0.3053   0.0419   0.0774   0.00    0.0
2080 384864.000   48.055281755    9.365191839   603.7409   4   7   0.9247   0.4046   0.9970   0.3053   0.0421   0.0768   0.00    0.0
2080 384865.000   48.055283141    9.365192299   603.6238   4   7   0.9248   0.4046   0.9970   0.3054   0.0424   0.0761   0.00    0.0
2080 384866.000   48.055285116    9.365192946   603.7564   4   7   0.9248   0.4047   0.9969   0.3055   0.0427   0.0755   0.00    0.0
2080 384867.000   48.055285969    9.365194853   603.9052   4   7   0.9248   0.4047   0.9968   0.3056   0.0429   0.0749   0.00    0.0
2080 384868.000   48.055283750    9.365193150   603.6627   4   7   0.9249   0.4047   0.9967   0.3057   0.0432   0.0743   0.00    0.0
2080 384869.000   48.055283837    9.365192499   603.9058   4   7   0.9249   0.4047   0.9967   0.3058   0.0434   0.0736   0.00    0.0
2080 384870.000   48.055283563    9.365190728   603.9599   4   7   0.9250   0.4048   0.9966   0.3058   0.0437   0.0730   0.00    0.0
2080 384871.000   48.055282678    9.365193088   603.8172   4   7   0.9250   0.4048   0.9965   0.3059   0.0439   0.0723   0.00    0.0
2080 384872.000   48.055283824    9.365192033   603.5944   4   7   0.9251   0.4048   0.9964   0.3060   0.0442   0.0717   0.00    0.0
2080 384873.000   48.055283236    9.365192456   603.8194   4   7   0.9251   0.4048   0.9964   0.3061   0.0444   0.0710   0.00    0.0
2080 384874.000   48.055283885    9.365192116   603.9137   4   7   0.9251   0.4049   0.9963   0.3062   0.0447   0.0704   0.00    0.0
2080 384875.000   48.055283326    9.365192624   603.9525   4   7   0.9252   0.4049   0.9962   0.3062   0.0449   0.0697   0.00    0.0
2080 384876.000   48.055284210    9.365192512   603.6427   4   7   0.9252   0.4049   0.9961   0.3063   0.0452   0.0690   0.00    0.0
2080 384877.000   48.055281733    9.365191833   603.7258   4   7   0.9253   0.4050   0.9961   0.3064   0.0454   0.0684   0.00    0.0
2080 384878.000   48.055283171    9.365192013   603.4265   4   7   0.9253   0.4050   0.9960   0.3065   0.0456   0.0677   0.00    0.0
2080 384879.000   48.055278938    9.365191372   603.9663   4   7   0.9254   0.4050   0.9959   0.3066   0.0459   0.0670   0.00    0.0
2080 384880.000   48.055278379    9.365189171   603.4226   4   7   0.9254   0.4050   0.9958   0.3066   0.0461   0.0663   0.00    0.0
2080 384881.000   48.055281515    9.365191835   603.4474   4   7   0.9254   0.4051   0.9958   0.3067   0.0463   0.0656   0.00    0.0
2080 384882.000   48.055283120    9.365190789   603.5453   4   7   0.9255   0.4051   0.9957   0.3068   0.0466   0.0649   0.00    0.0
2080 384883.000   48.055280612    9.365190658   603.6051   4   7   0.9255   0.4051   0.9956   0.3069   0.0468   0.0641   0.00    0.0
2080 384884.000   48.055282181    9.365189921   603.4811   4   7   0.9256   0.4052   0.9955   0.3070   0.0470   0.0634   0.00    0.0
2080 384885.000   48.055283433    9.365190320   603.5886   4   7   0.9256   0.4052   0.9955   0.3071   0.0473   0.0627   0.00    0.0
2080 384886.000   48.055282537    9.365191268   603.4202   4   7   0.9257   0.4052   0.9954   0.3071   0.0475   0.0619   0.00    0.0
2080 384887.000   48.055285422    9.365191529   603.3660   4   7   0.9257   0.4052   0.9953   0.3072   0.0477   0.0612   0.00    0.0
2080 384888.000   48.055285315    9.365189946   603.4968   4   7   0.9257   0.4053   0.9953   0.3073   0.0479   0.0604   0.00    0.0
2080 384889.000   48.055285289    9.365191163   603.3301   4   7   0.9258   0.4053   0.9952   0.3074   0.0482   0.0596   0.00    0.0
2080 384890.000   48.055283394    9.365188544   603.1605   4   7   0.9258   0.4053   0.9951   0.3075   0.0484   0.0589   0.00    0.0
2080 384891.000   48.055283443    9.365189356   603.3238   4   7   0.9259   0.4053   0.9950   0.3075   0.0486   0.0581   0.00    0.0
2080 384892.000   48.055285270    9.365190730   603.2581   4   7   0.9259   0.4054   0.9950   0.3076   0.0488   0.0573   0.00    0.0
2080 384893.000   48.055282881    9.365191729   603.1010   4   7   0.9259   0.4054   0.9949   0.3077   0.0491   0.0565   0.00    0.0
2080 384894.000   48.055282358    9.365191467   603.2745   4   7   0.9260   0.4054   0.9948   0.3078   0.0493   0.0556   0.00    0.0
2080 384895.000   48.055283214    9.365190280   603.6295   4   7   0.9260   0.4055   0.9947   0.3079   0.0495   0.0548   0.00    0.0
2080 384896.000   48.055283268    9.365190913   603.3630   4   7   0.9261   0.4055   0.9947   0.3079   0.0497   0.0539   0.00    0.0
2080 384897.000   48.055285571    9.365189284   603.4657   4   7   0.9261   0.4055   0.9946   0.3080   0.0499   0.0531   0.00    0.0
2080 384898.000   48.055282269    9.365189422   603.5110   4   7   0.9262   0.4055   0.9945   0.3081   0.0501   0.0522   0.00    0.0
2080 384899.000   48.055282593    9.365189249   603.4143   4   7   0.9262   0.4056   0.9945   0.3082   0.0504   0.0513   0.00    0.0
2080 384900.000   48.055284502    9.365188873   603.4084   4   7   0.9262   0.4056   0.9944   0.3083   0.0506   0.0504   0.00    0.0
2080 384901.000   48.055285917    9.365190734   604.0038   4   7   0.9263   0.4056   0.9943   0.3084   0.0508   0.0495   0.00    0.0
2080 384902.000   48.055283518    9.365189729   603.4082   4   7   0.9263   0.4057   0.9942   0.3084   0.0510   0.0486   0.00    0.0
2080 384903.000   48.055285507    9.365190182   603.7808   4   7   0.9264   0.4057   0.9942   0.3085   0.0512   0.0476   0.00    0.0
2080 384904.000   48.055284146    9.365188922   603.3543   4   7   0.9264   0.4057   0.9941   0.3086   0.0514   0.0466   0.00    0.0
2080 384905.000   48.055283039    9.365189856   603.7011   4   7   0.9264   0.4057   0.9940   0.3087   0.0516   0.0456   0.00    0.0
2080 384906.000   48.055281315    9.365190993   603.6513   4   7   0.9265   0.4058   0.9940   0.3088   0.0518   0.0446   0.00    0.0
2080 384907.000   48.055281676    9.365190246   603.1901   4   7   0.9265   0.4058   0.9939   0.3088   0.0520   0.0436   0.00    0.0
2080 384908.000   48.055280258    9.365189661   603.6754   4   7   0.9266   0.4058   0.9938   0.3089   0.0522   0.0425   0.00    0.0
2080 384909.000   48.055282212    9.365189271   603.0118   4   7   0.9266   0.4059   0.9937   0.3090   0.0524   0.0414   0.00    0.0
2080 384910.000   48.055280844    9.365191757   603.1475   4   7   0.9267   0.4059   0.9937   0.3091   0.0526   0.0403   0.00    0.0
2080 384911.000   48.055281486    9.365190140   603.0999   4   7   0.9267   0.4059   0.9936   0.3092   0.0528   0.0391   0.00    0.0
2080 384912.000   48.055282064    9.365188861   603.2355   4   7   0.9267   0.4059   0.9935   0.3092   0.0530   0.0380   0.00    0.0
2080 384913.000   48.055283029    9.365190050   603.1529   4   7   0.9268   0.4060   0.9935   0.3093   0.0532   0.0367   0.00    0.0
2080 384914.000   48.055283040    9.365189521   603.2117   4   7   0.9268   0.4060   0.9934   0.3094   0.0534   0.0355   0.00    0.0
2080 384915.000   48.055282696    9.365189557   603.1481   4   7   0.9269   0.4060   0.9933   0.3095   0.0536   0.0342   0.00    0.0
2080 384916.000   48.055282742    9.365188230   602.9980   4   7   0.9269   0.4060   0.9932   0.3096   0.0538   0.0328   0.00    0.0
2080 384917.000   48.055283546    9.365188198   603.2357   4   7   0.9269   0.4061   0.9932   0.3096   0.0540   0.0314   0.00    0.0
2080 384918.000   48.055281842    9.365188435   603.0194   4   7   0.9270   0.4061   0.9931   0.3097   0.0542   0.0299   0.00    0.0
2080 384919.000   48.055286034    9.365189181   603.1437   4   7   0.9270   0.4061   0.9930   0.3098   0.0544   0.0283   0.00    0.0
2080 384920.000   48.055284725    9.365188838   603.3691   4   7   0.9271   0.4062   0.9930   0.3099   0.0546   0.0267   0.00    0.0
2080 384921.000   48.055285003    9.365190679   603.1477   4   7   0.9271   0.4062   0.9929   0.3100   0.0548   0.0249   0.00    0.0
2080 384922.000   48.055283019    9.365190677   602.9819   4   7   0.9272   0.4062   0.9928   0.3100   0.0550   0.0230   0.00    0.0
2080 384923.000   48.055282191    9.365189713   603.0277   4   7   0.9272   0.4062   0.9928   0.3101   0.0552   0.0209   0.00    0.0
2080 384924.000   48.055283000    9.365187766   602.8302   4   7   0.9272   0.4063   0.9927   0.3102   0.0553   0.0186   0.00    0.0
2080 384925.000   48.055282375    9.365186547   602.9436   4   7   0.9273   0.4063   0.9926   0.3103   0.0555   0.0160   0.00    0.0
2080 384926.000   48.055281160    9.365186113   602.9455   4   7   0.9273   0.4063   0.9926   0.3104   0.0557   0.0129   0.00    0.0
2080 384927.000   48.055281993    9.365188693   602.9434   4   7   0.9274   0.4064   0.9925   0.3104   0.0559   0.0087   0.00    0.0
2080 384928.000   48.055284520    9.365187321   603.0007   4   7   0.9274   0.4064   0.9924   0.3105   0.0561  -0.0039   0.00    0.0
2080 384929.000   48.055283207    9.365188117   603.0057   4   7   0.9274   0.4064   0.9923   0.3106   0.0563  -0.0103   0.00    0.0
2080 384930.000   48.055282236    9.365187419   602.6965   4   7   0.9275   0.4064   0.9923   0.3107   0.0565  -0.0140   0.00    0.0
2080 384931.000   48.055282962    9.365186827   602.8637   4   7   0.9275   0.4065   0.9922   0.3107   0.0566  -0.0169   0.00    0.0
2080 384932.000   48.055280255    9.365187167   602.7258   4   7   0.9276   0.4065   0.9921   0.3108   0.0568  -0.0194   0.00    0.0
2080 384933.000   48.055279662    9.365184922   602.7914   4   7   0.9276   0.4065   0.9921   0.3109   0.0570  -0.0216   0.00    0.0
2080 384934.000   48.055281615    9.365187464   602.9782   4   7   0.9276   0.4066   0.9920   0.3110   0.0572  -0.0236   0.00    0.0
2080 384935.000   48.055280053    9.365186885   602.7288   4   7   0.9277   0.4066   0.9919   0.3111   0.0574  -0.0255   0.00    0.0
2080 384936.000   48.055282453    9.365187091   602.7367   4   7   0.9277   0.4066   0.9919   0.3111   0.0575  -0.0272   0.00    0.0
2080 384937.000   48.055281422    9.365186978   602.6182   4   7   0.9278   0.4066   0.9918   0.3112   0.0577  -0.0288   0.00    0.0
2080 384938.000   48.055281529    9.365185459   602.6530   4   7   0.9278   0.4067   0.9917   0.3113   0.0579  -0.0303   0.00    0.0
2080 384939.000   48.055280740    9.365185100   602.9008   4   7   0.9279   0.4067   0.9917   0.3114   0.0581  -0.0318   0.00    0.0
2080 384940.000   48.055280505    9.365186520   603.1066   4   7   0.9279   0.4067   0.9916   0.3115   0.0583  -0.0331   0.00    0.0
2080 384941.000   48.055283551    9.365188774   603.2239   4   7   0.9279   0.4068   0.9915   0.3115   0.0584  -0.0345   0.00    0.0
2080 384942.000   48.055279834    9.365188490   602.9629   4   7   0.9280   0.4068   0.9915   0.3116   0.0586  -0.0357   0.00    0.0
2080 384943.000   48.055281769    9.365189862   603.2596   4   7   0.9280   0.4068   0.9914   0.3117   0.0588  -0.0370   0.00    0.0
2080 384944.000   48.055281221    9.365186544   603.2763   4   7   0.9281   0.4068   0.9913   0.3118   0.0590  -0.0382   0.00    0.0
2080 384945.000   48.055280353    9.365187512   603.3718   4   7   0.9281   0.4069   0.9913   0.3119   0.0591  -0.0393   0.00    0.0
2080 384946.000   48.055282336    9.365189838   603.3173   4   7   0.9281   0.4069   0.9912   0.3119   0.0593  -0.0405   0.00    0.0
2080 384947.000   48.055280489    9.365187270   603.1178   4   7   0.9282   0.4069   0.9911   0.3120   0.0595  -0.0415   0.00    0.0
2080 384948.000   48.055281529    9.365188371   602.7645   4   7   0.9282   0.4070   0.9910   0.3121   0.0596  -0.0426   0.00    0.0
2080 384949.000   48.055281203    9.365189564   603.2793   4   7   0.9283   0.4070   0.9910   0.3122   0.0598  -0.0436   0.00    0.0
2080 384950.000   48.055280056    9.365188082   603.2934   4   7   0.9283   0.4070   0.9909   0.3122   0.0600  -0.0447   0.00    0.0
2080 384951.000   48.055279428    9.365189295   603.2165   4   7   0.9283   0.4070   0.9908   0.3123   0.0602  -0.0456   0.00    0.0
2080 384952.000   48.055280477    9.365188835   603.1452   4   7   0.9284   0.4071   0.9908   0.3124   0.0603  -0.0466   0.00    0.0
2080 384953.000   48.055281447    9.365186010   603.1344   4   7   0.9284   0.4071   0.9907   0.3125   0.0605  -0.0476   0.00    0.0
2080 384954.000   48.055279530    9.365187752   603.2445   4   7   0.9285   0.4071   0.9906   0.3126   0.0607  -0.0485   0.00    0.0
2080 384955.000   48.055281458    9.365187778   602.6547   4   7   0.9285   0.4072   0.9906   0.3126   0.0608  -0.0494   0.00    0.0
2080 384956.000   48.055282663    9.365188077   603.1520   4   7   0.9286   0.4072   0.9905   0.3127   0.0610  -0.0503   0.00    0.0
2080 384957.000   48.055279391    9.365186719   603.1493   4   7   0.9286   0.4072   0.9904   0.3128   0.0612  -0.0512   0.00    0.0
2080 384958.000   48.055279235    9.365189391   603.1198   4   7   0.9286   0.4072   0.9904   0.3129   0.0613  -0.0520   0.00    0.0
2080 384959.000   48.055283632    9.365190438   603.1791   4   7   0.9287   0.4073   0.9903   0.3130   0.0615  -0.0529   0.00    0.0
2080 384960.000   48.055281214    9.365188971   603.4031   4   7   0.9287   0.4073   0.9902   0.3130   0.0617  -0.0537   0.00    0.0
2080 384961.000   48.055283994    9.365190256   603.4772   4   7   0.9288   0.4073   0.9902   0.3131   0.0618  -0.0545   0.00    0.0
2080 384962.000   48.055281669    9.365187991   603.2700   4   7   0.9288   0.4074   0.9901   0.3132   0.0620  -0.0553   0.00    0.0
2080 384963.000   48.055282903    9.365187961   603.6073   4   7   0.9288   0.4074   0.9901   0.3133   0.0621  -0.0561   0.00    0.0
2080 384964.000   48.055280747    9.365188830   603.2720   4   7   0.9289   0.4074   0.9900   0.3133   0.0623  -0.0569   0.00    0.0
2080 384965.000   48.055283196    9.365188437   603.3240   4   7   0.9289   0.4074   0.9899   0.3134   0.0625  -0.0577   0.00    0.0
2080 384966.000   48.055281733    9.365187648   603.1616   4   7   0.9290   0.4075   0.9899   0.3135   0.0626  -0.0585   0.00    0.0
2080 384967.000   48.055283328    9.365189106   603.0814   4   7   0.9290   0.4075   0.9898   0.3136   0.0628  -0.0592   0.00    0.0
2080 384968.000   48.055283846    9.365188343   602.9914   4   7   0.9290   0.4075   0.9897   0.3137   0.0629  -0.0600   0.00    0.0
2080 384969.000   48.055286458    9.365189189   603.1008   4   7   0.9291   0.4076   0.9897   0.3137   0.0631  -0.0607   0.00    0.0
2080 384970.000   48.055284183    9.365188477   603.3803   4   7   0.9291   0.4076   0.9896   0.3138   0.0633  -0.0614   0.00    0.0
2080 384971.000   48.055286462    9.365189655   603.1258   4   7   0.9292   0.4076   0.9895   0.3139   0.0634  -0.0621   0.00    0.0
2080 384972.000   48.055283802    9.365189197   603.2676   4   7   0.9292   0.4076   0.9895   0.3140   0.0636  -0.0628   0.00    0.0
2080 384973.000   48.055285725    9.365191229   603.1816   4   7   0.9292   0.4077   0.9894   0.3140   0.0637  -0.0635   0.00    0.0
2080 384974.000   48.055282967    9.365189718   603.2046   4   7   0.9293   0.4077   0.9893   0.3141   0.0639  -0.0642   0.00    0.0
2080 384975.000   48.055283246    9.365188661   603.4375   4   7   0.9293   0.4077   0.9893   0.3142   0.0640  -0.0649   0.00    0.0
2080 384976.000   48.055284633    9.365190869   603.4548   4   7   0.9294   0.4078   0.9892   0.3143   0.0642  -0.0656   0.00    0.0
2080 384977.000   48.055283205    9.365188623   603.5649   4   7   0.9294   0.4078   0.9891   0.3143   0.0644  -0.0662   0.00    0.0
2080 384978.000   48.055282544    9.365190243   603.6266   4   7   0.9294   0.4078   0.9891   0.3144   0.0645  -0.0669   0.00    0.0
2080 384979.000   48.055285542    9.365190344   603.5603   4   7   0.9295   0.4078   0.9890   0.3145   0.0647  -0.0676   0.00    0.0
2080 384980.000   48.055284975    9.365192578   603.3658   4   7   0.9295   0.4079   0.9889   0.3146   0.0648  -0.0682   0.00    0.0
2080 384981.000   48.055287583    9.365189382   603.7690   4   7   0.9296   0.4079   0.9889   0.3147   0.0650  -0.0688   0.00    0.0
2080 384982.000   48.055285259    9.365190136   603.5925   4   7   0.9296   0.4079   0.9888   0.3147   0.0651  -0.0695   0.00    0.0
