% program   : RTKPOST ver.2.4.3 b33
% inp file  : E:\Study\master\semester 3\Satellite Navigation\lab6\data_sets\INS_3250.19O
% inp file  : E:\Study\master\semester 3\Satellite Navigation\lab6\data_sets\66870397.19o
% inp file  : E:\Study\master\semester 3\Satellite Navigation\lab6\data_sets\66870397.19n
% obs start : 2019/11/21 10:49:00.0 GPST (week2080 384540.0s)
% obs end   : 2019/11/21 13:55:09.0 GPST (week2080 395709.0s)
% pos mode  : kinematic
% freqs     : L1+L2
% solution  : forward
% elev mask : 15.0 deg
% dynamics  : off
% tidecorr  : off
% ionos opt : broadcast
% tropo opt : saastamoinen
% ephemeris : broadcast
% amb res   : continuous
% val thres : 3.0
% antenna1  :                       ( 0.0000  0.0000  0.0000)
% antenna2  :                       ( 0.0000  0.0000  0.0000)
% ref pos   : 48.083587276    9.223909177   645.4353
%
% (lat/lon/height=WGS84/ellipsoidal,Q=1:fix,2:float,3:sbas,4:dgps,5:single,6:ppp,ns=# of satellites)
%  GPST          latitude(deg) longitude(deg)  height(m)   Q  ns   sdn(m)   sde(m)   sdu(m)  sdne(m)  sdeu(m)  sdun(m) age(s)  ratio
2080 384540.000   48.055284142    9.365191700   603.1614   1   8   0.0083   0.0038   0.0095   0.0018  -0.0022  -0.0033   0.00    5.1
2080 384541.000   48.055284120    9.365191716   603.1645   1   8   0.0082   0.0037   0.0095   0.0019  -0.0022  -0.0033   0.00    5.6
2080 384542.000   48.055284148    9.365191723   603.1561   1   8   0.0083   0.0038   0.0095   0.0018  -0.0022  -0.0033   0.00    5.2
2080 384543.000   48.055284146    9.365191723   603.1598   1   8   0.0083   0.0038   0.0095   0.0018  -0.0020  -0.0034   0.00    5.2
2080 384544.000   48.055284150    9.365191699   603.1584   1   8   0.0083   0.0038   0.0095   0.0017  -0.0022  -0.0034   0.00    5.2
2080 384545.000   48.055284143    9.365191726   603.1642   1   8   0.0083   0.0041   0.0095   0.0019  -0.0024  -0.0034   0.00    5.2
2080 384546.000   48.055284152    9.365191704   603.1582   1   8   0.0083   0.0036   0.0095   0.0016  -0.0025  -0.0034   0.00    5.1
2080 384547.000   48.055284101    9.365191705   603.1600   1   8   0.0082   0.0037   0.0095   0.0022  -0.0021  -0.0034   0.00    5.1
2080 384548.000   48.055284150    9.365191709   603.1595   1   8   0.0083   0.0037   0.0095   0.0018  -0.0024  -0.0033   0.00    4.9
2080 384549.000   48.055284174    9.365191715   603.1577   1   8   0.0082   0.0036   0.0095   0.0020  -0.0023  -0.0033   0.00    4.9
2080 384550.000   48.055284110    9.365191682   603.1600   1   8   0.0083   0.0036   0.0095   0.0017  -0.0021  -0.0034   0.00    4.9
2080 384551.000   48.055284131    9.365191712   603.1625   1   8   0.0083   0.0039   0.0095   0.0016  -0.0024  -0.0034   0.00    4.9
2080 384552.000   48.055284140    9.365191699   603.1602   1   8   0.0083   0.0036   0.0095   0.0018  -0.0021  -0.0033   0.00    4.9
2080 384553.000   48.055284152    9.365191714   603.1591   1   8   0.0082   0.0033   0.0095   0.0020  -0.0022  -0.0034   0.00    4.9
2080 384554.000   48.055284122    9.365191707   603.1637   1   8   0.0083   0.0040   0.0095   0.0019  -0.0020  -0.0034   0.00    4.9
2080 384555.000   48.055284110    9.365191717   603.1647   1   8   0.0082   0.0040   0.0095   0.0017  -0.0020  -0.0034   0.00    4.9
2080 384556.000   48.055284129    9.365191712   603.1630   1   8   0.0082   0.0037   0.0094   0.0021  -0.0021  -0.0033   0.00    4.8
2080 384557.000   48.055284147    9.365191714   603.1590   1   8   0.0083   0.0035   0.0095   0.0020  -0.0023  -0.0033   0.00    4.8
2080 384558.000   48.055284123    9.365191733   603.1590   1   8   0.0082   0.0040   0.0095   0.0020  -0.0022  -0.0033   0.00    4.8
2080 384559.000   48.055284137    9.365191712   603.1592   1   8   0.0083   0.0041   0.0096   0.0020  -0.0023  -0.0033   0.00    4.8
2080 384560.000   48.055284169    9.365191707   603.1578   1   8   0.0083   0.0039   0.0095   0.0019  -0.0024  -0.0033   0.00    4.8
2080 384561.000   48.055284147    9.365191727   603.1597   1   8   0.0083   0.0040   0.0095   0.0016  -0.0023  -0.0034   0.00    4.8
2080 384562.000   48.055284132    9.365191719   603.1616   1   8   0.0083   0.0037   0.0095   0.0017  -0.0024  -0.0033   0.00    4.8
2080 384563.000   48.055284138    9.365191686   603.1632   1   8   0.0083   0.0035   0.0095   0.0017  -0.0025  -0.0034   0.00    4.9
2080 384564.000   48.055284154    9.365191719   603.1527   1   8   0.0082   0.0039   0.0094   0.0018  -0.0024  -0.0034   0.00    4.8
2080 384565.000   48.055284133    9.365191712   603.1604   1   8   0.0082   0.0038   0.0094   0.0019  -0.0024  -0.0033   0.00    4.8
2080 384566.000   48.055284139    9.365191703   603.1586   1   8   0.0083   0.0041   0.0095   0.0018  -0.0024  -0.0033   0.00    4.8
2080 384567.000   48.055284142    9.365191720   603.1560   1   8   0.0083   0.0037   0.0095   0.0019  -0.0023  -0.0034   0.00    4.8
2080 384568.000   48.055284124    9.365191704   603.1578   1   8   0.0082   0.0041   0.0095   0.0016  -0.0026  -0.0033   0.00    4.8
2080 384569.000   48.055284128    9.365191730   603.1605   1   8   0.0082   0.0035   0.0095   0.0021  -0.0021  -0.0032   0.00    4.8
2080 384570.000   48.055284126    9.365191709   603.1618   1   8   0.0083   0.0037   0.0095   0.0017  -0.0024  -0.0032   0.00    4.8
2080 384571.000   48.055284127    9.365191721   603.1558   1   8   0.0082   0.0034   0.0095   0.0020  -0.0025  -0.0033   0.00    4.8
2080 384572.000   48.055284177    9.365191728   603.1548   1   8   0.0083   0.0040   0.0095   0.0018  -0.0021  -0.0033   0.00    4.8
2080 384573.000   48.055284192    9.365191728   603.1571   1   8   0.0083   0.0036   0.0094   0.0020  -0.0024  -0.0033   0.00    4.8
2080 384574.000   48.055284206    9.365191725   603.1583   1   8   0.0083   0.0038   0.0095   0.0015  -0.0023  -0.0034   0.00    4.8
2080 384575.000   48.055284189    9.365191704   603.1577   1   8   0.0083   0.0038   0.0095   0.0020  -0.0023  -0.0034   0.00    4.8
2080 384576.000   48.055284196    9.365191723   603.1562   1   8   0.0082   0.0037   0.0095   0.0019  -0.0021  -0.0034   0.00    4.8
2080 384577.000   48.055284155    9.365191719   603.1568   1   8   0.0083   0.0041   0.0095   0.0019  -0.0023  -0.0032   0.00    4.8
2080 384578.000   48.055284182    9.365191711   603.1619   1   8   0.0082   0.0036   0.0095   0.0019  -0.0021  -0.0033   0.00    4.8
2080 384579.000   48.055284183    9.365191694   603.1579   1   8   0.0083   0.0036   0.0095   0.0018  -0.0023  -0.0034   0.00    4.8
2080 384580.000   48.055284147    9.365191736   603.1627   1   8   0.0083   0.0037   0.0094   0.0019  -0.0022  -0.0033   0.00    4.8
2080 384581.000   48.055284154    9.365191699   603.1603   1   8   0.0083   0.0036   0.0094   0.0019  -0.0023  -0.0033   0.00    4.8
2080 384582.000   48.055284213    9.365191696   603.1596   1   8   0.0083   0.0040   0.0095   0.0019  -0.0022  -0.0035   0.00    4.8
2080 384583.000   48.055284164    9.365191705   603.1637   1   8   0.0083   0.0040   0.0094   0.0020  -0.0021  -0.0034   0.00    4.8
2080 384584.000   48.055284169    9.365191721   603.1580   1   8   0.0082   0.0038   0.0094   0.0021  -0.0020  -0.0033   0.00    4.8
2080 384585.000   48.055284171    9.365191710   603.1555   1   8   0.0083   0.0037   0.0095   0.0017  -0.0021  -0.0035   0.00    4.8
2080 384586.000   48.055284160    9.365191731   603.1584   1   8   0.0082   0.0039   0.0095   0.0022  -0.0016  -0.0035   0.00    4.8
2080 384587.000   48.055284167    9.365191736   603.1590   1   8   0.0083   0.0039   0.0095   0.0018  -0.0022  -0.0034   0.00    4.8
2080 384588.000   48.055284157    9.365191712   603.1599   1   8   0.0082   0.0038   0.0095   0.0019  -0.0021  -0.0034   0.00    4.8
2080 384589.000   48.055284167    9.365191723   603.1611   1   8   0.0083   0.0038   0.0095   0.0020  -0.0022  -0.0033   0.00    4.8
2080 384590.000   48.055284158    9.365191750   603.1606   1   8   0.0083   0.0039   0.0095   0.0021  -0.0022  -0.0033   0.00    4.8
2080 384591.000   48.055284155    9.365191718   603.1577   1   8   0.0082   0.0038   0.0094   0.0019  -0.0024  -0.0033   0.00    4.8
2080 384592.000   48.055284163    9.365191706   603.1542   1   8   0.0083   0.0039   0.0095   0.0018  -0.0022  -0.0034   0.00    4.8
2080 384593.000   48.055284149    9.365191721   603.1588   1   8   0.0083   0.0040   0.0095   0.0018  -0.0019  -0.0035   0.00    4.8
2080 384594.000   48.055284193    9.365191701   603.1566   1   8   0.0083   0.0037   0.0094   0.0018  -0.0022  -0.0034   0.00    4.8
2080 384595.000   48.055284200    9.365191704   603.1582   1   8   0.0083   0.0039   0.0094   0.0020  -0.0020  -0.0034   0.00    4.8
2080 384596.000   48.055284213    9.365191752   603.1615   1   8   0.0083   0.0041   0.0095   0.0016  -0.0024  -0.0034   0.00    4.8
2080 384597.000   48.055284196    9.365191730   603.1614   1   8   0.0083   0.0038   0.0095   0.0018  -0.0022  -0.0034   0.00    4.8
2080 384598.000   48.055284184    9.365191725   603.1595   1   8   0.0083   0.0034   0.0095   0.0018  -0.0025  -0.0033   0.00    4.8
2080 384599.000   48.055284157    9.365191686   603.1627   1   8   0.0083   0.0040   0.0095   0.0016  -0.0020  -0.0034   0.00    4.8
2080 384600.000   48.055284218    9.365191734   603.1612   1   8   0.0083   0.0036   0.0095   0.0017  -0.0023  -0.0035   0.00    4.8
2080 384601.000   48.055284192    9.365191713   603.1568   1   8   0.0083   0.0040   0.0095   0.0022  -0.0019  -0.0034   0.00    4.8
2080 384602.000   48.055284178    9.365191721   603.1593   1   8   0.0083   0.0039   0.0095   0.0018  -0.0023  -0.0034   0.00    4.8
2080 384603.000   48.055284173    9.365191718   603.1557   1   8   0.0083   0.0038   0.0095   0.0020  -0.0023  -0.0034   0.00    4.8
2080 384604.000   48.055284172    9.365191728   603.1557   1   8   0.0083   0.0038   0.0095   0.0019  -0.0022  -0.0034   0.00    4.8
2080 384605.000   48.055284205    9.365191692   603.1568   1   8   0.0083   0.0035   0.0095   0.0020  -0.0021  -0.0034   0.00    4.8
2080 384606.000   48.055284205    9.365191714   603.1555   1   8   0.0083   0.0037   0.0095   0.0020  -0.0020  -0.0034   0.00    4.9
2080 384607.000   48.055284200    9.365191712   603.1530   1   8   0.0082   0.0034   0.0094   0.0022  -0.0025  -0.0032   0.00    4.9
2080 384608.000   48.055284179    9.365191734   603.1524   1   8   0.0083   0.0037   0.0094   0.0016  -0.0024  -0.0033   0.00    4.9
2080 384609.000   48.055284173    9.365191732   603.1596   1   8   0.0083   0.0039   0.0094   0.0021  -0.0021  -0.0033   0.00    4.9
2080 384610.000   48.055284202    9.365191709   603.1564   1   8   0.0083   0.0036   0.0095   0.0017  -0.0026  -0.0033   0.00    5.0
2080 384611.000   48.055284222    9.365191716   603.1573   1   8   0.0083   0.0041   0.0095   0.0019  -0.0020  -0.0033   0.00    5.0
2080 384612.000   48.055284189    9.365191728   603.1561   1   8   0.0083   0.0037   0.0094   0.0022  -0.0022  -0.0033   0.00    5.0
2080 384613.000   48.055284178    9.365191722   603.1600   1   8   0.0083   0.0038   0.0095   0.0019  -0.0021  -0.0034   0.00    5.0
2080 384614.000   48.055284217    9.365191708   603.1597   1   8   0.0083   0.0037   0.0095   0.0020  -0.0024  -0.0033   0.00    5.0
2080 384615.000   48.055284214    9.365191718   603.1582   1   8   0.0083   0.0036   0.0094   0.0022  -0.0022  -0.0033   0.00    5.0
2080 384616.000   48.055284208    9.365191725   603.1566   1   8   0.0083   0.0034   0.0094   0.0021  -0.0016  -0.0034   0.00    5.0
2080 384617.000   48.055284192    9.365191732   603.1545   1   8   0.0083   0.0038   0.0095   0.0020  -0.0024  -0.0033   0.00    5.0
2080 384618.000   48.055284179    9.365191698   603.1591   1   8   0.0083   0.0038   0.0095   0.0019  -0.0021  -0.0033   0.00    5.0
2080 384619.000   48.055284225    9.365191737   603.1568   1   8   0.0083   0.0038   0.0095   0.0018  -0.0023  -0.0034   0.00    5.0
2080 384620.000   48.055284205    9.365191736   603.1567   1   8   0.0083   0.0039   0.0094   0.0017  -0.0021  -0.0035   0.00    5.0
2080 384621.000   48.055284168    9.365191710   603.1499   1   8   0.0083   0.0037   0.0094   0.0022  -0.0022  -0.0035   0.00    5.1
2080 384622.000   48.055284178    9.365191719   603.1531   1   8   0.0084   0.0038   0.0095   0.0015  -0.0023  -0.0035   0.00    5.1
2080 384623.000   48.055284233    9.365191736   603.1550   1   8   0.0083   0.0041   0.0095   0.0018  -0.0019  -0.0034   0.00    5.1
2080 384624.000   48.055284184    9.365191718   603.1567   1   8   0.0083   0.0037   0.0095   0.0020  -0.0024  -0.0032   0.00    5.1
2080 384625.000   48.055284215    9.365191748   603.1597   1   8   0.0083   0.0036   0.0095   0.0020  -0.0023  -0.0035   0.00    5.1
2080 384626.000   48.055284216    9.365191715   603.1621   1   8   0.0084   0.0042   0.0095   0.0016  -0.0023  -0.0034   0.00    5.1
2080 384627.000   48.055284195    9.365191736   603.1547   1   8   0.0083   0.0040   0.0094   0.0017  -0.0023  -0.0033   0.00    5.1
2080 384628.000   48.055284231    9.365191737   603.1570   1   8   0.0083   0.0038   0.0095   0.0018  -0.0022  -0.0034   0.00    5.1
2080 384629.000   48.055284214    9.365191744   603.1594   1   8   0.0083   0.0040   0.0094   0.0021  -0.0023  -0.0033   0.00    5.2
2080 384630.000   48.055284228    9.365191747   603.1545   1   8   0.0083   0.0036   0.0094   0.0020  -0.0017  -0.0035   0.00    5.2
2080 384631.000   48.055284195    9.365191748   603.1542   1   8   0.0083   0.0036   0.0094   0.0021  -0.0019  -0.0034   0.00    5.2
2080 384632.000   48.055284225    9.365191772   603.1514   1   8   0.0083   0.0036   0.0094   0.0021  -0.0019  -0.0034   0.00    5.2
2080 384633.000   48.055284236    9.365191724   603.1546   1   8   0.0083   0.0039   0.0094   0.0022  -0.0022  -0.0034   0.00    5.2
2080 384634.000   48.055284219    9.365191732   603.1572   1   8   0.0084   0.0036   0.0095   0.0022  -0.0022  -0.0034   0.00    5.2
2080 384635.000   48.055284235    9.365191724   603.1529   1   8   0.0083   0.0036   0.0095   0.0021  -0.0019  -0.0034   0.00    5.3
2080 384636.000   48.055284233    9.365191723   603.1519   1   8   0.0084   0.0038   0.0094   0.0019  -0.0022  -0.0034   0.00    5.3
2080 384637.000   48.055284212    9.365191750   603.1544   1   8   0.0084   0.0041   0.0094   0.0021  -0.0019  -0.0034   0.00    5.3
2080 384638.000   48.055284188    9.365191721   603.1503   1   8   0.0083   0.0040   0.0094   0.0023  -0.0021  -0.0034   0.00    5.3
2080 384639.000   48.055284178    9.365191748   603.1543   1   8   0.0083   0.0039   0.0094   0.0019  -0.0023  -0.0034   0.00    5.3
2080 384640.000   48.055284220    9.365191755   603.1542   1   8   0.0083   0.0039   0.0095   0.0020  -0.0020  -0.0034   0.00    5.3
2080 384641.000   48.055284196    9.365191742   603.1579   1   8   0.0083   0.0038   0.0094   0.0021  -0.0024  -0.0033   0.00    5.3
2080 384642.000   48.055284235    9.365191748   603.1543   1   8   0.0083   0.0037   0.0094   0.0019  -0.0023  -0.0035   0.00    5.4
2080 384643.000   48.055284224    9.365191746   603.1542   1   8   0.0083   0.0041   0.0095   0.0017  -0.0024  -0.0034   0.00    5.4
2080 384644.000   48.055284225    9.365191733   603.1551   1   8   0.0083   0.0036   0.0095   0.0016  -0.0025  -0.0034   0.00    5.4
2080 384645.000   48.055284214    9.365191745   603.1516   1   8   0.0084   0.0039   0.0095   0.0019  -0.0022  -0.0034   0.00    5.4
2080 384646.000   48.055284203    9.365191740   603.1508   1   8   0.0084   0.0039   0.0094   0.0021  -0.0018  -0.0034   0.00    5.4
2080 384647.000   48.055284209    9.365191728   603.1529   1   8   0.0083   0.0040   0.0094   0.0013  -0.0024  -0.0035   0.00    5.4
2080 384648.000   48.055284234    9.365191730   603.1512   1   8   0.0083   0.0033   0.0095   0.0015  -0.0021  -0.0035   0.00    5.5
2080 384649.000   48.055284211    9.365191718   603.1517   1   8   0.0084   0.0038   0.0095   0.0018  -0.0023  -0.0034   0.00    5.5
2080 384650.000   48.055284238    9.365191731   603.1529   1   8   0.0083   0.0041   0.0094   0.0018  -0.0021  -0.0036   0.00    5.5
2080 384651.000   48.055284216    9.365191721   603.1549   1   8   0.0083   0.0036   0.0094   0.0020  -0.0019  -0.0036   0.00    5.5
2080 384652.000   48.055284213    9.365191725   603.1560   1   8   0.0083   0.0039   0.0095   0.0022  -0.0022  -0.0033   0.00    5.5
2080 384653.000   48.055284206    9.365191720   603.1521   1   8   0.0083   0.0034   0.0094   0.0021  -0.0022  -0.0034   0.00    5.5
2080 384654.000   48.055284180    9.365191723   603.1568   1   8   0.0083   0.0037   0.0094   0.0022  -0.0019  -0.0034   0.00    5.5
2080 384655.000   48.055284197    9.365191724   603.1485   1   8   0.0083   0.0039   0.0094   0.0020  -0.0019  -0.0035   0.00    5.6
2080 384656.000   48.055284209    9.365191750   603.1481   1   8   0.0084   0.0041   0.0095   0.0021  -0.0020  -0.0035   0.00    5.6
2080 384657.000   48.055284226    9.365191708   603.1469   1   8   0.0084   0.0036   0.0095   0.0019  -0.0024  -0.0034   0.00    5.6
2080 384658.000   48.055284197    9.365191725   603.1522   1   8   0.0083   0.0038   0.0095   0.0023  -0.0016  -0.0034   0.00    5.6
2080 384659.000   48.055284231    9.365191724   603.1538   1   8   0.0083   0.0037   0.0094   0.0023  -0.0021  -0.0034   0.00    5.6
2080 384660.000   48.055284232    9.365191713   603.1480   1   8   0.0083   0.0041   0.0095   0.0017  -0.0021  -0.0035   0.00    5.7
2080 384661.000   48.055284187    9.365191709   603.1533   1   8   0.0084   0.0038   0.0095   0.0016  -0.0024  -0.0034   0.00    5.7
2080 384662.000   48.055284194    9.365191699   603.1467   1   8   0.0084   0.0038   0.0095   0.0020  -0.0019  -0.0035   0.00    5.7
2080 384663.000   48.055284220    9.365191720   603.1475   1   8   0.0083   0.0036   0.0094   0.0022  -0.0022  -0.0035   0.00    5.7
2080 384664.000   48.055284230    9.365191723   603.1516   1   8   0.0083   0.0038   0.0094   0.0022  -0.0016  -0.0035   0.00    5.8
2080 384665.000   48.055284216    9.365191733   603.1504   1   8   0.0083   0.0040   0.0095   0.0022  -0.0019  -0.0034   0.00    5.8
2080 384666.000   48.055284205    9.365191709   603.1515   1   8   0.0083   0.0039   0.0095   0.0018  -0.0020  -0.0034   0.00    5.8
2080 384667.000   48.055284162    9.365191719   603.1491   1   8   0.0084   0.0036   0.0095   0.0016  -0.0020  -0.0035   0.00    5.8
2080 384668.000   48.055284216    9.365191709   603.1482   1   8   0.0083   0.0038   0.0094   0.0022  -0.0019  -0.0034   0.00    5.8
2080 384669.000   48.055284180    9.365191706   603.1462   1   8   0.0083   0.0039   0.0095   0.0023  -0.0019  -0.0034   0.00    5.8
2080 384670.000   48.055284225    9.365191727   603.1480   1   8   0.0083   0.0039   0.0094   0.0019  -0.0020  -0.0035   0.00    5.9
2080 384671.000   48.055284195    9.365191695   603.1515   1   8   0.0083   0.0040   0.0094   0.0017  -0.0020  -0.0035   0.00    5.9
2080 384672.000   48.055284225    9.365191740   603.1468   1   8   0.0083   0.0042   0.0094   0.0021  -0.0021  -0.0033   0.00    5.9
2080 384673.000   48.055284197    9.365191713   603.1480   1   8   0.0083   0.0039   0.0094   0.0019  -0.0021  -0.0035   0.00    5.9
2080 384674.000   48.055284183    9.365191708   603.1464   1   8   0.0084   0.0036   0.0094   0.0023  -0.0020  -0.0034   0.00    5.9
2080 384675.000   48.055284168    9.365191724   603.1504   1   8   0.0083   0.0034   0.0094   0.0021  -0.0023  -0.0034   0.00    5.9
2080 384676.000   48.055284194    9.365191739   603.1430   1   8   0.0084   0.0040   0.0094   0.0016  -0.0020  -0.0035   0.00    5.9
2080 384677.000   48.055284171    9.365191692   603.1486   1   8   0.0084   0.0041   0.0095   0.0019  -0.0019  -0.0034   0.00    5.9
2080 384678.000   48.055284197    9.365191701   603.1477   1   8   0.0083   0.0039   0.0094   0.0020  -0.0023  -0.0034   0.00    5.9
2080 384679.000   48.055284163    9.365191728   603.1466   1   8   0.0084   0.0037   0.0094   0.0023  -0.0016  -0.0034   0.00    5.9
2080 384680.000   48.055284146    9.365191708   603.1475   1   8   0.0083   0.0032   0.0094   0.0019  -0.0023  -0.0035   0.00    5.9
2080 384681.000   48.055284163    9.365191702   603.1460   1   8   0.0083   0.0039   0.0094   0.0018  -0.0021  -0.0034   0.00    5.9
2080 384682.000   48.055284170    9.365191722   603.1463   1   8   0.0083   0.0042   0.0095   0.0018  -0.0018  -0.0036   0.00    6.0
2080 384683.000   48.055284196    9.365191709   603.1448   1   8   0.0084   0.0043   0.0094   0.0019  -0.0019  -0.0035   0.00    6.0
2080 384684.000   48.055284202    9.365191706   603.1469   1   8   0.0083   0.0035   0.0094   0.0021  -0.0021  -0.0034   0.00    6.0
2080 384685.000   48.055284183    9.365191715   603.1467   1   8   0.0084   0.0041   0.0095   0.0017  -0.0021  -0.0036   0.00    6.0
2080 384686.000   48.055284178    9.365191694   603.1440   1   8   0.0084   0.0037   0.0094   0.0020  -0.0022  -0.0035   0.00    6.0
2080 384687.000   48.055284173    9.365191689   603.1494   1   8   0.0084   0.0036   0.0094   0.0019  -0.0019  -0.0036   0.00    6.0
2080 384688.000   48.055284149    9.365191726   603.1511   1   8   0.0084   0.0038   0.0094   0.0020  -0.0019  -0.0035   0.00    6.0
2080 384689.000   48.055284182    9.365191729   603.1477   1   8   0.0084   0.0038   0.0094   0.0018  -0.0024  -0.0035   0.00    6.1
2080 384690.000   48.055284156    9.365191708   603.1506   1   8   0.0084   0.0040   0.0094   0.0019  -0.0019  -0.0034   0.00    6.1
2080 384691.000   48.055284157    9.365191704   603.1489   1   8   0.0084   0.0037   0.0095   0.0022  -0.0020  -0.0034   0.00    6.1
2080 384692.000   48.055284153    9.365191718   603.1480   1   8   0.0084   0.0037   0.0094   0.0019  -0.0022  -0.0035   0.00    6.1
2080 384693.000   48.055284180    9.365191705   603.1469   1   8   0.0083   0.0036   0.0094   0.0021  -0.0023  -0.0034   0.00    6.1
2080 384694.000   48.055284157    9.365191704   603.1505   1   8   0.0083   0.0036   0.0094   0.0017  -0.0025  -0.0034   0.00    6.1
2080 384695.000   48.055284163    9.365191700   603.1455   1   8   0.0084   0.0039   0.0094   0.0016  -0.0021  -0.0035   0.00    6.1
2080 384696.000   48.055284180    9.365191693   603.1443   1   8   0.0084   0.0037   0.0094   0.0019  -0.0026  -0.0033   0.00    6.1
2080 384697.000   48.055284174    9.365191697   603.1468   1   8   0.0084   0.0040   0.0095   0.0021  -0.0022  -0.0034   0.00    6.2
2080 384698.000   48.055284201    9.365191718   603.1433   1   8   0.0083   0.0038   0.0094   0.0019  -0.0022  -0.0034   0.00    6.2
2080 384699.000   48.055284177    9.365191703   603.1435   1   8   0.0083   0.0037   0.0094   0.0019  -0.0021  -0.0035   0.00    6.2
2080 384700.000   48.055284192    9.365191697   603.1427   1   8   0.0084   0.0041   0.0094   0.0017  -0.0020  -0.0034   0.00    6.2
2080 384701.000   48.055284177    9.365191723   603.1447   1   8   0.0084   0.0041   0.0095   0.0023  -0.0018  -0.0034   0.00    6.2
2080 384702.000   48.055284193    9.365191718   603.1424   1   8   0.0083   0.0039   0.0094   0.0020  -0.0023  -0.0035   0.00    6.2
2080 384703.000   48.055284161    9.365191707   603.1464   1   8   0.0084   0.0039   0.0094   0.0020  -0.0023  -0.0034   0.00    6.2
2080 384704.000   48.055284169    9.365191703   603.1434   1   8   0.0083   0.0041   0.0094   0.0022  -0.0018  -0.0034   0.00    6.2
2080 384705.000   48.055284168    9.365191706   603.1431   1   8   0.0083   0.0037   0.0094   0.0018  -0.0023  -0.0035   0.00    6.3
2080 384706.000   48.055284183    9.365191699   603.1429   1   8   0.0084   0.0041   0.0094   0.0019  -0.0019  -0.0035   0.00    6.3
2080 384707.000   48.055284179    9.365191711   603.1430   1   8   0.0084   0.0041   0.0094   0.0020  -0.0021  -0.0035   0.00    6.3
2080 384708.000   48.055284183    9.365191712   603.1413   1   8   0.0084   0.0039   0.0095   0.0020  -0.0019  -0.0035   0.00    6.3
2080 384709.000   48.055284212    9.365191691   603.1472   1   8   0.0084   0.0036   0.0094   0.0020  -0.0021  -0.0035   0.00    6.3
2080 384710.000   48.055284191    9.365191701   603.1446   1   8   0.0083   0.0038   0.0094   0.0020  -0.0021  -0.0035   0.00    6.4
2080 384711.000   48.055284219    9.365191697   603.1434   1   8   0.0083   0.0035   0.0094   0.0022  -0.0024  -0.0034   0.00    6.4
2080 384712.000   48.055284246    9.365191736   603.1461   1   8   0.0084   0.0040   0.0094   0.0016  -0.0024  -0.0035   0.00    6.4
2080 384713.000   48.055284201    9.365191712   603.1470   1   8   0.0083   0.0037   0.0094   0.0022  -0.0026  -0.0033   0.00    6.4
2080 384714.000   48.055284201    9.365191704   603.1503   1   8   0.0083   0.0036   0.0094   0.0020  -0.0021  -0.0035   0.00    6.4
2080 384715.000   48.055284183    9.365191701   603.1508   1   8   0.0084   0.0036   0.0094   0.0019  -0.0022  -0.0035   0.00    6.4
2080 384716.000   48.055284214    9.365191715   603.1490   1   8   0.0084   0.0039   0.0094   0.0020  -0.0025  -0.0033   0.00    6.4
2080 384717.000   48.055284200    9.365191713   603.1494   1   8   0.0083   0.0037   0.0093   0.0021  -0.0022  -0.0034   0.00    6.4
2080 384718.000   48.055284199    9.365191672   603.1493   1   8   0.0084   0.0039   0.0094   0.0018  -0.0022  -0.0036   0.00    6.5
2080 384719.000   48.055284225    9.365191727   603.1467   1   8   0.0084   0.0035   0.0094   0.0023  -0.0021  -0.0034   0.00    6.5
2080 384720.000   48.055284233    9.365191716   603.1464   1   8   0.0083   0.0039   0.0094   0.0023  -0.0019  -0.0035   0.00    6.5
2080 384721.000   48.055284221    9.365191720   603.1478   1   8   0.0083   0.0039   0.0093   0.0023  -0.0021  -0.0034   0.00    6.5
2080 384722.000   48.055284234    9.365191715   603.1488   1   8   0.0084   0.0038   0.0094   0.0023  -0.0023  -0.0035   0.00    6.5
2080 384723.000   48.055284203    9.365191732   603.1514   1   8   0.0083   0.0040   0.0094   0.0024  -0.0020  -0.0035   0.00    6.5
2080 384724.000   48.055284255    9.365191737   603.1493   1   8   0.0084   0.0040   0.0093   0.0021  -0.0021  -0.0034   0.00    6.5
2080 384725.000   48.055284234    9.365191743   603.1522   1   8   0.0083   0.0034   0.0093   0.0023  -0.0025  -0.0033   0.00    6.5
2080 384726.000   48.055284256    9.365191743   603.1532   1   8   0.0083   0.0036   0.0093   0.0023  -0.0022  -0.0034   0.00    6.5
2080 384727.000   48.055284261    9.365191724   603.1519   1   8   0.0084   0.0038   0.0094   0.0020  -0.0021  -0.0035   0.00    6.5
2080 384728.000   48.055284268    9.365191741   603.1524   1   8   0.0084   0.0040   0.0095   0.0019  -0.0016  -0.0035   0.00    6.5
2080 384729.000   48.055284242    9.365191714   603.1525   1   8   0.0084   0.0040   0.0094   0.0015  -0.0023  -0.0035   0.00    6.5
2080 384730.000   48.055284276    9.365191728   603.1514   1   8   0.0083   0.0038   0.0094   0.0019  -0.0021  -0.0036   0.00    6.6
2080 384731.000   48.055284250    9.365191739   603.1501   1   8   0.0084   0.0041   0.0094   0.0017  -0.0023  -0.0035   0.00    6.6
2080 384732.000   48.055284270    9.365191744   603.1507   1   8   0.0084   0.0034   0.0094   0.0021  -0.0016  -0.0035   0.00    6.6
2080 384733.000   48.055284261    9.365191737   603.1556   1   8   0.0084   0.0040   0.0095   0.0020  -0.0018  -0.0034   0.00    6.6
2080 384734.000   48.055284252    9.365191715   603.1551   1   8   0.0084   0.0039   0.0094   0.0019  -0.0019  -0.0035   0.00    6.6
2080 384735.000   48.055284304    9.365191737   603.1490   1   8   0.0084   0.0040   0.0094   0.0019  -0.0022  -0.0035   0.00    6.6
2080 384736.000   48.055284235    9.365191729   603.1506   1   8   0.0084   0.0041   0.0094   0.0023  -0.0021  -0.0033   0.00    6.6
2080 384737.000   48.055284256    9.365191734   603.1465   1   8   0.0084   0.0037   0.0094   0.0023  -0.0022  -0.0034   0.00    6.6
2080 384738.000   48.055284254    9.365191724   603.1465   1   8   0.0084   0.0039   0.0094   0.0020  -0.0023  -0.0034   0.00    6.6
2080 384739.000   48.055284225    9.365191715   603.1514   1   8   0.0083   0.0036   0.0094   0.0022  -0.0025  -0.0034   0.00    6.6
2080 384740.000   48.055284227    9.365191715   603.1505   1   8   0.0084   0.0039   0.0094   0.0023  -0.0022  -0.0035   0.00    6.6
2080 384741.000   48.055284245    9.365191713   603.1498   1   8   0.0084   0.0042   0.0094   0.0019  -0.0017  -0.0036   0.00    6.7
2080 384742.000   48.055284249    9.365191698   603.1510   1   8   0.0084   0.0031   0.0094   0.0023  -0.0023  -0.0034   0.00    6.7
2080 384743.000   48.055284209    9.365191750   603.1531   1   8   0.0084   0.0039   0.0093   0.0023  -0.0022  -0.0034   0.00    6.7
2080 384744.000   48.055284245    9.365191729   603.1494   1   8   0.0083   0.0040   0.0093   0.0022  -0.0020  -0.0035   0.00    6.7
2080 384745.000   48.055284253    9.365191731   603.1482   1   8   0.0084   0.0038   0.0094   0.0017  -0.0025  -0.0035   0.00    6.7
2080 384746.000   48.055284247    9.365191725   603.1514   1   8   0.0084   0.0043   0.0094   0.0021  -0.0020  -0.0035   0.00    6.7
2080 384747.000   48.055284242    9.365191725   603.1479   1   8   0.0084   0.0042   0.0094   0.0018  -0.0018  -0.0036   0.00    6.7
2080 384748.000   48.055284229    9.365191716   603.1526   1   8   0.0084   0.0040   0.0094   0.0018  -0.0021  -0.0035   0.00    6.7
2080 384749.000   48.055284235    9.365191703   603.1513   1   8   0.0083   0.0036   0.0094   0.0024  -0.0015  -0.0035   0.00    6.7
2080 384750.000   48.055284247    9.365191723   603.1492   1   8   0.0084   0.0038   0.0094   0.0022  -0.0019  -0.0034   0.00    6.7
2080 384751.000   48.055284224    9.365191718   603.1530   1   8   0.0084   0.0040   0.0094   0.0021  -0.0018  -0.0035   0.00    6.7
2080 384752.000   48.055284202    9.365191724   603.1537   1   8   0.0084   0.0040   0.0094   0.0022  -0.0021  -0.0034   0.00    6.7
2080 384753.000   48.055284264    9.365191705   603.1486   1   8   0.0084   0.0040   0.0094   0.0022  -0.0019  -0.0034   0.00    6.7
2080 384754.000   48.055284259    9.365191735   603.1565   1   8   0.0084   0.0041   0.0094   0.0021  -0.0017  -0.0035   0.00    6.7
2080 384755.000   48.055284214    9.365191740   603.1479   1   8   0.0084   0.0042   0.0094   0.0014  -0.0024  -0.0036   0.00    6.7
2080 384756.000   48.055284268    9.365191730   603.1481   1   8   0.0083   0.0033   0.0093   0.0022  -0.0022  -0.0035   0.00    6.7
2080 384757.000   48.055284236    9.365191734   603.1492   1   8   0.0084   0.0041   0.0094   0.0022  -0.0022  -0.0034   0.00    6.7
2080 384758.000   48.055284225    9.365191720   603.1488   1   8   0.0083   0.0039   0.0094   0.0019  -0.0022  -0.0035   0.00    6.7
2080 384759.000   48.055284232    9.365191740   603.1513   1   8   0.0085   0.0039   0.0094   0.0016  -0.0021  -0.0036   0.00    6.7
2080 384760.000   48.055284241    9.365191731   603.1455   1   8   0.0084   0.0037   0.0094   0.0021  -0.0019  -0.0035   0.00    6.7
2080 384761.000   48.055284230    9.365191719   603.1495   1   8   0.0083   0.0041   0.0094   0.0025  -0.0018  -0.0034   0.00    6.7
2080 384762.000   48.055284217    9.365191698   603.1491   1   8   0.0084   0.0035   0.0094   0.0020  -0.0020  -0.0035   0.00    6.7
2080 384763.000   48.055284253    9.365191726   603.1494   1   8   0.0085   0.0040   0.0095   0.0016  -0.0015  -0.0037   0.00    6.7
2080 384764.000   48.055284252    9.365191721   603.1445   1   8   0.0084   0.0034   0.0094   0.0022  -0.0024  -0.0034   0.00    6.7
2080 384765.000   48.055284243    9.365191709   603.1461   1   8   0.0084   0.0038   0.0093   0.0023  -0.0021  -0.0035   0.00    6.7
2080 384766.000   48.055284217    9.365191692   603.1512   1   8   0.0084   0.0036   0.0094   0.0020  -0.0026  -0.0033   0.00    6.7
2080 384767.000   48.055284208    9.365191712   603.1503   1   8   0.0084   0.0037   0.0093   0.0020  -0.0022  -0.0036   0.00    6.7
2080 384768.000   48.055284223    9.365191736   603.1440   1   8   0.0084   0.0043   0.0094   0.0022  -0.0020  -0.0035   0.00    6.7
2080 384769.000   48.055284224    9.365191721   603.1464   1   8   0.0084   0.0040   0.0094   0.0019  -0.0022  -0.0035   0.00    6.7
2080 384770.000   48.055284238    9.365191729   603.1443   1   8   0.0084   0.0041   0.0093   0.0018  -0.0020  -0.0036   0.00    6.7
2080 384771.000   48.055284234    9.365191728   603.1466   1   8   0.0084   0.0033   0.0094   0.0022  -0.0023  -0.0034   0.00    6.7
2080 384772.000   48.055284248    9.365191705   603.1499   1   8   0.0084   0.0039   0.0093   0.0021  -0.0020  -0.0035   0.00    6.7
2080 384773.000   48.055284217    9.365191721   603.1507   1   8   0.0084   0.0040   0.0094   0.0019  -0.0022  -0.0035   0.00    6.7
2080 384774.000   48.055284212    9.365191702   603.1482   1   8   0.0084   0.0039   0.0094   0.0021  -0.0019  -0.0035   0.00    6.8
2080 384775.000   48.055284213    9.365191700   603.1471   1   8   0.0084   0.0040   0.0094   0.0021  -0.0016  -0.0036   0.00    6.8
2080 384776.000   48.055284235    9.365191721   603.1482   1   8   0.0084   0.0037   0.0093   0.0024  -0.0020  -0.0034   0.00    6.8
2080 384777.000   48.055284212    9.365191738   603.1478   1   8   0.0084   0.0039   0.0094   0.0023  -0.0021  -0.0034   0.00    6.8
2080 384778.000   48.055284218    9.365191731   603.1480   1   8   0.0084   0.0040   0.0093   0.0023  -0.0022  -0.0034   0.00    6.8
2080 384779.000   48.055284226    9.365191702   603.1481   1   8   0.0084   0.0040   0.0094   0.0019  -0.0019  -0.0036   0.00    6.8
2080 384780.000   48.055284197    9.365191731   603.1508   1   8   0.0084   0.0042   0.0094   0.0020  -0.0019  -0.0035   0.00    6.8
2080 384781.000   48.055284211    9.365191715   603.1485   1   8   0.0084   0.0040   0.0094   0.0021  -0.0021  -0.0034   0.00    6.8
2080 384782.000   48.055284206    9.365191700   603.1503   1   8   0.0085   0.0037   0.0094   0.0022  -0.0019  -0.0034   0.00    6.8
2080 384783.000   48.055284304    9.365191727   603.1562   1   7   0.0092   0.0039   0.0101   0.0028  -0.0009   0.0013   0.00    6.6
2080 384784.000   48.055284248    9.365191745   603.1629   1   7   0.0092   0.0045   0.0101   0.0028   0.0010   0.0011   0.00    6.6
2080 384785.000   48.055284289    9.365191733   603.1561   1   7   0.0092   0.0043   0.0100   0.0031   0.0008   0.0011   0.00    6.6
2080 384786.000   48.055284244    9.365191749   603.1571   1   7   0.0092   0.0042   0.0100   0.0028  -0.0009   0.0013   0.00    6.6
2080 384787.000   48.055284266    9.365191739   603.1608   1   7   0.0092   0.0036   0.0100   0.0030  -0.0007   0.0012   0.00    6.6
2080 384788.000   48.055284280    9.365191729   603.1569   1   7   0.0092   0.0038   0.0100   0.0031  -0.0014   0.0015   0.00    6.6
2080 384789.000   48.055284304    9.365191743   603.1579   1   7   0.0093   0.0038   0.0101   0.0029  -0.0001   0.0009   0.00    6.6
2080 384790.000   48.055284262    9.365191717   603.1606   1   7   0.0092   0.0041   0.0100   0.0029  -0.0011   0.0012   0.00    6.6
2080 384791.000   48.055284266    9.365191736   603.1571   1   7   0.0092   0.0041   0.0100   0.0031   0.0008   0.0012   0.00    6.6
2080 384792.000   48.055284320    9.365191744   603.1576   1   7   0.0092   0.0039   0.0100   0.0030  -0.0003   0.0011   0.00    6.6
2080 384793.000   48.055284295    9.365191750   603.1604   1   7   0.0092   0.0042   0.0100   0.0029  -0.0006   0.0010   0.00    6.6
2080 384794.000   48.055284311    9.365191744   603.1551   1   7   0.0092   0.0044   0.0100   0.0027  -0.0005   0.0008   0.00    6.7
2080 384795.000   48.055284278    9.365191714   603.1551   1   7   0.0092   0.0042   0.0100   0.0031   0.0013   0.0011   0.00    6.7
2080 384796.000   48.055284295    9.365191717   603.1557   1   7   0.0092   0.0037   0.0100   0.0031   0.0007   0.0013   0.00    6.7
2080 384797.000   48.055284290    9.365191745   603.1537   1   7   0.0092   0.0040   0.0100   0.0030   0.0008   0.0011   0.00    6.7
2080 384798.000   48.055284279    9.365191720   603.1563   1   7   0.0092   0.0039   0.0100   0.0030   0.0004   0.0012   0.00    6.7
2080 384799.000   48.055284290    9.365191757   603.1549   1   7   0.0092   0.0041   0.0100   0.0030   0.0001   0.0011   0.00    6.7
2080 384800.000   48.055284291    9.365191778   603.1581   1   7   0.0093   0.0040   0.0100   0.0030   0.0003   0.0012   0.00    6.7
2080 384801.000   48.055284288    9.365191745   603.1573   1   7   0.0092   0.0042   0.0101   0.0030   0.0005   0.0011   0.00    6.7
2080 384802.000   48.055284276    9.365191735   603.1607   1   7   0.0092   0.0041   0.0100   0.0030   0.0009   0.0010   0.00    6.7
2080 384803.000   48.055284290    9.365191754   603.1580   1   7   0.0093   0.0041   0.0101   0.0029   0.0010   0.0006   0.00    6.7
2080 384804.000   48.055284259    9.365191738   603.1580   1   7   0.0092   0.0037   0.0100   0.0029  -0.0008   0.0005   0.00    6.7
2080 384805.000   48.055284295    9.365191768   603.1580   1   7   0.0092   0.0038   0.0101   0.0029   0.0007   0.0009   0.00    6.7
2080 384806.000   48.055284254    9.365191756   603.1572   1   7   0.0093   0.0042   0.0100   0.0028   0.0014   0.0004   0.00    6.7
2080 384807.000   48.055284267    9.365191729   603.1538   1   7   0.0092   0.0040   0.0100   0.0032   0.0006   0.0009   0.00    6.7
2080 384808.000   48.055284255    9.365191735   603.1583   1   7   0.0092   0.0039   0.0100   0.0030   0.0007   0.0011   0.00    6.7
2080 384809.000   48.055284284    9.365191764   603.1577   1   7   0.0092   0.0039   0.0099   0.0030  -0.0011   0.0012   0.00    6.7
2080 384810.000   48.055284279    9.365191765   603.1553   1   7   0.0092   0.0042   0.0100   0.0030  -0.0001   0.0011   0.00    6.7
2080 384811.000   48.055284263    9.365191734   603.1504   1   7   0.0093   0.0040   0.0100   0.0031   0.0008   0.0009   0.00    6.7
2080 384812.000   48.055284265    9.365191759   603.1565   1   7   0.0092   0.0038   0.0100   0.0030  -0.0009   0.0012   0.00    6.7
2080 384813.000   48.055284291    9.365191755   603.1552   1   7   0.0092   0.0040   0.0100   0.0030  -0.0007   0.0010   0.00    6.7
2080 384814.000   48.055284280    9.365191744   603.1569   1   7   0.0093   0.0042   0.0100   0.0029  -0.0003   0.0010   0.00    6.7
2080 384815.000   48.055284305    9.365191754   603.1527   1   7   0.0093   0.0040   0.0101   0.0030   0.0011   0.0005   0.00    6.7
2080 384816.000   48.055284230    9.365191732   603.1566   1   7   0.0092   0.0041   0.0100   0.0028   0.0008   0.0005   0.00    6.7
2080 384817.000   48.055284273    9.365191734   603.1541   1   7   0.0092   0.0036   0.0100   0.0030  -0.0009   0.0012   0.00    6.7
2080 384818.000   48.055284236    9.365191735   603.1605   1   7   0.0092   0.0040   0.0100   0.0031   0.0003   0.0013   0.00    6.7
2080 384819.000   48.055284267    9.365191755   603.1593   1   7   0.0092   0.0039   0.0100   0.0031  -0.0005   0.0012   0.00    6.7
2080 384820.000   48.055284276    9.365191731   603.1587   1   7   0.0092   0.0038   0.0100   0.0031  -0.0001   0.0011   0.00    6.7
2080 384821.000   48.055284293    9.365191758   603.1585   1   7   0.0092   0.0039   0.0100   0.0032   0.0004   0.0012   0.00    6.7
2080 384822.000   48.055284258    9.365191728   603.1570   1   7   0.0093   0.0040   0.0100   0.0028   0.0006   0.0004   0.00    6.7
2080 384823.000   48.055284279    9.365191742   603.1600   1   7   0.0093   0.0038   0.0100   0.0031   0.0008   0.0008   0.00    6.7
2080 384824.000   48.055284240    9.365191735   603.1583   1   7   0.0092   0.0040   0.0100   0.0031   0.0010   0.0008   0.00    6.7
2080 384825.000   48.055284278    9.365191749   603.1554   1   7   0.0093   0.0042   0.0101   0.0030   0.0005   0.0009   0.00    6.7
2080 384826.000   48.055284251    9.365191727   603.1574   1   7   0.0093   0.0043   0.0101   0.0030   0.0009   0.0008   0.00    6.7
2080 384827.000   48.055284266    9.365191734   603.1543   1   7   0.0092   0.0040   0.0100   0.0030   0.0010   0.0009   0.00    6.7
2080 384828.000   48.055284279    9.365191725   603.1540   1   7   0.0093   0.0039   0.0100   0.0031   0.0011   0.0012   0.00    6.7
2080 384829.000   48.055284301    9.365191757   603.1593   1   7   0.0092   0.0042   0.0100   0.0031  -0.0008   0.0013   0.00    6.8
2080 384830.000   48.055284314    9.365191747   603.1589   1   7   0.0092   0.0044   0.0100   0.0031   0.0003   0.0011   0.00    6.8
2080 384831.000   48.055284251    9.365191731   603.1547   1   7   0.0092   0.0044   0.0100   0.0029  -0.0001   0.0011   0.00    6.8
2080 384832.000   48.055284223    9.365191721   603.1574   1   7   0.0092   0.0039   0.0100   0.0031   0.0010   0.0008   0.00    6.8
2080 384833.000   48.055284217    9.365191722   603.1571   1   7   0.0093   0.0040   0.0100   0.0030  -0.0006   0.0010   0.00    6.8
2080 384834.000   48.055284259    9.365191725   603.1601   1   7   0.0093   0.0040   0.0100   0.0030   0.0010   0.0006   0.00    6.8
2080 384835.000   48.055284298    9.365191726   603.1612   1   7   0.0092   0.0038   0.0100   0.0031  -0.0011   0.0010   0.00    6.8
2080 384836.000   48.055284235    9.365191713   603.1577   1   7   0.0092   0.0040   0.0100   0.0031   0.0011   0.0005   0.00    6.8
2080 384837.000   48.055284274    9.365191741   603.1588   1   7   0.0093   0.0039   0.0100   0.0030   0.0012   0.0004   0.00    6.8
2080 384838.000   48.055284271    9.365191731   603.1591   1   7   0.0092   0.0039   0.0099   0.0032  -0.0012   0.0012   0.00    6.8
2080 384839.000   48.055284267    9.365191737   603.1612   1   7   0.0092   0.0040   0.0100   0.0031  -0.0012   0.0010   0.00    6.8
2080 384840.000   48.055284252    9.365191723   603.1610   1   7   0.0092   0.0038   0.0101   0.0031   0.0008   0.0010   0.00    6.8
2080 384841.000   48.055284297    9.365191743   603.1591   1   7   0.0092   0.0041   0.0100   0.0031   0.0009   0.0009   0.00    6.8
2080 384842.000   48.055284257    9.365191720   603.1590   1   7   0.0092   0.0042   0.0100   0.0030   0.0014  -0.0006   0.00    6.8
2080 384843.000   48.055284256    9.365191718   603.1580   1   7   0.0092   0.0040   0.0099   0.0031  -0.0005   0.0010   0.00    6.8
2080 384844.000   48.055284253    9.365191722   603.1560   1   7   0.0093   0.0039   0.0101   0.0031   0.0009   0.0010   0.00    6.8
2080 384845.000   48.055284246    9.365191748   603.1574   1   7   0.0093   0.0040   0.0100   0.0031   0.0009   0.0004   0.00    6.8
2080 384846.000   48.055284243    9.365191731   603.1643   1   7   0.0092   0.0039   0.0100   0.0031  -0.0010   0.0012   0.00    6.8
2080 384847.000   48.055284265    9.365191747   603.1598   1   7   0.0092   0.0039   0.0099   0.0031  -0.0011   0.0011   0.00    6.8
2080 384848.000   48.055284252    9.365191721   603.1602   1   7   0.0092   0.0042   0.0100   0.0030   0.0014   0.0004   0.00    6.9
2080 384849.000   48.055284230    9.365191725   603.1598   1   7   0.0093   0.0044   0.0101   0.0028   0.0007   0.0004   0.00    6.9
2080 384850.000   48.055284286    9.365191749   603.1536   1   7   0.0093   0.0040   0.0100   0.0031   0.0012   0.0008   0.00    6.9
2080 384851.000   48.055284281    9.365191734   603.1550   1   7   0.0092   0.0039   0.0100   0.0030  -0.0009   0.0010   0.00    6.9
2080 384852.000   48.055284267    9.365191738   603.1595   1   7   0.0093   0.0041   0.0100   0.0030   0.0012  -0.0003   0.00    6.9
2080 384853.000   48.055284277    9.365191722   603.1568   1   7   0.0092   0.0037   0.0099   0.0031  -0.0009   0.0010   0.00    6.9
2080 384854.000   48.055284304    9.365191729   603.1613   1   7   0.0093   0.0039   0.0099   0.0030  -0.0010   0.0010   0.00    6.9
2080 384855.000   48.055284270    9.365191742   603.1568   1   7   0.0092   0.0037   0.0100   0.0032  -0.0009   0.0012   0.00    6.9
2080 384856.000   48.055284265    9.365191736   603.1606   1   7   0.0092   0.0037   0.0100   0.0031  -0.0010   0.0012   0.00    6.9
2080 384857.000   48.055284254    9.365191729   603.1643   1   7   0.0092   0.0039   0.0100   0.0033  -0.0003   0.0013   0.00    6.9
2080 384858.000   48.055284221    9.365191735   603.1607   1   7   0.0092   0.0036   0.0099   0.0031  -0.0008   0.0008   0.00    6.9
2080 384859.000   48.055284266    9.365191733   603.1601   1   7   0.0092   0.0040   0.0099   0.0032  -0.0005   0.0007   0.00    6.9
2080 384860.000   48.055284248    9.365191718   603.1629   1   7   0.0092   0.0041   0.0100   0.0030  -0.0008   0.0009   0.00    6.9
2080 384861.000   48.055284226    9.365191717   603.1626   1   7   0.0093   0.0042   0.0100   0.0029   0.0009   0.0004   0.00    6.9
2080 384862.000   48.055284223    9.365191720   603.1636   1   7   0.0092   0.0040   0.0099   0.0030  -0.0013   0.0010   0.00    6.9
2080 384863.000   48.055284212    9.365191743   603.1610   1   7   0.0092   0.0039   0.0099   0.0031  -0.0005   0.0007   0.00    6.9
2080 384864.000   48.055284226    9.365191713   603.1624   1   7   0.0093   0.0040   0.0100   0.0029   0.0006   0.0007   0.00    6.9
2080 384865.000   48.055284242    9.365191756   603.1640   1   7   0.0093   0.0041   0.0100   0.0031   0.0013   0.0005   0.00    6.9
2080 384866.000   48.055284203    9.365191733   603.1584   1   7   0.0093   0.0043   0.0100   0.0032   0.0007   0.0011   0.00    6.9
2080 384867.000   48.055284225    9.365191717   603.1635   1   7   0.0093   0.0041   0.0100   0.0030   0.0008   0.0006   0.00    6.9
2080 384868.000   48.055284229    9.365191701   603.1571   1   7   0.0092   0.0040   0.0099   0.0030  -0.0004   0.0006   0.00    6.9
2080 384869.000   48.055284158    9.365191712   603.1621   1   7   0.0093   0.0040   0.0100   0.0030  -0.0003   0.0009   0.00    6.9
2080 384870.000   48.055284190    9.365191725   603.1604   1   7   0.0092   0.0041   0.0099   0.0032  -0.0004   0.0010   0.00    7.0
2080 384871.000   48.055284223    9.365191703   603.1608   1   7   0.0093   0.0042   0.0100   0.0029   0.0010  -0.0005   0.00    7.0
2080 384872.000   48.055284191    9.365191718   603.1639   1   7   0.0093   0.0041   0.0100   0.0031   0.0010   0.0005   0.00    7.0
2080 384873.000   48.055284184    9.365191726   603.1649   1   7   0.0093   0.0043   0.0100   0.0029  -0.0004   0.0006   0.00    7.0
2080 384874.000   48.055284242    9.365191713   603.1656   1   7   0.0092   0.0040   0.0100   0.0031  -0.0009   0.0011   0.00    7.0
2080 384875.000   48.055284240    9.365191739   603.1602   1   7   0.0093   0.0040   0.0100   0.0031  -0.0006   0.0007   0.00    7.0
2080 384876.000   48.055284204    9.365191713   603.1643   1   7   0.0093   0.0045   0.0100   0.0027   0.0008  -0.0008   0.00    7.0
2080 384877.000   48.055284216    9.365191734   603.1639   1   7   0.0092   0.0038   0.0100   0.0031  -0.0010   0.0011   0.00    7.0
2080 384878.000   48.055284220    9.365191737   603.1646   1   7   0.0092   0.0039   0.0099   0.0031   0.0003  -0.0002   0.00    7.0
2080 384879.000   48.055284251    9.365191703   603.1606   1   7   0.0092   0.0042   0.0100   0.0032  -0.0008   0.0011   0.00    7.0
2080 384880.000   48.055284240    9.365191728   603.1612   1   7   0.0093   0.0039   0.0099   0.0031  -0.0004   0.0007   0.00    7.0
2080 384881.000   48.055284248    9.365191728   603.1622   1   7   0.0093   0.0043   0.0100   0.0030   0.0007   0.0006   0.00    7.0
2080 384882.000   48.055284229    9.365191726   603.1674   1   7   0.0092   0.0040   0.0099   0.0032  -0.0012   0.0010   0.00    7.0
2080 384883.000   48.055284206    9.365191726   603.1665   1   7   0.0092   0.0042   0.0100   0.0029   0.0005   0.0006   0.00    7.0
2080 384884.000   48.055284248    9.365191732   603.1681   1   7   0.0093   0.0040   0.0100   0.0031   0.0006   0.0008   0.00    7.1
2080 384885.000   48.055284214    9.365191727   603.1612   1   7   0.0092   0.0039   0.0100   0.0030  -0.0009   0.0009   0.00    7.1
2080 384886.000   48.055284181    9.365191731   603.1660   1   7   0.0092   0.0044   0.0100   0.0031   0.0004   0.0007   0.00    7.1
2080 384887.000   48.055284243    9.365191724   603.1633   1   7   0.0092   0.0041   0.0100   0.0031   0.0008   0.0006   0.00    7.1
2080 384888.000   48.055284183    9.365191720   603.1645   1   7   0.0093   0.0040   0.0100   0.0031   0.0009   0.0005   0.00    7.1
2080 384889.000   48.055284200    9.365191721   603.1655   1   7   0.0092   0.0041   0.0100   0.0032  -0.0006   0.0008   0.00    7.1
2080 384890.000   48.055284213    9.365191754   603.1677   1   7   0.0093   0.0042   0.0100   0.0031   0.0013   0.0005   0.00    7.1
2080 384891.000   48.055284183    9.365191721   603.1631   1   7   0.0093   0.0043   0.0100   0.0030  -0.0007   0.0005   0.00    7.1
2080 384892.000   48.055284190    9.365191738   603.1658   1   7   0.0093   0.0042   0.0100   0.0029   0.0008   0.0007   0.00    7.1
2080 384893.000   48.055284192    9.365191730   603.1621   1   7   0.0093   0.0037   0.0100   0.0030   0.0008  -0.0005   0.00    7.1
2080 384894.000   48.055284201    9.365191705   603.1605   1   7   0.0093   0.0039   0.0100   0.0031  -0.0007   0.0007   0.00    7.1
2080 384895.000   48.055284203    9.365191716   603.1609   1   7   0.0093   0.0039   0.0099   0.0031   0.0009   0.0007   0.00    7.1
2080 384896.000   48.055284210    9.365191741   603.1682   1   7   0.0093   0.0043   0.0100   0.0029   0.0008  -0.0005   0.00    7.1
2080 384897.000   48.055284188    9.365191730   603.1595   1   7   0.0093   0.0043   0.0100   0.0030  -0.0002   0.0007   0.00    7.1
2080 384898.000   48.055284201    9.365191723   603.1616   1   7   0.0093   0.0041   0.0100   0.0030   0.0011  -0.0006   0.00    7.1
2080 384899.000   48.055284226    9.365191697   603.1613   1   7   0.0093   0.0044   0.0100   0.0030  -0.0006   0.0007   0.00    7.1
2080 384900.000   48.055284192    9.365191717   603.1639   1   7   0.0093   0.0041   0.0100   0.0030   0.0005   0.0005   0.00    7.1
2080 384901.000   48.055284207    9.365191729   603.1635   1   7   0.0093   0.0042   0.0099   0.0030   0.0002   0.0004   0.00    7.1
2080 384902.000   48.055284211    9.365191736   603.1645   1   7   0.0092   0.0037   0.0099   0.0032  -0.0002   0.0005   0.00    7.1
2080 384903.000   48.055284177    9.365191741   603.1657   1   7   0.0093   0.0043   0.0100   0.0031   0.0014  -0.0006   0.00    7.2
2080 384904.000   48.055284189    9.365191743   603.1642   1   7   0.0093   0.0042   0.0100   0.0030   0.0018  -0.0008   0.00    7.2
2080 384905.000   48.055284218    9.365191727   603.1631   1   7   0.0093   0.0039   0.0100   0.0031  -0.0003   0.0005   0.00    7.2
2080 384906.000   48.055284186    9.365191719   603.1650   1   7   0.0092   0.0040   0.0100   0.0033   0.0013   0.0007   0.00    7.2
2080 384907.000   48.055284192    9.365191716   603.1675   1   7   0.0093   0.0039   0.0100   0.0031   0.0005  -0.0004   0.00    7.2
2080 384908.000   48.055284167    9.365191740   603.1664   1   7   0.0093   0.0043   0.0100   0.0031   0.0008  -0.0005   0.00    7.2
2080 384909.000   48.055284198    9.365191727   603.1602   1   7   0.0093   0.0039   0.0099   0.0032   0.0004   0.0006   0.00    7.2
2080 384910.000   48.055284164    9.365191740   603.1651   1   7   0.0092   0.0040   0.0099   0.0033  -0.0005   0.0010   0.00    7.2
2080 384911.000   48.055284168    9.365191705   603.1667   1   7   0.0093   0.0042   0.0100   0.0030  -0.0006   0.0004   0.00    7.2
2080 384912.000   48.055284200    9.365191731   603.1629   1   7   0.0093   0.0041   0.0100   0.0031  -0.0004   0.0004   0.00    7.2
2080 384913.000   48.055284209    9.365191733   603.1615   1   7   0.0093   0.0042   0.0099   0.0031   0.0005  -0.0004   0.00    7.2
2080 384914.000   48.055284223    9.365191731   603.1660   1   7   0.0093   0.0040   0.0099   0.0032  -0.0001   0.0006   0.00    7.2
2080 384915.000   48.055284220    9.365191722   603.1659   1   7   0.0093   0.0040   0.0100   0.0031   0.0010   0.0007   0.00    7.2
2080 384916.000   48.055284211    9.365191713   603.1624   1   7   0.0092   0.0036   0.0099   0.0032  -0.0012   0.0010   0.00    7.2
2080 384917.000   48.055284213    9.365191731   603.1642   1   7   0.0092   0.0039   0.0099   0.0032  -0.0001   0.0008   0.00    7.3
2080 384918.000   48.055284212    9.365191732   603.1681   1   7   0.0092   0.0041   0.0099   0.0031  -0.0006   0.0009   0.00    7.3
2080 384919.000   48.055284209    9.365191740   603.1638   1   7   0.0093   0.0041   0.0099   0.0031   0.0011  -0.0002   0.00    7.3
2080 384920.000   48.055284170    9.365191732   603.1672   1   7   0.0093   0.0041   0.0099   0.0030   0.0008  -0.0007   0.00    7.3
2080 384921.000   48.055284143    9.365191729   603.1650   1   7   0.0093   0.0038   0.0100   0.0032   0.0009  -0.0003   0.00    7.3
2080 384922.000   48.055284187    9.365191723   603.1649   1   7   0.0093   0.0042   0.0099   0.0031   0.0013  -0.0008   0.00    7.3
2080 384923.000   48.055284189    9.365191721   603.1656   1   7   0.0093   0.0043   0.0099   0.0033   0.0009   0.0006   0.00    7.3
2080 384924.000   48.055284182    9.365191731   603.1651   1   7   0.0093   0.0040   0.0100   0.0030  -0.0010   0.0006   0.00    7.3
2080 384925.000   48.055284166    9.365191703   603.1674   1   7   0.0093   0.0046   0.0100   0.0029   0.0013  -0.0007   0.00    7.3
2080 384926.000   48.055284168    9.365191710   603.1690   1   7   0.0093   0.0042   0.0100   0.0030  -0.0008  -0.0005   0.00    7.3
2080 384927.000   48.055284192    9.365191738   603.1637   1   7   0.0093   0.0044   0.0100   0.0029   0.0011  -0.0009   0.00    7.3
2080 384928.000   48.055284175    9.365191739   603.1661   1   7   0.0092   0.0041   0.0099   0.0030  -0.0007   0.0006   0.00    7.3
2080 384929.000   48.055284177    9.365191727   603.1650   1   7   0.0092   0.0040   0.0099   0.0033   0.0006   0.0007   0.00    7.4
2080 384930.000   48.055284153    9.365191718   603.1649   1   7   0.0093   0.0041   0.0100   0.0029   0.0003   0.0003   0.00    7.4
2080 384931.000   48.055284175    9.365191720   603.1674   1   7   0.0093   0.0039   0.0099   0.0031   0.0001  -0.0003   0.00    7.4
2080 384932.000   48.055284150    9.365191718   603.1646   1   7   0.0093   0.0042   0.0099   0.0030   0.0011  -0.0008   0.00    7.4
2080 384933.000   48.055284200    9.365191739   603.1684   1   7   0.0092   0.0038   0.0099   0.0032  -0.0003   0.0001   0.00    7.4
2080 384934.000   48.055284149    9.365191738   603.1686   1   7   0.0093   0.0042   0.0099   0.0031  -0.0008   0.0007   0.00    7.4
2080 384935.000   48.055284151    9.365191719   603.1658   1   7   0.0093   0.0043   0.0100   0.0030   0.0012  -0.0009   0.00    7.4
2080 384936.000   48.055284145    9.365191712   603.1651   1   7   0.0093   0.0041   0.0099   0.0030   0.0010  -0.0009   0.00    7.4
2080 384937.000   48.055284173    9.365191730   603.1659   1   7   0.0093   0.0042   0.0099   0.0032   0.0012   0.0000   0.00    7.4
2080 384938.000   48.055284140    9.365191704   603.1624   1   7   0.0093   0.0039   0.0099   0.0031  -0.0012   0.0006   0.00    7.4
2080 384939.000   48.055284178    9.365191718   603.1607   1   7   0.0093   0.0042   0.0099   0.0032  -0.0011   0.0006   0.00    7.4
2080 384940.000   48.055284158    9.365191713   603.1633   1   7   0.0092   0.0040   0.0099   0.0033  -0.0008   0.0008   0.00    7.4
2080 384941.000   48.055284178    9.365191712   603.1614   1   7   0.0093   0.0040   0.0099   0.0031   0.0011  -0.0006   0.00    7.4
2080 384942.000   48.055284169    9.365191734   603.1664   1   7   0.0093   0.0045   0.0100   0.0029   0.0002   0.0004   0.00    7.4
2080 384943.000   48.055284199    9.365191711   603.1614   1   7   0.0093   0.0038   0.0099   0.0030  -0.0004   0.0003   0.00    7.4
2080 384944.000   48.055284164    9.365191725   603.1690   1   7   0.0093   0.0041   0.0099   0.0031  -0.0008   0.0003   0.00    7.4
2080 384945.000   48.055284155    9.365191716   603.1662   1   7   0.0093   0.0039   0.0099   0.0030  -0.0006  -0.0006   0.00    7.4
2080 384946.000   48.055284167    9.365191680   603.1648   1   7   0.0093   0.0043   0.0099   0.0029  -0.0013   0.0005   0.00    7.4
2080 384947.000   48.055284194    9.365191725   603.1613   1   7   0.0093   0.0042   0.0099   0.0032   0.0011  -0.0009   0.00    7.4
2080 384948.000   48.055284157    9.365191702   603.1648   1   7   0.0093   0.0043   0.0099   0.0031   0.0006   0.0003   0.00    7.4
2080 384949.000   48.055284165    9.365191694   603.1631   1   7   0.0093   0.0041   0.0099   0.0032   0.0012  -0.0010   0.00    7.4
2080 384950.000   48.055284165    9.365191722   603.1669   1   7   0.0093   0.0042   0.0099   0.0033   0.0008   0.0007   0.00    7.5
2080 384951.000   48.055284176    9.365191718   603.1583   1   7   0.0093   0.0041   0.0099   0.0032  -0.0011   0.0009   0.00    7.5
2080 384952.000   48.055284168    9.365191713   603.1651   1   7   0.0093   0.0041   0.0099   0.0032  -0.0007   0.0005   0.00    7.5
2080 384953.000   48.055284177    9.365191709   603.1637   1   7   0.0093   0.0040   0.0099   0.0032   0.0005  -0.0006   0.00    7.5
2080 384954.000   48.055284163    9.365191712   603.1664   1   7   0.0093   0.0037   0.0099   0.0030   0.0004  -0.0010   0.00    7.5
2080 384955.000   48.055284205    9.365191723   603.1629   1   7   0.0093   0.0044   0.0099   0.0031   0.0007  -0.0004   0.00    7.5
2080 384956.000   48.055284169    9.365191723   603.1631   1   7   0.0093   0.0037   0.0099   0.0031   0.0007   0.0002   0.00    7.5
2080 384957.000   48.055284200    9.365191719   603.1681   1   7   0.0093   0.0041   0.0099   0.0033   0.0003   0.0005   0.00    7.5
2080 384958.000   48.055284195    9.365191717   603.1682   1   7   0.0093   0.0042   0.0099   0.0030   0.0008  -0.0011   0.00    7.5
2080 384959.000   48.055284117    9.365191717   603.1654   1   7   0.0093   0.0041   0.0100   0.0032   0.0015   0.0001   0.00    7.5
2080 384960.000   48.055284180    9.365191742   603.1639   1   7   0.0093   0.0041   0.0099   0.0031  -0.0012  -0.0002   0.00    7.5
2080 384961.000   48.055284172    9.365191724   603.1659   1   7   0.0093   0.0042   0.0099   0.0031  -0.0012   0.0005   0.00    7.5
2080 384962.000   48.055284144    9.365191717   603.1655   1   7   0.0093   0.0038   0.0099   0.0033   0.0009  -0.0008   0.00    7.5
2080 384963.000   48.055284200    9.365191718   603.1641   1   7   0.0093   0.0038   0.0098   0.0033   0.0008  -0.0004   0.00    7.5
2080 384964.000   48.055284227    9.365191726   603.1665   1   7   0.0093   0.0041   0.0099   0.0031   0.0010  -0.0009   0.00    7.5
2080 384965.000   48.055284196    9.365191698   603.1666   1   7   0.0093   0.0042   0.0099   0.0032   0.0007  -0.0008   0.00    7.5
2080 384966.000   48.055284160    9.365191702   603.1634   1   7   0.0093   0.0041   0.0099   0.0032   0.0008  -0.0008   0.00    7.5
2080 384967.000   48.055284200    9.365191712   603.1644   1   7   0.0093   0.0039   0.0099   0.0032   0.0007  -0.0003   0.00    7.5
2080 384968.000   48.055284192    9.365191707   603.1656   1   7   0.0093   0.0039   0.0100   0.0030   0.0010  -0.0003   0.00    7.5
2080 384969.000   48.055284187    9.365191718   603.1669   1   7   0.0093   0.0043   0.0099   0.0031   0.0004  -0.0007   0.00    7.5
2080 384970.000   48.055284179    9.365191730   603.1649   1   7   0.0093   0.0038   0.0099   0.0032  -0.0005  -0.0008   0.00    7.5
2080 384971.000   48.055284188    9.365191712   603.1662   1   7   0.0093   0.0043   0.0099   0.0031   0.0005  -0.0008   0.00    7.5
2080 384972.000   48.055284145    9.365191726   603.1665   1   7   0.0093   0.0043   0.0099   0.0031  -0.0006   0.0004   0.00    7.5
2080 384973.000   48.055284191    9.365191715   603.1610   1   7   0.0093   0.0039   0.0099   0.0031  -0.0005  -0.0006   0.00    7.5
2080 384974.000   48.055284158    9.365191739   603.1647   1   7   0.0093   0.0041   0.0099   0.0032   0.0009  -0.0002   0.00    7.5
2080 384975.000   48.055284179    9.365191724   603.1675   1   7   0.0093   0.0040   0.0099   0.0032   0.0006  -0.0006   0.00    7.5
2080 384976.000   48.055284168    9.365191709   603.1619   1   7   0.0093   0.0040   0.0099   0.0032   0.0006  -0.0006   0.00    7.5
2080 384977.000   48.055284177    9.365191717   603.1656   1   7   0.0093   0.0044   0.0099   0.0033   0.0011  -0.0004   0.00    7.6
2080 384978.000   48.055284213    9.365191720   603.1656   1   7   0.0093   0.0036   0.0098   0.0034  -0.0007   0.0005   0.00    7.6
2080 384979.000   48.055284167    9.365191711   603.1693   1   7   0.0093   0.0043   0.0099   0.0030   0.0006  -0.0008   0.00    7.6
2080 384980.000   48.055284218    9.365191710   603.1695   1   7   0.0093   0.0040   0.0099   0.0032   0.0004  -0.0009   0.00    7.6
2080 384981.000   48.055284192    9.365191703   603.1624   1   7   0.0093   0.0040   0.0099   0.0031   0.0005  -0.0007   0.00    7.6
