% program   : RTKPOST ver.2.4.3 b33
% inp file  : E:\Study\master\semester 3\Satellite Navigation\lab6\data_sets\INS_3250.19O
% inp file  : E:\Study\master\semester 3\Satellite Navigation\lab6\data_sets\66870397.19o
% inp file  : E:\Study\master\semester 3\Satellite Navigation\lab6\data_sets\66870397.19g
% obs start : 2019/11/21 10:49:00.0 GPST (week2080 384540.0s)
% obs end   : 2019/11/21 13:55:09.0 GPST (week2080 395709.0s)
% pos mode  : kinematic
% freqs     : L1+L2
% solution  : forward
% elev mask : 15.0 deg
% dynamics  : off
% tidecorr  : off
% ionos opt : broadcast
% tropo opt : saastamoinen
% ephemeris : broadcast
% navi sys  : glonass
% amb res   : continuous
% amb glo   : on
% val thres : 3.0
% antenna1  :                       ( 0.0000  0.0000  0.0000)
% antenna2  :                       ( 0.0000  0.0000  0.0000)
% ref pos   : 48.083587276    9.223909177   645.4353
%
% (lat/lon/height=WGS84/ellipsoidal,Q=1:fix,2:float,3:sbas,4:dgps,5:single,6:ppp,ns=# of satellites)
%  GPST          latitude(deg) longitude(deg)  height(m)   Q  ns   sdn(m)   sde(m)   sdu(m)  sdne(m)  sdeu(m)  sdun(m) age(s)  ratio
2080 384540.000   48.055287857    9.365191712   601.8288   2   6   1.3832   0.7672   2.4879  -0.7612   0.9547  -1.0491   0.00    1.2
2080 384541.000   48.055287459    9.365191574   601.7357   2   6   0.9957   0.5531   1.7830  -0.5517   0.6873  -0.7511   0.00    1.1
2080 384542.000   48.055287812    9.365191642   601.6334   2   6   0.8179   0.4546   1.4624  -0.4542   0.5646  -0.6160   0.00    1.3
2080 384543.000   48.055288137    9.365191473   601.5282   2   6   0.7104   0.3950   1.2692  -0.3950   0.4904  -0.5347   0.00    1.3
2080 384544.000   48.055288434    9.365191453   601.4731   2   6   0.6364   0.3540   1.1365  -0.3542   0.4394  -0.4791   0.00    1.4
2080 384545.000   48.055288783    9.365191134   601.3735   2   6   0.5815   0.3236   1.0381  -0.3238   0.4016  -0.4380   0.00    1.4
2080 384546.000   48.055289104    9.365191010   601.3272   2   6   0.5387   0.2998   0.9613  -0.3001   0.3720  -0.4060   0.00    1.4
2080 384547.000   48.055289164    9.365190959   601.3241   2   6   0.5041   0.2806   0.8992  -0.2809   0.3481  -0.3802   0.00    1.4
2080 384548.000   48.055289081    9.365191165   601.3251   2   6   0.4753   0.2647   0.8476  -0.2650   0.3283  -0.3589   0.00    1.4
2080 384549.000   48.055289017    9.365191362   601.3841   2   6   0.4509   0.2512   0.8038  -0.2515   0.3115  -0.3409   0.00    1.4
2080 384550.000   48.055288785    9.365191579   601.4176   2   6   0.4299   0.2395   0.7660  -0.2399   0.2970  -0.3255   0.00    1.5
2080 384551.000   48.055288623    9.365191783   601.4133   2   6   0.4115   0.2293   0.7329  -0.2297   0.2843  -0.3120   0.00    1.5
2080 384552.000   48.055288537    9.365192021   601.4887   2   6   0.3953   0.2203   0.7035  -0.2207   0.2731  -0.3002   0.00    1.5
2080 384553.000   48.055288287    9.365192387   601.5895   2   6   0.3808   0.2123   0.6773  -0.2127   0.2630  -0.2897   0.00    1.5
2080 384554.000   48.055288145    9.365192584   601.6528   2   6   0.3677   0.2051   0.6537  -0.2054   0.2540  -0.2803   0.00    1.5
2080 384555.000   48.055288078    9.365192821   601.6994   2   6   0.3559   0.1986   0.6322  -0.1989   0.2459  -0.2719   0.00    1.5
2080 384556.000   48.055288015    9.365193084   601.7349   2   6   0.3451   0.1926   0.6126  -0.1929   0.2384  -0.2642   0.00    1.5
2080 384557.000   48.055287980    9.365193315   601.7765   2   6   0.3352   0.1872   0.5946  -0.1875   0.2315  -0.2572   0.00    1.5
2080 384558.000   48.055287911    9.365193475   601.8223   2   6   0.3261   0.1821   0.5779  -0.1824   0.2252  -0.2508   0.00    1.5
2080 384559.000   48.055287850    9.365193653   601.8341   2   6   0.3177   0.1775   0.5625  -0.1778   0.2194  -0.2449   0.00    1.5
2080 384560.000   48.055287807    9.365193784   601.8860   2   6   0.3098   0.1731   0.5480  -0.1735   0.2139  -0.2394   0.00    1.4
2080 384561.000   48.055287803    9.365193900   601.9159   2   6   0.3025   0.1691   0.5346  -0.1694   0.2089  -0.2344   0.00    1.4
2080 384562.000   48.055287702    9.365194018   601.9549   2   6   0.2957   0.1653   0.5219  -0.1656   0.2041  -0.2297   0.00    1.4
2080 384563.000   48.055287672    9.365194114   602.0085   2   6   0.2892   0.1618   0.5100  -0.1621   0.1996  -0.2253   0.00    1.4
2080 384564.000   48.055287618    9.365194178   602.0421   2   6   0.2832   0.1585   0.4988  -0.1588   0.1954  -0.2212   0.00    1.4
2080 384565.000   48.055287465    9.365194315   602.1039   2   6   0.2775   0.1553   0.4881  -0.1556   0.1915  -0.2174   0.00    1.4
2080 384566.000   48.055287391    9.365194386   602.1501   2   6   0.2721   0.1524   0.4781  -0.1527   0.1877  -0.2138   0.00    1.3
2080 384567.000   48.055287299    9.365194542   602.2093   2   6   0.2670   0.1496   0.4685  -0.1498   0.1841  -0.2104   0.00    1.3
2080 384568.000   48.055287260    9.365194630   602.2649   2   6   0.2621   0.1469   0.4593  -0.1472   0.1807  -0.2072   0.00    1.3
2080 384569.000   48.055287157    9.365194714   602.3070   2   6   0.2575   0.1443   0.4506  -0.1446   0.1775  -0.2042   0.00    1.3
2080 384570.000   48.055287120    9.365194779   602.3406   2   6   0.2531   0.1419   0.4423  -0.1422   0.1744  -0.2013   0.00    1.3
2080 384571.000   48.055287051    9.365194858   602.3599   2   6   0.2489   0.1396   0.4343  -0.1399   0.1715  -0.1986   0.00    1.3
2080 384572.000   48.055286954    9.365194915   602.3844   2   6   0.2448   0.1374   0.4267  -0.1377   0.1687  -0.1960   0.00    1.3
2080 384573.000   48.055286840    9.365194995   602.3913   2   6   0.2410   0.1353   0.4193  -0.1356   0.1660  -0.1935   0.00    1.3
2080 384574.000   48.055286765    9.365195072   602.4049   2   6   0.2373   0.1333   0.4123  -0.1335   0.1634  -0.1912   0.00    1.3
2080 384575.000   48.055286617    9.365195232   602.4280   2   6   0.2338   0.1313   0.4055  -0.1316   0.1609  -0.1889   0.00    1.3
2080 384576.000   48.055286511    9.365195359   602.4354   2   6   0.2304   0.1295   0.3989  -0.1297   0.1585  -0.1868   0.00    1.3
2080 384577.000   48.055286418    9.365195446   602.4431   2   6   0.2271   0.1277   0.3926  -0.1279   0.1562  -0.1847   0.00    1.3
2080 384578.000   48.055286402    9.365195543   602.4777   2   6   0.2239   0.1259   0.3865  -0.1262   0.1539  -0.1828   0.00    1.3
2080 384579.000   48.055286334    9.365195574   602.4904   2   6   0.2209   0.1243   0.3806  -0.1245   0.1518  -0.1809   0.00    1.3
2080 384580.000   48.055286231    9.365195636   602.5120   2   6   0.2180   0.1227   0.3749  -0.1229   0.1497  -0.1791   0.00    1.3
2080 384581.000   48.055286207    9.365195695   602.5285   2   6   0.2151   0.1211   0.3694  -0.1213   0.1477  -0.1773   0.00    1.3
2080 384582.000   48.055286147    9.365195743   602.5596   2   6   0.2124   0.1196   0.3640  -0.1198   0.1457  -0.1756   0.00    1.3
2080 384583.000   48.055286119    9.365195769   602.5641   2   6   0.2097   0.1181   0.3589  -0.1184   0.1439  -0.1740   0.00    1.3
2080 384584.000   48.055286039    9.365195806   602.5729   2   6   0.2072   0.1167   0.3538  -0.1170   0.1420  -0.1724   0.00    1.3
2080 384585.000   48.055285957    9.365195821   602.5755   2   6   0.2047   0.1154   0.3489  -0.1156   0.1403  -0.1709   0.00    1.3
2080 384586.000   48.055285935    9.365195826   602.5951   2   6   0.2023   0.1140   0.3442  -0.1143   0.1385  -0.1694   0.00    1.3
2080 384587.000   48.055285868    9.365195915   602.6156   2   6   0.1999   0.1127   0.3396  -0.1130   0.1369  -0.1680   0.00    1.2
2080 384588.000   48.055285847    9.365195969   602.6443   2   6   0.1976   0.1115   0.3351  -0.1117   0.1352  -0.1666   0.00    1.2
2080 384589.000   48.055285759    9.365196080   602.6647   2   6   0.1954   0.1103   0.3307  -0.1105   0.1336  -0.1653   0.00    1.2
2080 384590.000   48.055285701    9.365196179   602.6935   2   6   0.1933   0.1091   0.3265  -0.1093   0.1321  -0.1640   0.00    1.2
2080 384591.000   48.055285588    9.365196317   602.7255   2   6   0.1912   0.1080   0.3223  -0.1081   0.1306  -0.1628   0.00    1.2
2080 384592.000   48.055285478    9.365196460   602.7548   2   6   0.1892   0.1068   0.3183  -0.1070   0.1291  -0.1615   0.00    1.2
2080 384593.000   48.055285447    9.365196538   602.7831   2   6   0.1872   0.1058   0.3144  -0.1059   0.1277  -0.1603   0.00    1.2
2080 384594.000   48.055285465    9.365196628   602.8088   2   6   0.1853   0.1047   0.3105  -0.1048   0.1263  -0.1592   0.00    1.2
2080 384595.000   48.055285364    9.365196748   602.8198   2   6   0.1834   0.1036   0.3068  -0.1038   0.1250  -0.1580   0.00    1.2
2080 384596.000   48.055285308    9.365196825   602.8512   2   6   0.1816   0.1026   0.3031  -0.1028   0.1236  -0.1569   0.00    1.2
2080 384597.000   48.055285267    9.365196889   602.8716   2   6   0.1798   0.1017   0.2996  -0.1018   0.1223  -0.1558   0.00    1.2
2080 384598.000   48.055285205    9.365197004   602.8948   2   6   0.1780   0.1007   0.2961  -0.1008   0.1211  -0.1548   0.00    1.2
2080 384599.000   48.055285134    9.365197080   602.9171   2   6   0.1763   0.0997   0.2927  -0.0998   0.1198  -0.1538   0.00    1.1
2080 384600.000   48.055285073    9.365197170   602.9376   2   6   0.1747   0.0988   0.2894  -0.0989   0.1186  -0.1527   0.00    1.1
2080 384601.000   48.055284999    9.365197218   602.9535   2   6   0.1730   0.0979   0.2861  -0.0980   0.1174  -0.1518   0.00    1.1
2080 384602.000   48.055284959    9.365197273   602.9880   2   6   0.1715   0.0970   0.2829  -0.0971   0.1163  -0.1508   0.00    1.1
2080 384603.000   48.055284883    9.365197325   603.0086   2   6   0.1699   0.0962   0.2798  -0.0962   0.1151  -0.1498   0.00    1.1
2080 384604.000   48.055284874    9.365197359   603.0234   2   6   0.1684   0.0953   0.2768  -0.0954   0.1140  -0.1489   0.00    1.1
2080 384605.000   48.055284790    9.365197413   603.0402   2   6   0.1669   0.0945   0.2738  -0.0945   0.1129  -0.1480   0.00    1.1
2080 384606.000   48.055284718    9.365197462   603.0573   2   6   0.1654   0.0937   0.2709  -0.0937   0.1119  -0.1471   0.00    1.1
2080 384607.000   48.055284693    9.365197507   603.0836   2   6   0.1640   0.0929   0.2680  -0.0929   0.1108  -0.1462   0.00    1.1
2080 384608.000   48.055284638    9.365197582   603.1113   2   6   0.1626   0.0921   0.2652  -0.0921   0.1098  -0.1453   0.00    1.1
2080 384609.000   48.055284552    9.365197606   603.1252   2   6   0.1613   0.0914   0.2625  -0.0913   0.1088  -0.1445   0.00    1.1
2080 384610.000   48.055284459    9.365197651   603.1426   2   6   0.1599   0.0906   0.2598  -0.0906   0.1078  -0.1437   0.00    1.1
2080 384611.000   48.055284406    9.365197680   603.1588   2   6   0.1586   0.0899   0.2572  -0.0898   0.1068  -0.1428   0.00    1.0
2080 384612.000   48.055284356    9.365197703   603.1729   2   6   0.1573   0.0891   0.2546  -0.0891   0.1058  -0.1420   0.00    1.0
2080 384613.000   48.055284334    9.365197706   603.1875   2   6   0.1560   0.0884   0.2521  -0.0883   0.1049  -0.1412   0.00    1.0
2080 384614.000   48.055284239    9.365197701   603.2063   2   6   0.1548   0.0878   0.2496  -0.0876   0.1040  -0.1404   0.00    1.0
2080 384615.000   48.055284140    9.365197777   603.2240   2   6   0.1536   0.0871   0.2472  -0.0869   0.1031  -0.1397   0.00    1.0
2080 384616.000   48.055284073    9.365197818   603.2455   2   6   0.1524   0.0864   0.2448  -0.0862   0.1022  -0.1389   0.00    1.0
2080 384617.000   48.055284088    9.365197792   603.2622   2   6   0.1512   0.0857   0.2424  -0.0855   0.1013  -0.1381   0.00    1.0
2080 384618.000   48.055284051    9.365197829   603.2821   2   6   0.1501   0.0851   0.2401  -0.0849   0.1004  -0.1374   0.00    1.0
2080 384619.000   48.055284089    9.365197728   603.2812   2   6   0.1489   0.0844   0.2379  -0.0842   0.0996  -0.1367   0.00    1.0
2080 384620.000   48.055284063    9.365197697   603.2891   2   6   0.1478   0.0838   0.2357  -0.0836   0.0987  -0.1359   0.00    1.0
2080 384621.000   48.055284071    9.365197658   603.2940   2   6   0.1467   0.0832   0.2335  -0.0829   0.0979  -0.1352   0.00    1.0
2080 384622.000   48.055284026    9.365197623   603.2998   2   6   0.1457   0.0826   0.2314  -0.0823   0.0971  -0.1345   0.00    1.0
2080 384623.000   48.055284041    9.365197583   603.3053   2   6   0.1446   0.0820   0.2293  -0.0817   0.0963  -0.1338   0.00    1.0
2080 384624.000   48.055284044    9.365197507   603.3098   2   6   0.1436   0.0814   0.2272  -0.0810   0.0955  -0.1331   0.00    1.0
2080 384625.000   48.055284058    9.365197475   603.3165   2   6   0.1425   0.0808   0.2252  -0.0804   0.0948  -0.1325   0.00    1.0
2080 384626.000   48.055284073    9.365197392   603.3242   2   6   0.1415   0.0802   0.2232  -0.0798   0.0940  -0.1318   0.00    1.0
2080 384627.000   48.055284090    9.365197328   603.3353   2   6   0.1405   0.0797   0.2213  -0.0793   0.0932  -0.1311   0.00    1.0
2080 384628.000   48.055284089    9.365197293   603.3396   2   6   0.1396   0.0791   0.2193  -0.0787   0.0925  -0.1305   0.00    1.0
2080 384629.000   48.055284060    9.365197268   603.3424   2   6   0.1386   0.0786   0.2175  -0.0781   0.0918  -0.1298   0.00    1.0
2080 384630.000   48.055284046    9.365197194   603.3468   2   6   0.1377   0.0780   0.2156  -0.0775   0.0910  -0.1292   0.00    1.0
2080 384631.000   48.055284062    9.365197150   603.3460   2   6   0.1367   0.0775   0.2138  -0.0770   0.0903  -0.1285   0.00    1.0
2080 384632.000   48.055284070    9.365197096   603.3536   2   6   0.1358   0.0770   0.2120  -0.0764   0.0896  -0.1279   0.00    1.0
2080 384633.000   48.055284041    9.365197061   603.3508   2   6   0.1349   0.0764   0.2102  -0.0759   0.0889  -0.1273   0.00    1.0
2080 384634.000   48.055284013    9.365197023   603.3584   2   6   0.1340   0.0759   0.2085  -0.0754   0.0883  -0.1267   0.00    1.0
2080 384635.000   48.055284021    9.365197010   603.3571   2   6   0.1332   0.0754   0.2068  -0.0748   0.0876  -0.1260   0.00    1.0
2080 384636.000   48.055283977    9.365196995   603.3620   2   6   0.1323   0.0749   0.2051  -0.0743   0.0869  -0.1254   0.00    1.0
2080 384637.000   48.055284016    9.365196916   603.3611   2   6   0.1315   0.0744   0.2035  -0.0738   0.0863  -0.1248   0.00    1.0
2080 384638.000   48.055283953    9.365196934   603.3686   2   6   0.1306   0.0739   0.2019  -0.0733   0.0856  -0.1242   0.00    1.0
2080 384639.000   48.055283970    9.365196908   603.3731   2   6   0.1298   0.0735   0.2003  -0.0728   0.0850  -0.1237   0.00    1.0
2080 384640.000   48.055283978    9.365196898   603.3881   2   6   0.1290   0.0730   0.1987  -0.0723   0.0844  -0.1231   0.00    1.0
2080 384641.000   48.055283917    9.365196912   603.3966   2   6   0.1282   0.0725   0.1971  -0.0718   0.0837  -0.1225   0.00    1.0
2080 384642.000   48.055283997    9.365196814   603.3826   2   6   0.1274   0.0721   0.1956  -0.0713   0.0831  -0.1219   0.00    1.0
2080 384643.000   48.055283992    9.365196822   603.3898   2   6   0.1266   0.0716   0.1941  -0.0708   0.0825  -0.1214   0.00    1.0
2080 384644.000   48.055283985    9.365196793   603.3940   2   6   0.1258   0.0712   0.1926  -0.0703   0.0819  -0.1208   0.00    1.0
2080 384645.000   48.055283996    9.365196742   603.4043   2   6   0.1251   0.0707   0.1912  -0.0698   0.0813  -0.1203   0.00    1.0
2080 384646.000   48.055283936    9.365196784   603.4149   2   6   0.1243   0.0703   0.1898  -0.0694   0.0807  -0.1197   0.00    1.0
2080 384647.000   48.055283864    9.365196811   603.4298   2   6   0.1236   0.0698   0.1884  -0.0689   0.0802  -0.1192   0.00    1.0
2080 384648.000   48.055283822    9.365196820   603.4325   2   6   0.1229   0.0694   0.1870  -0.0685   0.0796  -0.1186   0.00    1.0
2080 384649.000   48.055283777    9.365196822   603.4504   2   6   0.1221   0.0690   0.1856  -0.0680   0.0790  -0.1181   0.00    1.0
2080 384650.000   48.055283705    9.365196844   603.4591   2   6   0.1214   0.0686   0.1842  -0.0676   0.0785  -0.1175   0.00    1.1
2080 384651.000   48.055283689    9.365196796   603.4670   2   6   0.1207   0.0682   0.1829  -0.0671   0.0779  -0.1170   0.00    1.1
2080 384652.000   48.055283688    9.365196766   603.4632   2   6   0.1200   0.0677   0.1816  -0.0667   0.0774  -0.1165   0.00    1.1
2080 384653.000   48.055283649    9.365196759   603.4668   2   6   0.1193   0.0673   0.1803  -0.0662   0.0768  -0.1160   0.00    1.1
2080 384654.000   48.055283600    9.365196730   603.4701   2   6   0.1187   0.0669   0.1791  -0.0658   0.0763  -0.1155   0.00    1.1
2080 384655.000   48.055283592    9.365196691   603.4634   2   6   0.1180   0.0665   0.1778  -0.0654   0.0758  -0.1150   0.00    1.1
2080 384656.000   48.055283601    9.365196636   603.4718   2   6   0.1173   0.0661   0.1766  -0.0650   0.0752  -0.1144   0.00    1.1
2080 384657.000   48.055283582    9.365196613   603.4705   2   6   0.1167   0.0658   0.1753  -0.0646   0.0747  -0.1139   0.00    1.1
2080 384658.000   48.055283599    9.365196573   603.4656   2   6   0.1160   0.0654   0.1741  -0.0641   0.0742  -0.1134   0.00    1.1
2080 384659.000   48.055283594    9.365196542   603.4623   2   6   0.1154   0.0650   0.1730  -0.0637   0.0737  -0.1129   0.00    1.1
2080 384660.000   48.055283529    9.365196534   603.4742   2   6   0.1148   0.0646   0.1718  -0.0633   0.0732  -0.1125   0.00    1.1
2080 384661.000   48.055283486    9.365196527   603.4721   2   6   0.1141   0.0642   0.1706  -0.0629   0.0727  -0.1120   0.00    1.1
2080 384662.000   48.055283473    9.365196516   603.4697   2   6   0.1135   0.0639   0.1695  -0.0625   0.0722  -0.1115   0.00    1.1
2080 384663.000   48.055283466    9.365196466   603.4669   2   6   0.1129   0.0635   0.1684  -0.0621   0.0717  -0.1110   0.00    1.1
2080 384664.000   48.055283425    9.365196473   603.4720   2   6   0.1123   0.0631   0.1673  -0.0617   0.0712  -0.1105   0.00    1.1
2080 384665.000   48.055283407    9.365196462   603.4770   2   6   0.1117   0.0628   0.1662  -0.0613   0.0708  -0.1101   0.00    1.1
2080 384666.000   48.055283424    9.365196422   603.4746   2   6   0.1111   0.0624   0.1651  -0.0610   0.0703  -0.1096   0.00    1.2
2080 384667.000   48.055283353    9.365196416   603.4715   2   6   0.1105   0.0621   0.1640  -0.0606   0.0698  -0.1091   0.00    1.2
2080 384668.000   48.055283344    9.365196407   603.4716   2   6   0.1100   0.0617   0.1630  -0.0602   0.0694  -0.1087   0.00    1.2
2080 384669.000   48.055283350    9.365196355   603.4677   2   6   0.1094   0.0614   0.1620  -0.0598   0.0689  -0.1082   0.00    1.2
2080 384670.000   48.055283390    9.365196308   603.4686   2   6   0.1088   0.0611   0.1609  -0.0595   0.0684  -0.1078   0.00    1.2
2080 384671.000   48.055283388    9.365196293   603.4728   2   6   0.1083   0.0608   0.1599  -0.0591   0.0680  -0.1073   0.00    1.2
2080 384672.000   48.055283344    9.365196288   603.4668   2   6   0.1077   0.0604   0.1589  -0.0587   0.0675  -0.1069   0.00    1.2
2080 384673.000   48.055283321    9.365196311   603.4665   2   6   0.1072   0.0601   0.1580  -0.0584   0.0671  -0.1064   0.00    1.2
2080 384674.000   48.055283316    9.365196284   603.4722   2   6   0.1066   0.0597   0.1570  -0.0580   0.0667  -0.1060   0.00    1.2
2080 384675.000   48.055283298    9.365196276   603.4670   2   6   0.1061   0.0594   0.1560  -0.0576   0.0662  -0.1055   0.00    1.2
2080 384676.000   48.055283297    9.365196269   603.4669   2   6   0.1056   0.0591   0.1551  -0.0573   0.0658  -0.1051   0.00    1.2
2080 384677.000   48.055283317    9.365196237   603.4612   2   6   0.1051   0.0588   0.1542  -0.0569   0.0654  -0.1047   0.00    1.2
2080 384678.000   48.055283297    9.365196195   603.4540   2   6   0.1045   0.0585   0.1532  -0.0566   0.0650  -0.1043   0.00    1.2
2080 384679.000   48.055283295    9.365196169   603.4463   2   6   0.1040   0.0582   0.1523  -0.0563   0.0645  -0.1038   0.00    1.2
2080 384680.000   48.055283257    9.365196160   603.4425   2   6   0.1035   0.0579   0.1514  -0.0559   0.0641  -0.1034   0.00    1.2
2080 384681.000   48.055283299    9.365196102   603.4399   2   6   0.1030   0.0575   0.1505  -0.0556   0.0637  -0.1030   0.00    1.2
2080 384682.000   48.055283283    9.365196075   603.4437   2   6   0.1025   0.0572   0.1497  -0.0552   0.0633  -0.1026   0.00    1.2
2080 384683.000   48.055283294    9.365196027   603.4409   2   6   0.1020   0.0569   0.1488  -0.0549   0.0629  -0.1022   0.00    1.2
2080 384684.000   48.055283327    9.365195986   603.4382   2   6   0.1015   0.0566   0.1479  -0.0546   0.0625  -0.1018   0.00    1.2
2080 384685.000   48.055283274    9.365195981   603.4412   2   6   0.1011   0.0563   0.1471  -0.0543   0.0621  -0.1013   0.00    1.2
2080 384686.000   48.055283235    9.365195973   603.4425   2   6   0.1006   0.0561   0.1463  -0.0539   0.0617  -0.1009   0.00    1.2
2080 384687.000   48.055283190    9.365195988   603.4450   2   6   0.1001   0.0558   0.1454  -0.0536   0.0613  -0.1005   0.00    1.2
2080 384688.000   48.055283203    9.365195953   603.4426   2   6   0.0996   0.0555   0.1446  -0.0533   0.0609  -0.1001   0.00    1.2
2080 384689.000   48.055283209    9.365195930   603.4420   2   6   0.0992   0.0552   0.1438  -0.0530   0.0606  -0.0998   0.00    1.2
2080 384690.000   48.055283149    9.365195910   603.4383   2   6   0.0987   0.0549   0.1430  -0.0526   0.0602  -0.0994   0.00    1.2
2080 384691.000   48.055283133    9.365195923   603.4392   2   6   0.0983   0.0546   0.1422  -0.0523   0.0598  -0.0990   0.00    1.2
2080 384692.000   48.055283114    9.365195875   603.4390   2   6   0.0978   0.0544   0.1414  -0.0520   0.0594  -0.0986   0.00    1.1
2080 384693.000   48.055283045    9.365195910   603.4413   2   6   0.0974   0.0541   0.1407  -0.0517   0.0591  -0.0982   0.00    1.1
2080 384694.000   48.055283088    9.365195870   603.4418   2   6   0.0969   0.0538   0.1399  -0.0514   0.0587  -0.0978   0.00    1.1
2080 384695.000   48.055283025    9.365195893   603.4490   2   6   0.0965   0.0536   0.1392  -0.0511   0.0583  -0.0974   0.00    1.1
2080 384696.000   48.055282985    9.365195876   603.4491   2   6   0.0960   0.0533   0.1384  -0.0508   0.0580  -0.0971   0.00    1.1
2080 384697.000   48.055282952    9.365195871   603.4532   2   6   0.0956   0.0530   0.1377  -0.0505   0.0576  -0.0967   0.00    1.1
2080 384698.000   48.055282915    9.365195861   603.4472   2   6   0.0952   0.0527   0.1370  -0.0502   0.0573  -0.0963   0.00    1.1
2080 384699.000   48.055282907    9.365195840   603.4489   2   6   0.0948   0.0525   0.1362  -0.0499   0.0569  -0.0959   0.00    1.1
2080 384700.000   48.055282875    9.365195833   603.4541   2   6   0.0943   0.0522   0.1355  -0.0496   0.0566  -0.0956   0.00    1.1
2080 384701.000   48.055282818    9.365195857   603.4610   2   6   0.0939   0.0520   0.1348  -0.0493   0.0562  -0.0952   0.00    1.1
2080 384702.000   48.055282801    9.365195835   603.4609   2   6   0.0935   0.0517   0.1341  -0.0491   0.0559  -0.0949   0.00    1.1
2080 384703.000   48.055282761    9.365195843   603.4610   2   6   0.0931   0.0515   0.1334  -0.0488   0.0555  -0.0945   0.00    1.1
2080 384704.000   48.055282720    9.365195836   603.4571   2   6   0.0927   0.0512   0.1328  -0.0485   0.0552  -0.0941   0.00    1.1
2080 384705.000   48.055282707    9.365195846   603.4608   2   6   0.0923   0.0510   0.1321  -0.0482   0.0549  -0.0938   0.00    1.1
2080 384706.000   48.055282708    9.365195812   603.4553   2   6   0.0919   0.0507   0.1314  -0.0479   0.0545  -0.0934   0.00    1.1
2080 384707.000   48.055282737    9.365195798   603.4569   2   6   0.0915   0.0505   0.1308  -0.0476   0.0542  -0.0931   0.00    1.1
2080 384708.000   48.055282715    9.365195760   603.4511   2   6   0.0911   0.0502   0.1301  -0.0474   0.0539  -0.0927   0.00    1.1
2080 384709.000   48.055282697    9.365195769   603.4502   2   6   0.0907   0.0500   0.1295  -0.0471   0.0535  -0.0924   0.00    1.1
2080 384710.000   48.055282684    9.365195745   603.4464   2   6   0.0904   0.0498   0.1288  -0.0468   0.0532  -0.0921   0.00    1.1
2080 384711.000   48.055282715    9.365195724   603.4446   2   6   0.0900   0.0495   0.1282  -0.0465   0.0529  -0.0917   0.00    1.1
2080 384712.000   48.055282735    9.365195695   603.4436   2   6   0.0896   0.0493   0.1276  -0.0463   0.0526  -0.0914   0.00    1.1
2080 384713.000   48.055282774    9.365195644   603.4367   2   6   0.0892   0.0490   0.1269  -0.0460   0.0523  -0.0910   0.00    1.1
2080 384714.000   48.055282750    9.365195622   603.4380   2   6   0.0889   0.0488   0.1263  -0.0457   0.0520  -0.0907   0.00    1.1
2080 384715.000   48.055282774    9.365195611   603.4345   2   6   0.0885   0.0486   0.1257  -0.0455   0.0516  -0.0904   0.00    1.1
2080 384716.000   48.055282795    9.365195554   603.4241   2   6   0.0881   0.0484   0.1251  -0.0452   0.0513  -0.0901   0.00    1.1
2080 384717.000   48.055282768    9.365195558   603.4246   2   6   0.0878   0.0481   0.1245  -0.0450   0.0510  -0.0897   0.00    1.1
2080 384718.000   48.055282814    9.365195534   603.4165   2   6   0.0874   0.0479   0.1239  -0.0447   0.0507  -0.0894   0.00    1.1
2080 384719.000   48.055282819    9.365195502   603.4099   2   6   0.0871   0.0477   0.1234  -0.0444   0.0504  -0.0891   0.00    1.1
2080 384720.000   48.055282821    9.365195459   603.4104   2   6   0.0867   0.0475   0.1228  -0.0442   0.0501  -0.0888   0.00    1.1
2080 384721.000   48.055282828    9.365195500   603.4063   2   6   0.0864   0.0473   0.1222  -0.0439   0.0498  -0.0884   0.00    1.1
2080 384722.000   48.055282879    9.365195443   603.3985   2   6   0.0860   0.0470   0.1216  -0.0437   0.0495  -0.0881   0.00    1.1
2080 384723.000   48.055282833    9.365195450   603.3978   2   6   0.0857   0.0468   0.1211  -0.0434   0.0492  -0.0878   0.00    1.1
2080 384724.000   48.055282848    9.365195440   603.3947   2   6   0.0853   0.0466   0.1205  -0.0432   0.0490  -0.0875   0.00    1.1
2080 384725.000   48.055282859    9.365195436   603.3935   2   6   0.0850   0.0464   0.1200  -0.0429   0.0487  -0.0872   0.00    1.1
2080 384726.000   48.055282899    9.365195407   603.3778   2   6   0.0847   0.0462   0.1194  -0.0427   0.0484  -0.0869   0.00    1.1
2080 384727.000   48.055282883    9.365195418   603.3823   2   6   0.0843   0.0460   0.1189  -0.0425   0.0481  -0.0866   0.00    1.1
2080 384728.000   48.055282919    9.365195382   603.3799   2   6   0.0840   0.0458   0.1184  -0.0422   0.0478  -0.0863   0.00    1.1
2080 384729.000   48.055282920    9.365195395   603.3861   2   6   0.0837   0.0456   0.1178  -0.0420   0.0475  -0.0860   0.00    1.0
2080 384730.000   48.055282915    9.365195392   603.3858   2   6   0.0833   0.0454   0.1173  -0.0417   0.0472  -0.0857   0.00    1.0
2080 384731.000   48.055282925    9.365195415   603.3832   2   6   0.0830   0.0451   0.1168  -0.0415   0.0470  -0.0854   0.00    1.0
2080 384732.000   48.055282908    9.365195385   603.3761   2   6   0.0827   0.0450   0.1163  -0.0413   0.0467  -0.0851   0.00    1.0
2080 384733.000   48.055282908    9.365195385   603.3770   2   6   0.0824   0.0447   0.1158  -0.0410   0.0464  -0.0848   0.00    1.0
2080 384734.000   48.055282917    9.365195389   603.3662   2   6   0.0821   0.0445   0.1153  -0.0408   0.0462  -0.0845   0.00    1.0
2080 384735.000   48.055282934    9.365195392   603.3702   2   6   0.0818   0.0444   0.1148  -0.0406   0.0459  -0.0842   0.00    1.0
2080 384736.000   48.055282979    9.365195357   603.3630   2   6   0.0815   0.0442   0.1143  -0.0403   0.0456  -0.0839   0.00    1.0
2080 384737.000   48.055282963    9.365195381   603.3654   2   6   0.0811   0.0440   0.1138  -0.0401   0.0454  -0.0836   0.00    1.0
2080 384738.000   48.055282982    9.365195350   603.3531   2   6   0.0808   0.0438   0.1133  -0.0399   0.0451  -0.0834   0.00    1.0
2080 384739.000   48.055282972    9.365195366   603.3565   2   6   0.0805   0.0436   0.1128  -0.0397   0.0448  -0.0831   0.00    1.0
2080 384740.000   48.055282957    9.365195382   603.3596   2   6   0.0802   0.0434   0.1124  -0.0394   0.0446  -0.0828   0.00    1.0
2080 384741.000   48.055282983    9.365195380   603.3581   2   6   0.0799   0.0432   0.1119  -0.0392   0.0443  -0.0825   0.00    1.0
2080 384742.000   48.055282980    9.365195383   603.3525   2   6   0.0797   0.0430   0.1114  -0.0390   0.0441  -0.0822   0.00    1.0
2080 384743.000   48.055282965    9.365195409   603.3496   2   6   0.0794   0.0428   0.1110  -0.0388   0.0438  -0.0820   0.00    1.0
2080 384744.000   48.055282923    9.365195428   603.3530   2   6   0.0791   0.0426   0.1105  -0.0386   0.0435  -0.0817   0.00    1.0
2080 384745.000   48.055282971    9.365195417   603.3445   2   6   0.0788   0.0425   0.1101  -0.0384   0.0433  -0.0814   0.00    1.0
2080 384746.000   48.055282925    9.365195458   603.3523   2   6   0.0785   0.0423   0.1096  -0.0381   0.0430  -0.0811   0.00    1.0
2080 384747.000   48.055282930    9.365195465   603.3521   2   6   0.0782   0.0421   0.1092  -0.0379   0.0428  -0.0809   0.00    1.0
2080 384748.000   48.055282934    9.365195484   603.3549   2   6   0.0779   0.0419   0.1087  -0.0377   0.0425  -0.0806   0.00    1.0
2080 384749.000   48.055282857    9.365195539   603.3587   2   6   0.0776   0.0418   0.1083  -0.0375   0.0423  -0.0803   0.00    1.0
2080 384750.000   48.055282859    9.365195551   603.3664   2   6   0.0774   0.0416   0.1079  -0.0373   0.0421  -0.0801   0.00    1.0
2080 384751.000   48.055282848    9.365195564   603.3633   2   6   0.0771   0.0414   0.1074  -0.0371   0.0418  -0.0798   0.00    1.0
2080 384752.000   48.055282812    9.365195560   603.3595   2   6   0.0768   0.0412   0.1070  -0.0369   0.0416  -0.0796   0.00    1.0
2080 384753.000   48.055282844    9.365195540   603.3546   2   6   0.0765   0.0410   0.1066  -0.0367   0.0413  -0.0793   0.00    1.0
2080 384754.000   48.055282835    9.365195584   603.3559   2   6   0.0763   0.0409   0.1062  -0.0365   0.0411  -0.0790   0.00    1.0
2080 384755.000   48.055282833    9.365195571   603.3530   2   6   0.0760   0.0407   0.1057  -0.0363   0.0409  -0.0788   0.00    1.0
2080 384756.000   48.055282834    9.365195576   603.3509   2   6   0.0757   0.0405   0.1053  -0.0361   0.0406  -0.0785   0.00    1.0
2080 384757.000   48.055282826    9.365195574   603.3446   2   6   0.0755   0.0404   0.1049  -0.0359   0.0404  -0.0783   0.00    1.0
2080 384758.000   48.055282809    9.365195600   603.3493   2   6   0.0752   0.0402   0.1045  -0.0357   0.0402  -0.0780   0.00    1.0
2080 384759.000   48.055282815    9.365195588   603.3407   2   6   0.0750   0.0400   0.1041  -0.0355   0.0399  -0.0778   0.00    1.0
2080 384760.000   48.055282845    9.365195587   603.3402   2   6   0.0747   0.0399   0.1037  -0.0353   0.0397  -0.0775   0.00    1.0
2080 384761.000   48.055282827    9.365195608   603.3358   2   6   0.0744   0.0397   0.1033  -0.0351   0.0395  -0.0773   0.00    1.0
2080 384762.000   48.055282819    9.365195618   603.3336   2   6   0.0742   0.0396   0.1029  -0.0349   0.0393  -0.0771   0.00    1.0
2080 384763.000   48.055282857    9.365195571   603.3262   2   6   0.0739   0.0394   0.1026  -0.0347   0.0390  -0.0768   0.00    1.0
2080 384764.000   48.055282846    9.365195613   603.3335   2   6   0.0737   0.0392   0.1022  -0.0345   0.0388  -0.0766   0.00    1.0
2080 384765.000   48.055282867    9.365195618   603.3249   2   6   0.0734   0.0391   0.1018  -0.0343   0.0386  -0.0763   0.00    1.0
2080 384766.000   48.055282844    9.365195653   603.3285   2   6   0.0732   0.0389   0.1014  -0.0341   0.0384  -0.0761   0.00    1.0
2080 384767.000   48.055282871    9.365195660   603.3262   2   6   0.0729   0.0388   0.1010  -0.0339   0.0382  -0.0759   0.00    1.0
2080 384768.000   48.055282919    9.365195652   603.3246   2   6   0.0727   0.0386   0.1007  -0.0337   0.0379  -0.0756   0.00    1.0
2080 384769.000   48.055282928    9.365195659   603.3214   2   6   0.0725   0.0384   0.1003  -0.0335   0.0377  -0.0754   0.00    1.0
2080 384770.000   48.055282908    9.365195698   603.3211   2   6   0.0722   0.0383   0.0999  -0.0334   0.0375  -0.0752   0.00    1.0
2080 384771.000   48.055282923    9.365195712   603.3189   2   6   0.0720   0.0382   0.0996  -0.0332   0.0373  -0.0749   0.00    1.0
2080 384772.000   48.055282933    9.365195738   603.3186   2   6   0.0717   0.0380   0.0992  -0.0330   0.0371  -0.0747   0.00    1.0
2080 384773.000   48.055282931    9.365195717   603.3190   2   6   0.0715   0.0378   0.0989  -0.0328   0.0369  -0.0745   0.00    1.0
2080 384774.000   48.055282948    9.365195747   603.3114   2   6   0.0713   0.0377   0.0985  -0.0326   0.0367  -0.0742   0.00    1.0
2080 384775.000   48.055282915    9.365195798   603.3196   2   6   0.0710   0.0376   0.0982  -0.0324   0.0365  -0.0740   0.00    1.0
2080 384776.000   48.055282907    9.365195820   603.3157   2   6   0.0708   0.0374   0.0978  -0.0323   0.0363  -0.0738   0.00    1.0
2080 384777.000   48.055282895    9.365195848   603.3163   2   6   0.0706   0.0373   0.0975  -0.0321   0.0360  -0.0736   0.00    1.0
2080 384778.000   48.055282917    9.365195848   603.3188   2   6   0.0704   0.0371   0.0971  -0.0319   0.0358  -0.0733   0.00    1.0
2080 384779.000   48.055282927    9.365195848   603.3070   2   6   0.0701   0.0370   0.0968  -0.0317   0.0356  -0.0731   0.00    1.0
2080 384780.000   48.055282954    9.365195851   603.3071   2   6   0.0699   0.0368   0.0965  -0.0315   0.0354  -0.0729   0.00    1.0
2080 384781.000   48.055282925    9.365195861   603.3080   2   6   0.0697   0.0367   0.0961  -0.0314   0.0352  -0.0727   0.00    1.0
2080 384782.000   48.055282956    9.365195855   603.3022   2   6   0.0695   0.0366   0.0958  -0.0312   0.0350  -0.0725   0.00    1.0
2080 384783.000   48.055282982    9.365195878   603.2961   2   6   0.0692   0.0364   0.0955  -0.0310   0.0348  -0.0723   0.00    1.0
2080 384784.000   48.055282951    9.365195892   603.2991   2   6   0.0690   0.0363   0.0951  -0.0309   0.0346  -0.0720   0.00    1.0
2080 384785.000   48.055282977    9.365195847   603.2932   2   6   0.0688   0.0361   0.0948  -0.0307   0.0344  -0.0718   0.00    1.0
2080 384786.000   48.055282997    9.365195874   603.2936   2   6   0.0686   0.0360   0.0945  -0.0305   0.0343  -0.0716   0.00    1.0
2080 384787.000   48.055283002    9.365195857   603.2903   2   6   0.0684   0.0358   0.0942  -0.0304   0.0341  -0.0714   0.00    1.0
2080 384788.000   48.055283006    9.365195880   603.2914   2   6   0.0682   0.0357   0.0939  -0.0302   0.0339  -0.0712   0.00    1.0
2080 384789.000   48.055283029    9.365195880   603.2881   2   6   0.0680   0.0356   0.0935  -0.0300   0.0337  -0.0710   0.00    1.0
2080 384790.000   48.055283035    9.365195877   603.2898   2   6   0.0677   0.0355   0.0932  -0.0298   0.0335  -0.0708   0.00    1.0
2080 384791.000   48.055283046    9.365195849   603.2869   2   6   0.0675   0.0353   0.0929  -0.0297   0.0333  -0.0706   0.00    1.0
2080 384792.000   48.055283019    9.365195900   603.2973   2   6   0.0673   0.0352   0.0926  -0.0295   0.0331  -0.0704   0.00    1.0
2080 384793.000   48.055283052    9.365195892   603.2853   2   6   0.0671   0.0351   0.0923  -0.0293   0.0329  -0.0702   0.00    1.0
2080 384794.000   48.055283048    9.365195874   603.2859   2   6   0.0669   0.0349   0.0920  -0.0292   0.0328  -0.0700   0.00    1.0
2080 384795.000   48.055283064    9.365195870   603.2891   2   6   0.0667   0.0348   0.0917  -0.0290   0.0326  -0.0698   0.00    1.0
2080 384796.000   48.055283073    9.365195883   603.2910   2   6   0.0665   0.0347   0.0914  -0.0289   0.0324  -0.0696   0.00    1.0
2080 384797.000   48.055283050    9.365195897   603.2864   2   6   0.0663   0.0345   0.0911  -0.0287   0.0322  -0.0694   0.00    1.0
2080 384798.000   48.055283079    9.365195882   603.2881   2   6   0.0661   0.0344   0.0908  -0.0285   0.0320  -0.0692   0.00    1.0
2080 384799.000   48.055283076    9.365195864   603.2872   2   6   0.0659   0.0343   0.0905  -0.0284   0.0318  -0.0690   0.00    1.0
2080 384800.000   48.055283114    9.365195856   603.2793   2   6   0.0657   0.0342   0.0903  -0.0282   0.0316  -0.0688   0.00    1.0
2080 384801.000   48.055283118    9.365195858   603.2808   2   6   0.0655   0.0340   0.0900  -0.0281   0.0315  -0.0686   0.00    1.0
2080 384802.000   48.055283108    9.365195867   603.2815   2   6   0.0653   0.0339   0.0897  -0.0279   0.0313  -0.0684   0.00    1.0
2080 384803.000   48.055283090    9.365195885   603.2872   2   6   0.0651   0.0338   0.0894  -0.0278   0.0311  -0.0682   0.00    1.0
2080 384804.000   48.055283090    9.365195884   603.2886   2   6   0.0649   0.0337   0.0891  -0.0276   0.0309  -0.0680   0.00    1.0
2080 384805.000   48.055283073    9.365195916   603.2864   2   6   0.0648   0.0336   0.0889  -0.0275   0.0308  -0.0679   0.00    1.0
2080 384806.000   48.055283079    9.365195899   603.2914   2   6   0.0646   0.0334   0.0886  -0.0273   0.0306  -0.0677   0.00    1.0
2080 384807.000   48.055283065    9.365195896   603.2878   2   6   0.0644   0.0333   0.0883  -0.0272   0.0304  -0.0675   0.00    1.0
2080 384808.000   48.055283076    9.365195853   603.2809   2   6   0.0642   0.0332   0.0880  -0.0270   0.0303  -0.0673   0.00    1.0
2080 384809.000   48.055283068    9.365195851   603.2842   2   6   0.0640   0.0331   0.0878  -0.0268   0.0301  -0.0671   0.00    1.0
2080 384810.000   48.055283092    9.365195839   603.2858   2   6   0.0638   0.0330   0.0875  -0.0267   0.0299  -0.0669   0.00    1.0
2080 384811.000   48.055283099    9.365195808   603.2801   2   6   0.0636   0.0328   0.0872  -0.0265   0.0298  -0.0668   0.00    1.0
2080 384812.000   48.055283105    9.365195811   603.2827   2   6   0.0635   0.0327   0.0870  -0.0264   0.0296  -0.0666   0.00    1.0
2080 384813.000   48.055283104    9.365195826   603.2813   2   6   0.0633   0.0326   0.0867  -0.0263   0.0294  -0.0664   0.00    1.0
2080 384814.000   48.055283103    9.365195794   603.2816   2   6   0.0631   0.0325   0.0865  -0.0261   0.0292  -0.0662   0.00    1.0
2080 384815.000   48.055283113    9.365195800   603.2784   2   6   0.0629   0.0324   0.0862  -0.0260   0.0291  -0.0660   0.00    1.0
2080 384816.000   48.055283142    9.365195754   603.2697   2   6   0.0628   0.0323   0.0860  -0.0258   0.0289  -0.0659   0.00    1.0
2080 384817.000   48.055283117    9.365195775   603.2738   2   6   0.0626   0.0322   0.0857  -0.0257   0.0288  -0.0657   0.00    1.0
2080 384818.000   48.055283144    9.365195747   603.2711   2   6   0.0624   0.0320   0.0854  -0.0255   0.0286  -0.0655   0.00    1.0
2080 384819.000   48.055283140    9.365195750   603.2730   2   6   0.0622   0.0320   0.0852  -0.0254   0.0284  -0.0653   0.00    1.0
2080 384820.000   48.055283149    9.365195751   603.2770   2   6   0.0621   0.0318   0.0849  -0.0253   0.0283  -0.0652   0.00    1.0
2080 384821.000   48.055283165    9.365195746   603.2751   2   6   0.0619   0.0317   0.0847  -0.0251   0.0281  -0.0650   0.00    1.0
2080 384822.000   48.055283153    9.365195727   603.2720   2   6   0.0617   0.0316   0.0845  -0.0250   0.0280  -0.0648   0.00    1.0
2080 384823.000   48.055283141    9.365195733   603.2704   2   6   0.0615   0.0315   0.0842  -0.0248   0.0278  -0.0646   0.00    1.0
2080 384824.000   48.055283153    9.365195726   603.2725   2   6   0.0614   0.0314   0.0840  -0.0247   0.0276  -0.0645   0.00    1.0
2080 384825.000   48.055283190    9.365195664   603.2699   2   6   0.0612   0.0313   0.0837  -0.0245   0.0275  -0.0643   0.00    1.0
2080 384826.000   48.055283168    9.365195701   603.2691   2   6   0.0610   0.0312   0.0835  -0.0244   0.0273  -0.0641   0.00    1.0
2080 384827.000   48.055283209    9.365195638   603.2667   2   6   0.0609   0.0311   0.0833  -0.0243   0.0272  -0.0640   0.00    1.0
2080 384828.000   48.055283220    9.365195642   603.2619   2   6   0.0607   0.0310   0.0830  -0.0241   0.0270  -0.0638   0.00    1.0
2080 384829.000   48.055283225    9.365195608   603.2568   2   6   0.0605   0.0309   0.0828  -0.0240   0.0269  -0.0637   0.00    1.0
2080 384830.000   48.055283244    9.365195594   603.2604   2   6   0.0604   0.0308   0.0826  -0.0239   0.0267  -0.0635   0.00    1.0
2080 384831.000   48.055283300    9.365195587   603.2603   2   6   0.0602   0.0307   0.0823  -0.0237   0.0266  -0.0633   0.00    1.0
2080 384832.000   48.055283304    9.365195565   603.2516   2   6   0.0601   0.0306   0.0821  -0.0236   0.0264  -0.0632   0.00    1.0
2080 384833.000   48.055283320    9.365195536   603.2567   2   6   0.0599   0.0305   0.0819  -0.0235   0.0263  -0.0630   0.00    1.0
2080 384834.000   48.055283361    9.365195516   603.2474   2   6   0.0597   0.0304   0.0817  -0.0233   0.0261  -0.0628   0.00    1.0
2080 384835.000   48.055283392    9.365195486   603.2455   2   6   0.0596   0.0303   0.0814  -0.0232   0.0260  -0.0627   0.00    1.0
2080 384836.000   48.055283397    9.365195485   603.2387   2   6   0.0594   0.0302   0.0812  -0.0231   0.0258  -0.0625   0.00    1.0
2080 384837.000   48.055283413    9.365195471   603.2355   2   6   0.0593   0.0301   0.0810  -0.0229   0.0257  -0.0624   0.00    1.0
2080 384838.000   48.055283449    9.365195445   603.2388   2   6   0.0591   0.0300   0.0808  -0.0228   0.0255  -0.0622   0.00    1.0
2080 384839.000   48.055283475    9.365195427   603.2290   2   6   0.0590   0.0299   0.0806  -0.0227   0.0254  -0.0621   0.00    1.0
2080 384840.000   48.055283503    9.365195417   603.2265   2   6   0.0588   0.0298   0.0804  -0.0226   0.0252  -0.0619   0.00    1.0
2080 384841.000   48.055283489    9.365195395   603.2281   2   6   0.0587   0.0297   0.0801  -0.0224   0.0251  -0.0618   0.00    1.0
2080 384842.000   48.055283528    9.365195371   603.2286   2   6   0.0585   0.0296   0.0799  -0.0223   0.0249  -0.0616   0.00    1.0
2080 384843.000   48.055283560    9.365195346   603.2186   2   6   0.0584   0.0295   0.0797  -0.0222   0.0248  -0.0615   0.00    1.0
2080 384844.000   48.055283563    9.365195325   603.2242   2   6   0.0582   0.0294   0.0795  -0.0220   0.0247  -0.0613   0.00    1.0
2080 384845.000   48.055283576    9.365195325   603.2199   2   6   0.0581   0.0293   0.0793  -0.0219   0.0245  -0.0612   0.00    1.0
2080 384846.000   48.055283611    9.365195303   603.2178   2   6   0.0579   0.0292   0.0791  -0.0218   0.0244  -0.0610   0.00    1.0
2080 384847.000   48.055283609    9.365195294   603.2166   2   6   0.0578   0.0291   0.0789  -0.0217   0.0242  -0.0609   0.00    1.0
2080 384848.000   48.055283614    9.365195286   603.2107   2   6   0.0576   0.0290   0.0787  -0.0215   0.0241  -0.0607   0.00    1.0
2080 384849.000   48.055283667    9.365195240   603.2101   2   6   0.0575   0.0289   0.0785  -0.0214   0.0240  -0.0606   0.00    1.0
2080 384850.000   48.055283654    9.365195262   603.2151   2   6   0.0573   0.0288   0.0783  -0.0213   0.0238  -0.0604   0.00    1.0
2080 384851.000   48.055283699    9.365195196   603.2000   2   6   0.0572   0.0288   0.0781  -0.0212   0.0237  -0.0603   0.00    1.0
2080 384852.000   48.055283692    9.365195189   603.2002   2   6   0.0570   0.0287   0.0779  -0.0210   0.0235  -0.0601   0.00    1.0
2080 384853.000   48.055283749    9.365195139   603.1972   2   6   0.0569   0.0286   0.0777  -0.0209   0.0234  -0.0600   0.00    1.0
2080 384854.000   48.055283763    9.365195102   603.1965   2   6   0.0568   0.0285   0.0775  -0.0208   0.0233  -0.0598   0.00    1.0
2080 384855.000   48.055283769    9.365195119   603.1973   2   6   0.0566   0.0284   0.0773  -0.0207   0.0232  -0.0597   0.00    1.1
2080 384856.000   48.055283778    9.365195093   603.1910   2   6   0.0565   0.0283   0.0771  -0.0206   0.0230  -0.0596   0.00    1.1
2080 384857.000   48.055283758    9.365195115   603.2027   2   6   0.0563   0.0282   0.0769  -0.0204   0.0229  -0.0594   0.00    1.1
2080 384858.000   48.055283760    9.365195080   603.1966   2   6   0.0562   0.0281   0.0767  -0.0203   0.0227  -0.0593   0.00    1.1
2080 384859.000   48.055283782    9.365195070   603.1974   2   6   0.0561   0.0280   0.0765  -0.0202   0.0226  -0.0591   0.00    1.1
2080 384860.000   48.055283786    9.365195043   603.1924   2   6   0.0559   0.0280   0.0763  -0.0201   0.0225  -0.0590   0.00    1.1
2080 384861.000   48.055283838    9.365195020   603.1901   2   6   0.0558   0.0279   0.0762  -0.0200   0.0223  -0.0589   0.00    1.1
2080 384862.000   48.055283889    9.365194979   603.1888   2   6   0.0557   0.0278   0.0760  -0.0199   0.0222  -0.0587   0.00    1.1
2080 384863.000   48.055283867    9.365194978   603.1898   2   6   0.0555   0.0277   0.0758  -0.0198   0.0221  -0.0586   0.00    1.1
2080 384864.000   48.055283864    9.365194979   603.1874   2   6   0.0554   0.0276   0.0756  -0.0196   0.0220  -0.0585   0.00    1.1
2080 384865.000   48.055283890    9.365194950   603.1874   2   6   0.0553   0.0275   0.0754  -0.0195   0.0218  -0.0583   0.00    1.1
2080 384866.000   48.055283943    9.365194918   603.1808   2   6   0.0551   0.0275   0.0752  -0.0194   0.0217  -0.0582   0.00    1.1
2080 384867.000   48.055283981    9.365194882   603.1814   2   6   0.0550   0.0274   0.0751  -0.0193   0.0216  -0.0580   0.00    1.1
2080 384868.000   48.055283952    9.365194855   603.1753   2   6   0.0549   0.0273   0.0749  -0.0192   0.0215  -0.0579   0.00    1.1
2080 384869.000   48.055284032    9.365194824   603.1726   2   6   0.0547   0.0272   0.0747  -0.0191   0.0213  -0.0578   0.00    1.1
2080 384870.000   48.055284033    9.365194810   603.1660   2   6   0.0546   0.0271   0.0745  -0.0190   0.0212  -0.0577   0.00    1.1
2080 384871.000   48.055284051    9.365194780   603.1653   2   6   0.0545   0.0271   0.0743  -0.0188   0.0211  -0.0575   0.00    1.1
2080 384872.000   48.055284106    9.365194765   603.1618   2   6   0.0544   0.0270   0.0742  -0.0187   0.0209  -0.0574   0.00    1.1
2080 384873.000   48.055284123    9.365194730   603.1563   2   6   0.0542   0.0269   0.0740  -0.0186   0.0208  -0.0573   0.00    1.1
2080 384874.000   48.055284151    9.365194730   603.1564   2   6   0.0541   0.0268   0.0738  -0.0185   0.0207  -0.0571   0.00    1.1
2080 384875.000   48.055284170    9.365194676   603.1541   2   6   0.0540   0.0267   0.0737  -0.0184   0.0206  -0.0570   0.00    1.1
2080 384876.000   48.055284163    9.365194667   603.1451   2   6   0.0539   0.0267   0.0735  -0.0183   0.0204  -0.0569   0.00    1.1
2080 384877.000   48.055284222    9.365194621   603.1419   2   6   0.0537   0.0266   0.0733  -0.0182   0.0203  -0.0567   0.00    1.1
2080 384878.000   48.055284219    9.365194624   603.1475   2   6   0.0536   0.0265   0.0732  -0.0180   0.0202  -0.0566   0.00    1.1
2080 384879.000   48.055284243    9.365194595   603.1418   2   6   0.0535   0.0264   0.0730  -0.0179   0.0201  -0.0565   0.00    1.1
2080 384880.000   48.055284247    9.365194586   603.1381   2   6   0.0534   0.0263   0.0728  -0.0178   0.0200  -0.0564   0.00    1.1
2080 384881.000   48.055284312    9.365194518   603.1282   2   6   0.0532   0.0263   0.0727  -0.0177   0.0199  -0.0562   0.00    1.1
2080 384882.000   48.055284345    9.365194521   603.1267   2   6   0.0531   0.0262   0.0725  -0.0176   0.0197  -0.0561   0.00    1.1
2080 384883.000   48.055284331    9.365194491   603.1188   2   6   0.0530   0.0261   0.0723  -0.0175   0.0196  -0.0560   0.00    1.1
2080 384884.000   48.055284392    9.365194439   603.1116   2   6   0.0529   0.0261   0.0722  -0.0174   0.0195  -0.0559   0.00    1.2
2080 384885.000   48.055284430    9.365194398   603.1041   2   6   0.0528   0.0260   0.0720  -0.0173   0.0194  -0.0558   0.00    1.2
2080 384886.000   48.055284461    9.365194385   603.1029   2   6   0.0526   0.0259   0.0718  -0.0172   0.0193  -0.0556   0.00    1.2
2080 384887.000   48.055284489    9.365194354   603.0965   2   6   0.0525   0.0258   0.0717  -0.0171   0.0192  -0.0555   0.00    1.2
2080 384888.000   48.055284520    9.365194332   603.0986   2   6   0.0524   0.0258   0.0715  -0.0170   0.0190  -0.0554   0.00    1.2
2080 384889.000   48.055284543    9.365194326   603.0998   2   6   0.0523   0.0257   0.0714  -0.0169   0.0189  -0.0553   0.00    1.2
2080 384890.000   48.055284567    9.365194299   603.0902   2   6   0.0522   0.0256   0.0712  -0.0168   0.0188  -0.0552   0.00    1.2
2080 384891.000   48.055284604    9.365194255   603.0827   2   6   0.0521   0.0255   0.0711  -0.0167   0.0187  -0.0550   0.00    1.2
2080 384892.000   48.055284600    9.365194276   603.0826   2   6   0.0520   0.0255   0.0709  -0.0166   0.0186  -0.0549   0.00    1.2
2080 384893.000   48.055284686    9.365194246   603.0786   2   6   0.0518   0.0254   0.0708  -0.0165   0.0185  -0.0548   0.00    1.2
2080 384894.000   48.055284689    9.365194219   603.0786   2   6   0.0517   0.0253   0.0706  -0.0164   0.0183  -0.0547   0.00    1.2
2080 384895.000   48.055284740    9.365194173   603.0674   2   6   0.0516   0.0253   0.0705  -0.0163   0.0182  -0.0546   0.00    1.2
2080 384896.000   48.055284784    9.365194146   603.0631   2   6   0.0515   0.0252   0.0703  -0.0162   0.0181  -0.0545   0.00    1.2
2080 384897.000   48.055284792    9.365194140   603.0603   2   6   0.0514   0.0251   0.0702  -0.0161   0.0180  -0.0543   0.00    1.2
2080 384898.000   48.055284806    9.365194130   603.0602   2   6   0.0513   0.0251   0.0700  -0.0159   0.0179  -0.0542   0.00    1.2
2080 384899.000   48.055284812    9.365194112   603.0593   2   6   0.0512   0.0250   0.0699  -0.0159   0.0178  -0.0541   0.00    1.2
2080 384900.000   48.055284845    9.365194091   603.0551   2   6   0.0511   0.0249   0.0697  -0.0158   0.0177  -0.0540   0.00    1.2
2080 384901.000   48.055284871    9.365194067   603.0502   2   6   0.0510   0.0249   0.0696  -0.0157   0.0176  -0.0539   0.00    1.2
2080 384902.000   48.055284933    9.365194013   603.0446   2   6   0.0508   0.0248   0.0694  -0.0156   0.0175  -0.0538   0.00    1.3
2080 384903.000   48.055284913    9.365194043   603.0510   2   6   0.0507   0.0247   0.0693  -0.0154   0.0173  -0.0537   0.00    1.3
2080 384904.000   48.055284937    9.365193995   603.0401   2   6   0.0506   0.0247   0.0691  -0.0154   0.0172  -0.0536   0.00    1.3
2080 384905.000   48.055284964    9.365193975   603.0403   2   6   0.0505   0.0246   0.0690  -0.0153   0.0171  -0.0535   0.00    1.3
2080 384906.000   48.055284996    9.365193960   603.0404   2   6   0.0504   0.0245   0.0689  -0.0152   0.0170  -0.0533   0.00    1.3
2080 384907.000   48.055285018    9.365193919   603.0364   2   6   0.0503   0.0245   0.0687  -0.0151   0.0169  -0.0532   0.00    1.3
2080 384908.000   48.055285065    9.365193892   603.0313   2   6   0.0502   0.0244   0.0686  -0.0150   0.0168  -0.0531   0.00    1.3
2080 384909.000   48.055285084    9.365193872   603.0275   2   6   0.0501   0.0243   0.0684  -0.0149   0.0167  -0.0530   0.00    1.3
2080 384910.000   48.055285127    9.365193823   603.0212   2   6   0.0500   0.0243   0.0683  -0.0147   0.0166  -0.0529   0.00    1.3
2080 384911.000   48.055285138    9.365193815   603.0213   2   6   0.0499   0.0242   0.0682  -0.0146   0.0165  -0.0528   0.00    1.3
2080 384912.000   48.055285141    9.365193816   603.0205   2   6   0.0498   0.0241   0.0680  -0.0146   0.0164  -0.0527   0.00    1.3
2080 384913.000   48.055285206    9.365193770   603.0157   2   6   0.0497   0.0241   0.0679  -0.0145   0.0163  -0.0526   0.00    1.3
2080 384914.000   48.055285247    9.365193711   603.0058   2   6   0.0496   0.0240   0.0678  -0.0144   0.0162  -0.0525   0.00    1.3
2080 384915.000   48.055285253    9.365193697   603.0033   2   6   0.0495   0.0240   0.0676  -0.0143   0.0161  -0.0524   0.00    1.3
2080 384916.000   48.055285302    9.365193665   603.0011   2   6   0.0494   0.0239   0.0675  -0.0142   0.0160  -0.0523   0.00    1.3
2080 384917.000   48.055285294    9.365193647   603.0029   2   6   0.0493   0.0238   0.0674  -0.0141   0.0159  -0.0522   0.00    1.3
2080 384918.000   48.055285329    9.365193601   602.9945   2   6   0.0492   0.0238   0.0672  -0.0140   0.0157  -0.0521   0.00    1.3
2080 384919.000   48.055285338    9.365193603   602.9926   2   6   0.0491   0.0237   0.0671  -0.0139   0.0157  -0.0520   0.00    1.3
2080 384920.000   48.055285406    9.365193527   602.9823   2   6   0.0490   0.0237   0.0670  -0.0138   0.0155  -0.0519   0.00    1.3
2080 384921.000   48.055285426    9.365193542   602.9863   2   6   0.0489   0.0236   0.0668  -0.0137   0.0155  -0.0518   0.00    1.3
2080 384922.000   48.055285460    9.365193493   602.9777   2   6   0.0488   0.0235   0.0667  -0.0136   0.0153  -0.0517   0.00    1.3
2080 384923.000   48.055285478    9.365193453   602.9715   2   6   0.0487   0.0235   0.0666  -0.0135   0.0152  -0.0516   0.00    1.3
2080 384924.000   48.055285496    9.365193439   602.9673   2   6   0.0486   0.0234   0.0664  -0.0134   0.0151  -0.0515   0.00    1.3
2080 384925.000   48.055285528    9.365193399   602.9634   2   6   0.0485   0.0234   0.0663  -0.0133   0.0150  -0.0514   0.00    1.3
2080 384926.000   48.055285538    9.365193367   602.9628   2   6   0.0484   0.0233   0.0662  -0.0133   0.0149  -0.0513   0.00    1.3
2080 384927.000   48.055285528    9.365193386   602.9591   2   6   0.0483   0.0233   0.0661  -0.0131   0.0148  -0.0512   0.00    1.3
2080 384928.000   48.055285600    9.365193321   602.9588   2   6   0.0482   0.0232   0.0659  -0.0131   0.0147  -0.0511   0.00    1.3
2080 384929.000   48.055285609    9.365193300   602.9531   2   6   0.0481   0.0231   0.0658  -0.0130   0.0146  -0.0510   0.00    1.3
2080 384930.000   48.055285630    9.365193291   602.9531   2   6   0.0480   0.0231   0.0657  -0.0129   0.0145  -0.0509   0.00    1.3
2080 384931.000   48.055285657    9.365193248   602.9488   2   6   0.0479   0.0230   0.0656  -0.0128   0.0144  -0.0508   0.00    1.3
2080 384932.000   48.055285664    9.365193238   602.9439   2   6   0.0478   0.0230   0.0655  -0.0127   0.0143  -0.0507   0.00    1.2
2080 384933.000   48.055285709    9.365193213   602.9408   2   6   0.0477   0.0229   0.0653  -0.0126   0.0142  -0.0506   0.00    1.2
2080 384934.000   48.055285740    9.365193176   602.9298   2   6   0.0476   0.0229   0.0652  -0.0125   0.0141  -0.0505   0.00    1.2
2080 384935.000   48.055285765    9.365193155   602.9371   2   6   0.0476   0.0228   0.0651  -0.0124   0.0140  -0.0504   0.00    1.2
2080 384936.000   48.055285780    9.365193140   602.9359   2   6   0.0475   0.0227   0.0650  -0.0123   0.0139  -0.0503   0.00    1.2
2080 384937.000   48.055285783    9.365193153   602.9389   2   6   0.0474   0.0227   0.0649  -0.0122   0.0138  -0.0502   0.00    1.2
2080 384938.000   48.055285812    9.365193120   602.9337   2   6   0.0473   0.0227   0.0647  -0.0121   0.0137  -0.0501   0.00    1.2
2080 384939.000   48.055285826    9.365193106   602.9273   2   6   0.0472   0.0225   0.0646  -0.0121   0.0137  -0.0500   0.00    1.2
2080 384940.000   48.055285839    9.365193087   602.9310   2   6   0.0471   0.0225   0.0645  -0.0120   0.0136  -0.0499   0.00    1.2
2080 384941.000   48.055285886    9.365193051   602.9212   2   6   0.0470   0.0224   0.0644  -0.0119   0.0135  -0.0498   0.00    1.2
2080 384942.000   48.055285899    9.365193038   602.9211   2   6   0.0469   0.0224   0.0643  -0.0118   0.0134  -0.0497   0.00    1.2
2080 384943.000   48.055285917    9.365193028   602.9227   2   6   0.0468   0.0224   0.0642  -0.0117   0.0132  -0.0496   0.00    1.2
2080 384944.000   48.055285928    9.365193021   602.9114   2   6   0.0468   0.0223   0.0640  -0.0116   0.0132  -0.0496   0.00    1.2
2080 384945.000   48.055285958    9.365193021   602.9171   2   6   0.0467   0.0223   0.0639  -0.0115   0.0131  -0.0495   0.00    1.2
2080 384946.000   48.055285966    9.365193015   602.9098   2   6   0.0466   0.0222   0.0638  -0.0114   0.0130  -0.0494   0.00    1.2
2080 384947.000   48.055285981    9.365192989   602.9096   2   6   0.0465   0.0221   0.0637  -0.0114   0.0129  -0.0493   0.00    1.2
2080 384948.000   48.055286011    9.365192976   602.9101   2   6   0.0464   0.0221   0.0636  -0.0112   0.0128  -0.0492   0.00    1.2
2080 384949.000   48.055286015    9.365192960   602.9043   2   6   0.0463   0.0221   0.0635  -0.0112   0.0127  -0.0491   0.00    1.2
2080 384950.000   48.055286040    9.365192942   602.9073   2   6   0.0462   0.0220   0.0634  -0.0111   0.0126  -0.0490   0.00    1.2
2080 384951.000   48.055286038    9.365192940   602.8976   2   6   0.0461   0.0220   0.0633  -0.0110   0.0125  -0.0489   0.00    1.2
2080 384952.000   48.055286070    9.365192897   602.8939   2   6   0.0461   0.0219   0.0632  -0.0109   0.0124  -0.0488   0.00    1.2
2080 384953.000   48.055286108    9.365192855   602.8866   2   6   0.0460   0.0219   0.0630  -0.0108   0.0123  -0.0488   0.00    1.2
2080 384954.000   48.055286131    9.365192850   602.8855   2   6   0.0459   0.0218   0.0629  -0.0107   0.0122  -0.0487   0.00    1.1
2080 384955.000   48.055286146    9.365192833   602.8828   2   6   0.0458   0.0217   0.0628  -0.0106   0.0121  -0.0486   0.00    1.1
2080 384956.000   48.055286185    9.365192812   602.8776   2   6   0.0457   0.0217   0.0627  -0.0105   0.0120  -0.0485   0.00    1.1
2080 384957.000   48.055286199    9.365192801   602.8705   2   6   0.0456   0.0217   0.0626  -0.0104   0.0119  -0.0484   0.00    1.1
2080 384958.000   48.055286211    9.365192788   602.8701   2   6   0.0456   0.0216   0.0625  -0.0103   0.0118  -0.0483   0.00    1.1
2080 384959.000   48.055286220    9.365192762   602.8717   2   6   0.0455   0.0216   0.0624  -0.0103   0.0118  -0.0482   0.00    1.1
2080 384960.000   48.055286273    9.365192723   602.8630   2   6   0.0454   0.0215   0.0623  -0.0102   0.0117  -0.0481   0.00    1.1
2080 384961.000   48.055286276    9.365192705   602.8611   2   6   0.0453   0.0214   0.0622  -0.0101   0.0116  -0.0481   0.00    1.1
2080 384962.000   48.055286327    9.365192658   602.8486   2   6   0.0452   0.0214   0.0621  -0.0100   0.0115  -0.0480   0.00    1.1
2080 384963.000   48.055286296    9.365192660   602.8535   2   6   0.0452   0.0214   0.0620  -0.0099   0.0114  -0.0479   0.00    1.1
2080 384964.000   48.055286361    9.365192622   602.8421   2   6   0.0451   0.0213   0.0619  -0.0098   0.0113  -0.0478   0.00    1.1
2080 384965.000   48.055286377    9.365192590   602.8407   2   6   0.0450   0.0213   0.0618  -0.0098   0.0112  -0.0477   0.00    1.1
2080 384966.000   48.055286329    9.365192606   602.8398   2   6   0.0449   0.0212   0.0617  -0.0097   0.0111  -0.0476   0.00    1.1
2080 384967.000   48.055286393    9.365192557   602.8362   2   6   0.0448   0.0212   0.0616  -0.0095   0.0110  -0.0476   0.00    1.1
2080 384968.000   48.055286390    9.365192555   602.8355   2   6   0.0448   0.0212   0.0615  -0.0095   0.0109  -0.0475   0.00    1.1
2080 384969.000   48.055286410    9.365192558   602.8357   2   6   0.0447   0.0211   0.0614  -0.0094   0.0109  -0.0474   0.00    1.1
2080 384970.000   48.055286435    9.365192527   602.8326   2   6   0.0446   0.0210   0.0613  -0.0093   0.0107  -0.0473   0.00    1.1
2080 384971.000   48.055286428    9.365192492   602.8240   2   6   0.0445   0.0210   0.0612  -0.0092   0.0107  -0.0472   0.00    1.1
2080 384972.000   48.055286481    9.365192464   602.8236   2   6   0.0444   0.0209   0.0611  -0.0092   0.0106  -0.0472   0.00    1.1
2080 384973.000   48.055286477    9.365192459   602.8208   2   6   0.0444   0.0209   0.0610  -0.0091   0.0105  -0.0471   0.00    1.1
2080 384974.000   48.055286486    9.365192432   602.8216   2   6   0.0443   0.0209   0.0609  -0.0090   0.0104  -0.0470   0.00    1.0
2080 384975.000   48.055286520    9.365192398   602.8158   2   6   0.0442   0.0208   0.0608  -0.0089   0.0103  -0.0469   0.00    1.0
2080 384976.000   48.055286555    9.365192365   602.8123   2   6   0.0441   0.0208   0.0607  -0.0088   0.0102  -0.0468   0.00    1.0
2080 384977.000   48.055286556    9.365192370   602.8129   2   6   0.0441   0.0207   0.0606  -0.0087   0.0101  -0.0468   0.00    1.0
2080 384978.000   48.055286575    9.365192340   602.8113   2   6   0.0440   0.0207   0.0605  -0.0086   0.0100  -0.0467   0.00    1.0
2080 384979.000   48.055286592    9.365192322   602.8063   2   6   0.0439   0.0206   0.0604  -0.0085   0.0099  -0.0466   0.00    1.0
2080 384980.000   48.055286602    9.365192311   602.8036   2   6   0.0438   0.0206   0.0603  -0.0084   0.0098  -0.0465   0.00    1.0
2080 384981.000   48.055286605    9.365192290   602.8028   2   6   0.0438   0.0205   0.0602  -0.0083   0.0097  -0.0464   0.00    1.0
