% program   : RTKPOST ver.2.4.3 b33
% inp file  : E:\Study\master\semester 3\Satellite Navigation\lab6\data_sets\110902_092045.obs
% inp file  : E:\Study\master\semester 3\Satellite Navigation\lab6\data_sets\INSA245gA.OBS
% inp file  : E:\Study\master\semester 3\Satellite Navigation\lab6\data_sets\INSA245gA.NAV
% obs start : 2011/09/02 09:21:01.0 GPST (week1651 465661.0s)
% obs end   : 2011/09/02 10:27:55.5 GPST (week1651 469675.5s)
% pos mode  : kinematic
% freqs     : L1+L2
% solution  : combined
% elev mask : 5.0 deg
% dynamics  : off
% tidecorr  : off
% ionos opt : broadcast
% tropo opt : saastamoinen
% ephemeris : broadcast
% amb res   : continuous
% val thres : 3.0
% antenna1  :                       ( 0.0000  0.0000  0.0000)
% antenna2  :                       ( 0.0000  0.0000  0.0000)
% ref pos   : 48.780701079    9.171590331   326.7235
%
% (lat/lon/height=WGS84/ellipsoidal,Q=1:fix,2:float,3:sbas,4:dgps,5:single,6:ppp,ns=# of satellites)
%  GPST          latitude(deg) longitude(deg)  height(m)   Q  ns   sdn(m)   sde(m)   sdu(m)  sdne(m)  sdeu(m)  sdun(m) age(s)  ratio
1651 465661.000   48.780889232    8.917922130   493.1363   2   9   0.0084   0.0080   0.0110  -0.0024  -0.0030   0.0029   0.00    1.2
1651 465661.500   48.780889212    8.917922140   493.1368   2   9   0.0084   0.0077   0.0110  -0.0026  -0.0030   0.0029   0.50    1.2
1651 465662.000   48.780889202    8.917922170   493.1344   2  10   0.0083   0.0079   0.0109  -0.0025  -0.0025   0.0025   0.00    1.1
1651 465662.500   48.780889187    8.917922128   493.1332   2  10   0.0084   0.0079   0.0109  -0.0027  -0.0027   0.0025   0.50    1.2
1651 465663.000   48.780889201    8.917922139   493.1338   2  10   0.0083   0.0079   0.0108  -0.0025  -0.0022   0.0022   0.00    1.1
1651 465663.500   48.780889185    8.917922138   493.1351   2  10   0.0083   0.0080   0.0108  -0.0027  -0.0021   0.0021   0.50    1.2
1651 465664.000   48.780889181    8.917922141   493.1333   2  10   0.0084   0.0079   0.0107  -0.0025  -0.0025   0.0020   0.00    1.2
1651 465664.500   48.780889211    8.917922125   493.1364   2  10   0.0083   0.0079   0.0107  -0.0023  -0.0025   0.0022   0.50    1.3
1651 465665.000   48.780889211    8.917922131   493.1355   2  10   0.0083   0.0079   0.0108  -0.0025  -0.0025   0.0021   0.00    1.3
1651 465665.500   48.780889206    8.917922135   493.1335   2  10   0.0084   0.0079   0.0108  -0.0027  -0.0023   0.0020   0.50    1.3
1651 465666.000   48.780889200    8.917922148   493.1318   2  10   0.0083   0.0078   0.0107  -0.0021  -0.0027   0.0024   0.00    1.3
1651 465666.500   48.780889214    8.917922145   493.1300   2  10   0.0083   0.0080   0.0108  -0.0024  -0.0022   0.0020   0.50    1.3
1651 465667.000   48.780889213    8.917922132   493.1302   2  10   0.0083   0.0078   0.0107  -0.0024  -0.0026   0.0021   0.00    1.3
1651 465667.500   48.780889198    8.917922147   493.1327   2  10   0.0083   0.0080   0.0108  -0.0027  -0.0021   0.0021   0.50    1.3
1651 465668.000   48.780889217    8.917922170   493.1350   2  10   0.0083   0.0080   0.0107  -0.0024  -0.0022   0.0021   0.00    1.4
1651 465668.500   48.780889181    8.917922175   493.1274   2  10   0.0083   0.0079   0.0108  -0.0025  -0.0025   0.0021   0.50    1.4
1651 465669.000   48.780889154    8.917922177   493.1260   2  10   0.0083   0.0078   0.0107  -0.0023  -0.0026   0.0022   0.00    1.4
1651 465669.500   48.780889173    8.917922191   493.1301   2  10   0.0084   0.0080   0.0108  -0.0027  -0.0024   0.0019   0.50    1.4
1651 465670.000   48.780889182    8.917922184   493.1328   2  10   0.0083   0.0080   0.0108  -0.0024  -0.0022   0.0021   0.00    1.4
1651 465670.500   48.780889194    8.917922171   493.1239   2  10   0.0083   0.0078   0.0108  -0.0025  -0.0025   0.0020   0.50    1.4
1651 465671.000   48.780889206    8.917922196   493.1253   2  10   0.0083   0.0080   0.0107  -0.0024  -0.0023   0.0021   0.00    1.4
1651 465671.500   48.780889170    8.917922191   493.1274   2  10   0.0083   0.0079   0.0108  -0.0025  -0.0023   0.0021   0.50    1.4
1651 465672.000   48.780889173    8.917922219   493.1291   2  10   0.0083   0.0079   0.0107  -0.0025  -0.0022   0.0022   0.00    1.4
1651 465672.500   48.780889161    8.917922202   493.1250   2  10   0.0083   0.0080   0.0108  -0.0027  -0.0023   0.0022   0.50    1.3
1651 465673.000   48.780889151    8.917922201   493.1274   2  10   0.0083   0.0080   0.0108  -0.0026  -0.0021   0.0021   0.00    1.3
1651 465673.500   48.780889188    8.917922191   493.1294   2  10   0.0084   0.0079   0.0108  -0.0025  -0.0024   0.0021   0.50    1.3
1651 465674.000   48.780889175    8.917922185   493.1283   2  10   0.0083   0.0078   0.0108  -0.0025  -0.0026   0.0020   0.00    1.3
1651 465674.500   48.780889217    8.917922178   493.1312   2  10   0.0083   0.0078   0.0108  -0.0024  -0.0025   0.0021   0.50    1.3
1651 465675.000   48.780889179    8.917922214   493.1292   2  10   0.0083   0.0078   0.0107  -0.0024  -0.0025   0.0021   0.00    1.3
1651 465675.500   48.780889167    8.917922194   493.1274   2  10   0.0083   0.0077   0.0108  -0.0024  -0.0024   0.0020   0.50    1.3
1651 465676.000   48.780889164    8.917922189   493.1261   2  10   0.0083   0.0079   0.0107  -0.0025  -0.0021   0.0022   0.00    1.3
1651 465676.500   48.780889181    8.917922177   493.1292   2  10   0.0083   0.0081   0.0108  -0.0027  -0.0021   0.0021   0.50    1.3
1651 465677.000   48.780889178    8.917922197   493.1298   2  10   0.0083   0.0079   0.0108  -0.0025  -0.0023   0.0021   0.00    1.3
1651 465677.500   48.780889163    8.917922203   493.1290   2  10   0.0083   0.0079   0.0108  -0.0027  -0.0025   0.0020   0.50    1.3
1651 465678.000   48.780889172    8.917922226   493.1276   2  10   0.0083   0.0078   0.0107  -0.0027  -0.0024   0.0021   0.00    1.3
1651 465678.500   48.780889195    8.917922209   493.1222   2  10   0.0083   0.0080   0.0108  -0.0025  -0.0020   0.0021   0.50    1.3
1651 465679.000   48.780889211    8.917922220   493.1222   2  10   0.0083   0.0078   0.0107  -0.0024  -0.0025   0.0022   0.00    1.3
1651 465679.500   48.780889176    8.917922207   493.1292   2  10   0.0083   0.0080   0.0108  -0.0026  -0.0021   0.0020   0.50    1.3
1651 465680.000   48.780889175    8.917922202   493.1319   2  10   0.0083   0.0079   0.0107  -0.0025  -0.0023   0.0021   0.00    1.3
1651 465680.500   48.780889184    8.917922195   493.1271   2  10   0.0083   0.0082   0.0108  -0.0026  -0.0020   0.0021   0.50    1.3
1651 465681.000   48.780889180    8.917922202   493.1279   2  10   0.0083   0.0079   0.0108  -0.0023  -0.0023   0.0020   0.00    1.3
1651 465681.500   48.780889190    8.917922222   493.1281   2  10   0.0084   0.0078   0.0108  -0.0025  -0.0024   0.0020   0.50    1.3
1651 465682.000   48.780889215    8.917922215   493.1270   2  10   0.0083   0.0078   0.0107  -0.0023  -0.0023   0.0021   0.00    1.3
1651 465682.500   48.780889199    8.917922221   493.1241   2  10   0.0084   0.0078   0.0107  -0.0022  -0.0026   0.0022   0.50    1.3
1651 465683.000   48.780889210    8.917922236   493.1265   2  10   0.0083   0.0077   0.0108  -0.0024  -0.0025   0.0021   0.00    1.3
1651 465683.500   48.780889182    8.917922237   493.1265   2  10   0.0083   0.0079   0.0108  -0.0025  -0.0023   0.0021   0.50    1.3
1651 465684.000   48.780889195    8.917922246   493.1300   2  10   0.0083   0.0079   0.0107  -0.0024  -0.0024   0.0022   0.00    1.3
1651 465684.500   48.780889196    8.917922251   493.1219   2  10   0.0083   0.0080   0.0108  -0.0023  -0.0023   0.0021   0.50    1.3
1651 465685.000   48.780889186    8.917922256   493.1247   2  10   0.0083   0.0079   0.0108  -0.0026  -0.0023   0.0021   0.00    1.3
1651 465685.500   48.780889196    8.917922263   493.1242   2  10   0.0084   0.0080   0.0108  -0.0026  -0.0021   0.0020   0.50    1.3
1651 465686.000   48.780889189    8.917922255   493.1278   2  10   0.0083   0.0078   0.0107  -0.0022  -0.0024   0.0022   0.00    1.3
1651 465686.500   48.780889180    8.917922227   493.1294   2  10   0.0083   0.0078   0.0108  -0.0026  -0.0022   0.0021   0.50    1.3
1651 465687.000   48.780889180    8.917922233   493.1296   2  10   0.0082   0.0079   0.0108  -0.0023  -0.0024   0.0021   0.00    1.3
1651 465687.500   48.780889167    8.917922268   493.1227   2  10   0.0084   0.0079   0.0107  -0.0024  -0.0025   0.0021   0.50    1.3
1651 465688.000   48.780889154    8.917922260   493.1211   2  10   0.0083   0.0079   0.0107  -0.0024  -0.0024   0.0021   0.00    1.3
1651 465688.500   48.780889203    8.917922257   493.1209   2  10   0.0083   0.0077   0.0107  -0.0022  -0.0026   0.0021   0.50    1.3
1651 465689.000   48.780889206    8.917922257   493.1209   2  10   0.0083   0.0078   0.0107  -0.0022  -0.0024   0.0022   0.00    1.3
1651 465689.500   48.780889204    8.917922269   493.1219   2  10   0.0084   0.0078   0.0107  -0.0022  -0.0026   0.0021   0.50    1.3
1651 465690.000   48.780889201    8.917922253   493.1222   2  10   0.0083   0.0078   0.0108  -0.0026  -0.0022   0.0020   0.00    1.3
1651 465690.500   48.780889196    8.917922286   493.1236   2  10   0.0083   0.0080   0.0108  -0.0027  -0.0021   0.0020   0.50    1.3
1651 465691.000   48.780889213    8.917922272   493.1258   2  10   0.0083   0.0079   0.0107  -0.0026  -0.0022   0.0020   0.00    1.3
1651 465691.500   48.780889231    8.917922263   493.1254   2  10   0.0083   0.0080   0.0108  -0.0023  -0.0022   0.0021   0.50    1.3
1651 465692.000   48.780889218    8.917922251   493.1236   2  10   0.0083   0.0080   0.0108  -0.0027  -0.0021   0.0020   0.00    1.3
1651 465692.500   48.780889210    8.917922266   493.1259   2  10   0.0083   0.0079   0.0107  -0.0024  -0.0022   0.0021   0.50    1.3
1651 465693.000   48.780889198    8.917922287   493.1253   2  10   0.0083   0.0079   0.0107  -0.0023  -0.0024   0.0021   0.00    1.3
1651 465693.500   48.780889214    8.917922282   493.1205   2  10   0.0083   0.0077   0.0107  -0.0023  -0.0026   0.0021   0.50    1.3
1651 465694.000   48.780889211    8.917922279   493.1218   2  10   0.0083   0.0079   0.0107  -0.0024  -0.0024   0.0020   0.00    1.3
1651 465694.500   48.780889182    8.917922271   493.1268   2  10   0.0084   0.0079   0.0108  -0.0025  -0.0022   0.0020   0.50    1.3
1651 465695.000   48.780889175    8.917922291   493.1254   2  10   0.0083   0.0078   0.0107  -0.0021  -0.0025   0.0022   0.00    1.3
1651 465695.500   48.780889177    8.917922248   493.1204   2  10   0.0083   0.0078   0.0108  -0.0023  -0.0025   0.0020   0.50    1.3
1651 465696.000   48.780889184    8.917922264   493.1224   2  10   0.0083   0.0078   0.0107  -0.0021  -0.0024   0.0022   0.00    1.3
1651 465696.500   48.780889191    8.917922274   493.1252   2  10   0.0083   0.0079   0.0107  -0.0024  -0.0023   0.0020   0.50    1.3
1651 465697.000   48.780889202    8.917922264   493.1262   2  10   0.0083   0.0078   0.0107  -0.0026  -0.0025   0.0021   0.00    1.3
1651 465697.500   48.780889204    8.917922283   493.1212   2  10   0.0084   0.0079   0.0108  -0.0026  -0.0020   0.0021   0.50    1.3
1651 465698.000   48.780889202    8.917922309   493.1231   2  10   0.0083   0.0078   0.0107  -0.0022  -0.0024   0.0022   0.00    1.3
1651 465698.500   48.780889197    8.917922273   493.1194   2  10   0.0083   0.0079   0.0108  -0.0024  -0.0022   0.0020   0.50    1.3
1651 465699.000   48.780889202    8.917922278   493.1225   2  10   0.0083   0.0078   0.0107  -0.0024  -0.0025   0.0022   0.00    1.3
1651 465699.500   48.780889208    8.917922258   493.1190   2  10   0.0083   0.0079   0.0107  -0.0024  -0.0023   0.0022   0.50    1.3
1651 465700.000   48.780889209    8.917922280   493.1190   2  10   0.0083   0.0078   0.0107  -0.0025  -0.0024   0.0021   0.00    1.3
1651 465700.500   48.780889177    8.917922272   493.1171   2  10   0.0084   0.0076   0.0107  -0.0022  -0.0026   0.0021   0.50    1.3
1651 465701.000   48.780889174    8.917922290   493.1193   2  10   0.0083   0.0078   0.0107  -0.0026  -0.0024   0.0021   0.00    1.3
1651 465701.500   48.780889200    8.917922263   493.1182   2  10   0.0083   0.0078   0.0107  -0.0021  -0.0025   0.0023   0.50    1.2
1651 465702.000   48.780889202    8.917922278   493.1186   2  10   0.0083   0.0080   0.0108  -0.0023  -0.0020   0.0021   0.00    1.2
1651 465702.500   48.780889200    8.917922277   493.1249   2  10   0.0083   0.0078   0.0107  -0.0024  -0.0025   0.0021   0.50    1.2
1651 465703.000   48.780889199    8.917922278   493.1251   2  10   0.0083   0.0079   0.0107  -0.0024  -0.0023   0.0021   0.00    1.2
1651 465703.500   48.780889202    8.917922308   493.1223   2  10   0.0083   0.0079   0.0108  -0.0022  -0.0022   0.0021   0.50    1.2
1651 465704.000   48.780889190    8.917922317   493.1234   2  10   0.0083   0.0078   0.0107  -0.0020  -0.0025   0.0022   0.00    1.2
1651 465704.500   48.780889196    8.917922270   493.1206   2  10   0.0083   0.0080   0.0108  -0.0024  -0.0023   0.0021   0.50    1.2
1651 465705.000   48.780889181    8.917922266   493.1204   2  10   0.0083   0.0078   0.0107  -0.0024  -0.0024   0.0020   0.00    1.2
1651 465705.500   48.780889206    8.917922308   493.1181   2  10   0.0083   0.0080   0.0108  -0.0027  -0.0023   0.0020   0.50    1.2
1651 465706.000   48.780889206    8.917922324   493.1205   2  10   0.0083   0.0079   0.0107  -0.0023  -0.0023   0.0021   0.00    1.2
1651 465706.500   48.780889231    8.917922290   493.1213   2  10   0.0083   0.0078   0.0107  -0.0024  -0.0023   0.0022   0.50    1.2
1651 465707.000   48.780889203    8.917922297   493.1212   2  10   0.0083   0.0078   0.0107  -0.0025  -0.0023   0.0020   0.00    1.2
1651 465707.500   48.780889198    8.917922332   493.1224   2  10   0.0083   0.0079   0.0108  -0.0025  -0.0023   0.0019   0.50    1.2
1651 465708.000   48.780889198    8.917922331   493.1242   2  10   0.0083   0.0078   0.0107  -0.0024  -0.0025   0.0020   0.00    1.2
1651 465708.500   48.780889164    8.917922310   493.1202   2  10   0.0083   0.0080   0.0108  -0.0027  -0.0021   0.0020   0.50    1.2
1651 465709.000   48.780889166    8.917922295   493.1197   2  10   0.0083   0.0079   0.0108  -0.0026  -0.0021   0.0020   0.00    1.2
1651 465709.500   48.780889194    8.917922284   493.1181   2  10   0.0083   0.0078   0.0108  -0.0023  -0.0022   0.0020   0.50    1.2
1651 465710.000   48.780889208    8.917922262   493.1204   2  10   0.0082   0.0081   0.0108  -0.0026  -0.0020   0.0022   0.00    1.2
1651 465710.500   48.780889169    8.917922272   493.1230   2  10   0.0084   0.0080   0.0107  -0.0024  -0.0022   0.0020   0.50    1.2
1651 465711.000   48.780889166    8.917922313   493.1243   2  10   0.0083   0.0079   0.0107  -0.0023  -0.0022   0.0021   0.00    1.2
1651 465711.500   48.780889198    8.917922303   493.1230   2  10   0.0083   0.0079   0.0108  -0.0026  -0.0023   0.0020   0.50    1.2
1651 465712.000   48.780889189    8.917922301   493.1230   2  10   0.0083   0.0077   0.0107  -0.0022  -0.0024   0.0022   0.00    1.2
1651 465712.500   48.780889182    8.917922325   493.1257   2  10   0.0083   0.0078   0.0107  -0.0025  -0.0023   0.0021   0.50    1.2
1651 465713.000   48.780889188    8.917922332   493.1260   2  10   0.0083   0.0078   0.0107  -0.0023  -0.0024   0.0020   0.00    1.2
1651 465713.500   48.780889215    8.917922277   493.1228   2  10   0.0083   0.0079   0.0108  -0.0024  -0.0022   0.0020   0.50    1.2
1651 465714.000   48.780889201    8.917922291   493.1227   2  10   0.0083   0.0077   0.0107  -0.0025  -0.0023   0.0021   0.00    1.2
1651 465714.500   48.780889210    8.917922272   493.1175   2  10   0.0083   0.0080   0.0108  -0.0028  -0.0020   0.0020   0.50    1.2
1651 465715.000   48.780889217    8.917922275   493.1215   2  10   0.0083   0.0079   0.0107  -0.0023  -0.0024   0.0021   0.00    1.2
1651 465715.500   48.780889201    8.917922261   493.1257   2  10   0.0083   0.0077   0.0107  -0.0023  -0.0025   0.0021   0.50    1.2
1651 465716.000   48.780889205    8.917922290   493.1262   2  10   0.0083   0.0077   0.0107  -0.0021  -0.0026   0.0022   0.00    1.2
1651 465716.500   48.780889200    8.917922289   493.1261   2  10   0.0083   0.0080   0.0108  -0.0025  -0.0020   0.0020   0.50    1.2
1651 465717.000   48.780889197    8.917922288   493.1277   2  10   0.0083   0.0079   0.0107  -0.0024  -0.0021   0.0021   0.00    1.2
1651 465717.500   48.780889223    8.917922249   493.1213   2  10   0.0084   0.0078   0.0107  -0.0023  -0.0024   0.0019   0.50    1.2
1651 465718.000   48.780889225    8.917922249   493.1244   2  10   0.0083   0.0079   0.0107  -0.0025  -0.0021   0.0022   0.00    1.2
1651 465718.500   48.780889206    8.917922269   493.1236   2  10   0.0083   0.0078   0.0107  -0.0022  -0.0024   0.0021   0.50    1.2
1651 465719.000   48.780889207    8.917922270   493.1246   2  10   0.0083   0.0079   0.0107  -0.0027  -0.0020   0.0020   0.00    1.2
1651 465719.500   48.780889220    8.917922287   493.1210   2  10   0.0083   0.0079   0.0107  -0.0023  -0.0022   0.0021   0.50    1.2
1651 465720.000   48.780889197    8.917922289   493.1228   2  10   0.0083   0.0079   0.0107  -0.0022  -0.0022   0.0022   0.00    1.2
1651 465720.500   48.780889207    8.917922270   493.1257   2  10   0.0083   0.0078   0.0107  -0.0020  -0.0024   0.0021   0.50    1.2
1651 465721.000   48.780889203    8.917922276   493.1262   2  10   0.0083   0.0078   0.0107  -0.0024  -0.0024   0.0020   0.00    1.2
1651 465721.500   48.780889181    8.917922285   493.1230   2  10   0.0083   0.0078   0.0107  -0.0023  -0.0022   0.0019   0.50    1.2
1651 465722.000   48.780889195    8.917922277   493.1235   2  10   0.0083   0.0080   0.0107  -0.0027  -0.0022   0.0021   0.00    1.2
1651 465722.500   48.780889202    8.917922266   493.1220   2  10   0.0084   0.0077   0.0107  -0.0021  -0.0024   0.0021   0.50    1.2
1651 465723.000   48.780889205    8.917922272   493.1214   2  10   0.0083   0.0078   0.0107  -0.0024  -0.0020   0.0021   0.00    1.2
1651 465723.500   48.780889200    8.917922304   493.1215   2  10   0.0083   0.0078   0.0107  -0.0024  -0.0022   0.0020   0.50    1.2
1651 465724.000   48.780889187    8.917922295   493.1242   2  10   0.0083   0.0077   0.0107  -0.0022  -0.0024   0.0022   0.00    1.2
1651 465724.500   48.780889205    8.917922298   493.1204   2  10   0.0084   0.0079   0.0107  -0.0024  -0.0022   0.0020   0.50    1.2
1651 465725.000   48.780889205    8.917922282   493.1214   2  10   0.0083   0.0080   0.0107  -0.0023  -0.0023   0.0021   0.00    1.2
1651 465725.500   48.780889184    8.917922278   493.1211   2  10   0.0083   0.0078   0.0107  -0.0023  -0.0022   0.0021   0.50    1.2
1651 465726.000   48.780889193    8.917922300   493.1233   2  10   0.0083   0.0079   0.0107  -0.0024  -0.0022   0.0020   0.00    1.2
1651 465726.500   48.780889181    8.917922302   493.1185   2  10   0.0083   0.0080   0.0108  -0.0025  -0.0022   0.0019   0.50    1.2
1651 465727.000   48.780889182    8.917922288   493.1210   2  10   0.0083   0.0079   0.0107  -0.0023  -0.0023   0.0020   0.00    1.2
1651 465727.500   48.780889220    8.917922292   493.1239   2  10   0.0083   0.0078   0.0108  -0.0023  -0.0022   0.0021   0.50    1.2
1651 465728.000   48.780889207    8.917922289   493.1219   2  10   0.0082   0.0079   0.0107  -0.0025  -0.0023   0.0020   0.00    1.2
1651 465728.500   48.780889234    8.917922295   493.1204   2  10   0.0084   0.0078   0.0108  -0.0024  -0.0023   0.0020   0.50    1.2
1651 465729.000   48.780889225    8.917922300   493.1203   2  10   0.0083   0.0078   0.0107  -0.0024  -0.0023   0.0021   0.00    1.2
1651 465729.500   48.780889208    8.917922277   493.1220   2  10   0.0083   0.0078   0.0108  -0.0025  -0.0022   0.0020   0.50    1.2
1651 465730.000   48.780889210    8.917922296   493.1211   2  10   0.0083   0.0077   0.0107  -0.0023  -0.0025   0.0021   0.00    1.2
1651 465730.500   48.780889200    8.917922282   493.1198   2  10   0.0083   0.0079   0.0108  -0.0026  -0.0022   0.0020   0.50    1.2
1651 465731.000   48.780889205    8.917922295   493.1192   2  10   0.0083   0.0079   0.0107  -0.0025  -0.0020   0.0019   0.00    1.2
1651 465731.500   48.780889197    8.917922290   493.1167   2  10   0.0083   0.0078   0.0108  -0.0024  -0.0024   0.0019   0.50    1.2
1651 465732.000   48.780889211    8.917922282   493.1191   2  10   0.0083   0.0079   0.0107  -0.0027  -0.0021   0.0020   0.00    1.2
1651 465732.500   48.780889205    8.917922303   493.1227   2  10   0.0083   0.0078   0.0107  -0.0023  -0.0023   0.0020   0.50    1.2
1651 465733.000   48.780889273    8.917922267   493.1285   2  10   0.0084   0.0080   0.0107  -0.0024  -0.0020   0.0020   0.00    1.2
1651 465733.500   48.780889264    8.917922294   493.1232   2  10   0.0083   0.0080   0.0108  -0.0025  -0.0021   0.0019   0.50    1.2
1651 465734.000   48.780889275    8.917922279   493.1251   2  10   0.0083   0.0078   0.0107  -0.0025  -0.0022   0.0020   0.00    1.2
1651 465734.500   48.780889311    8.917922305   493.1244   2  10   0.0083   0.0078   0.0107  -0.0022  -0.0024   0.0021   0.50    1.2
1651 465735.000   48.780889298    8.917922286   493.1255   2  10   0.0083   0.0079   0.0107  -0.0025  -0.0021   0.0021   0.00    1.2
1651 465735.500   48.780889274    8.917922287   493.1248   2  10   0.0083   0.0079   0.0107  -0.0023  -0.0024   0.0022   0.50    1.2
1651 465736.000   48.780889277    8.917922277   493.1270   2  10   0.0083   0.0079   0.0107  -0.0025  -0.0023   0.0020   0.00    1.2
1651 465736.500   48.780889284    8.917922287   493.1259   2  10   0.0083   0.0079   0.0108  -0.0023  -0.0021   0.0021   0.50    1.2
1651 465737.000   48.780889268    8.917922289   493.1252   2  10   0.0083   0.0077   0.0107  -0.0024  -0.0025   0.0020   0.00    1.2
1651 465737.500   48.780889261    8.917922286   493.1237   2  10   0.0083   0.0078   0.0108  -0.0022  -0.0023   0.0020   0.50    1.2
1651 465738.000   48.780889257    8.917922288   493.1237   2  10   0.0083   0.0079   0.0107  -0.0025  -0.0021   0.0021   0.00    1.2
1651 465738.500   48.780889275    8.917922290   493.1199   2  10   0.0083   0.0079   0.0108  -0.0023  -0.0020   0.0020   0.50    1.2
1651 465739.000   48.780889279    8.917922302   493.1196   2  10   0.0083   0.0078   0.0107  -0.0025  -0.0023   0.0020   0.00    1.2
1651 465739.500   48.780889255    8.917922290   493.1262   2  10   0.0083   0.0078   0.0107  -0.0023  -0.0023   0.0019   0.50    1.2
1651 465740.000   48.780889270    8.917922289   493.1262   2  10   0.0083   0.0077   0.0107  -0.0022  -0.0024   0.0020   0.00    1.2
1651 465740.500   48.780889286    8.917922276   493.1261   2  10   0.0083   0.0079   0.0108  -0.0024  -0.0022   0.0020   0.50    1.2
1651 465741.000   48.780889296    8.917922280   493.1241   2  10   0.0083   0.0077   0.0107  -0.0023  -0.0025   0.0019   0.00    1.2
1651 465741.500   48.780889266    8.917922289   493.1212   2  10   0.0083   0.0079   0.0107  -0.0023  -0.0023   0.0019   0.50    1.2
1651 465742.000   48.780889249    8.917922296   493.1222   2  10   0.0083   0.0078   0.0107  -0.0025  -0.0023   0.0019   0.00    1.2
1651 465742.500   48.780889296    8.917922287   493.1237   2  10   0.0083   0.0078   0.0108  -0.0027  -0.0021   0.0019   0.50    1.2
1651 465743.000   48.780889283    8.917922286   493.1241   2  10   0.0083   0.0079   0.0107  -0.0024  -0.0019   0.0021   0.00    1.2
1651 465743.500   48.780889246    8.917922313   493.1170   2  10   0.0082   0.0078   0.0107  -0.0026  -0.0022   0.0019   0.50    1.2
1651 465744.000   48.780889240    8.917922298   493.1154   2  10   0.0083   0.0078   0.0107  -0.0021  -0.0023   0.0021   0.00    1.2
1651 465744.500   48.780889255    8.917922331   493.1199   2  10   0.0083   0.0077   0.0107  -0.0021  -0.0023   0.0021   0.50    1.2
1651 465745.000   48.780889255    8.917922318   493.1187   2  10   0.0083   0.0078   0.0107  -0.0025  -0.0021   0.0021   0.00    1.2
1651 465745.500   48.780889251    8.917922320   493.1213   2  10   0.0083   0.0076   0.0107  -0.0018  -0.0025   0.0020   0.50    1.2
1651 465746.000   48.780889263    8.917922301   493.1230   2  10   0.0083   0.0078   0.0107  -0.0024  -0.0022   0.0019   0.00    1.2
1651 465746.500   48.780889260    8.917922302   493.1225   2  10   0.0083   0.0078   0.0107  -0.0023  -0.0022   0.0020   0.50    1.2
1651 465747.000   48.780889244    8.917922304   493.1224   2  10   0.0083   0.0078   0.0107  -0.0022  -0.0023   0.0021   0.00    1.2
1651 465747.500   48.780889245    8.917922299   493.1208   2  10   0.0084   0.0080   0.0107  -0.0024  -0.0021   0.0020   0.50    1.2
1651 465748.000   48.780889253    8.917922296   493.1205   2  10   0.0082   0.0080   0.0108  -0.0027  -0.0019   0.0019   0.00    1.2
1651 465748.500   48.780889242    8.917922290   493.1216   2  10   0.0083   0.0077   0.0107  -0.0023  -0.0023   0.0019   0.50    1.2
1651 465749.000   48.780889248    8.917922296   493.1198   2  10   0.0083   0.0077   0.0107  -0.0023  -0.0023   0.0020   0.00    1.2
1651 465749.500   48.780889243    8.917922304   493.1190   2  10   0.0083   0.0077   0.0108  -0.0025  -0.0023   0.0018   0.50    1.2
1651 465750.000   48.780889228    8.917922316   493.1224   2  10   0.0083   0.0077   0.0107  -0.0023  -0.0024   0.0019   0.00    1.2
1651 465750.500   48.780889244    8.917922308   493.1166   2  10   0.0083   0.0077   0.0107  -0.0023  -0.0025   0.0020   0.50    1.2
1651 465751.000   48.780889246    8.917922302   493.1150   2  10   0.0083   0.0079   0.0107  -0.0023  -0.0021   0.0019   0.00    1.2
1651 465751.500   48.780889262    8.917922315   493.1216   2  10   0.0083   0.0080   0.0108  -0.0027  -0.0019   0.0018   0.50    1.2
1651 465752.000   48.780889256    8.917922347   493.1219   2  10   0.0083   0.0079   0.0107  -0.0023  -0.0021   0.0019   0.00    1.2
1651 465752.500   48.780889247    8.917922321   493.1163   2  10   0.0083   0.0078   0.0107  -0.0025  -0.0022   0.0020   0.50    1.2
1651 465753.000   48.780889237    8.917922329   493.1177   2  10   0.0082   0.0077   0.0107  -0.0025  -0.0023   0.0019   0.00    1.2
1651 465753.500   48.780889278    8.917922311   493.1176   2  10   0.0083   0.0078   0.0108  -0.0022  -0.0021   0.0020   0.50    1.2
1651 465754.000   48.780889262    8.917922301   493.1163   2  10   0.0083   0.0077   0.0107  -0.0025  -0.0022   0.0019   0.00    1.2
1651 465754.500   48.780889253    8.917922310   493.1131   2  10   0.0083   0.0079   0.0107  -0.0022  -0.0022   0.0020   0.50    1.2
1651 465755.000   48.780889254    8.917922313   493.1133   2  10   0.0083   0.0077   0.0107  -0.0026  -0.0023   0.0019   0.00    1.2
1651 465755.500   48.780889259    8.917922289   493.1118   2  10   0.0083   0.0077   0.0107  -0.0022  -0.0022   0.0020   0.50    1.2
1651 465756.000   48.780889272    8.917922299   493.1110   2  10   0.0083   0.0078   0.0107  -0.0023  -0.0021   0.0019   0.00    1.2
1651 465756.500   48.780889263    8.917922340   493.1096   2  10   0.0083   0.0077   0.0107  -0.0024  -0.0023   0.0019   0.50    1.2
1651 465757.000   48.780889264    8.917922322   493.1114   2  10   0.0083   0.0078   0.0107  -0.0023  -0.0022   0.0019   0.00    1.2
1651 465757.500   48.780889236    8.917922293   493.1148   2  10   0.0082   0.0079   0.0107  -0.0022  -0.0020   0.0021   0.50    1.2
1651 465758.000   48.780889230    8.917922284   493.1144   2  10   0.0083   0.0078   0.0107  -0.0024  -0.0021   0.0020   0.00    1.2
1651 465758.500   48.780889269    8.917922323   493.1080   2  10   0.0083   0.0077   0.0107  -0.0022  -0.0023   0.0019   0.50    1.2
1651 465759.000   48.780889258    8.917922327   493.1085   2  10   0.0083   0.0077   0.0107  -0.0022  -0.0024   0.0019   0.00    1.2
1651 465759.500   48.780889215    8.917922309   493.1131   2  10   0.0083   0.0077   0.0107  -0.0023  -0.0022   0.0019   0.50    1.2
1651 465760.000   48.780889188    8.917922343   493.1101   2  10   0.0083   0.0077   0.0107  -0.0022  -0.0024   0.0020   0.00    1.2
1651 465760.500   48.780889228    8.917922338   493.1127   2  10   0.0083   0.0077   0.0107  -0.0023  -0.0022   0.0020   0.50    1.2
1651 465761.000   48.780889213    8.917922364   493.1094   2  10   0.0083   0.0076   0.0107  -0.0020  -0.0025   0.0020   0.00    1.2
1651 465761.500   48.780889210    8.917922325   493.1068   2  10   0.0083   0.0078   0.0107  -0.0024  -0.0020   0.0019   0.50    1.2
1651 465762.000   48.780889205    8.917922329   493.1074   2  10   0.0083   0.0076   0.0107  -0.0022  -0.0025   0.0019   0.00    1.2
1651 465762.500   48.780889207    8.917922345   493.1068   2  10   0.0083   0.0076   0.0107  -0.0020  -0.0024   0.0022   0.50    1.2
1651 465763.000   48.780889214    8.917922328   493.1085   2  10   0.0083   0.0079   0.0107  -0.0023  -0.0022   0.0018   0.00    1.2
1651 465763.500   48.780889226    8.917922341   493.1103   2  10   0.0083   0.0078   0.0107  -0.0022  -0.0021   0.0019   0.50    1.2
1651 465764.000   48.780889234    8.917922332   493.1090   2  10   0.0082   0.0078   0.0107  -0.0022  -0.0022   0.0021   0.00    1.2
1651 465764.500   48.780889239    8.917922328   493.1047   2  10   0.0082   0.0078   0.0107  -0.0023  -0.0021   0.0019   0.50    1.2
1651 465765.000   48.780889243    8.917922343   493.1036   2  10   0.0082   0.0078   0.0107  -0.0025  -0.0021   0.0018   0.00    1.2
1651 465765.500   48.780889238    8.917922308   493.1098   2  10   0.0083   0.0079   0.0107  -0.0025  -0.0019   0.0018   0.50    1.2
1651 465766.000   48.780889230    8.917922328   493.1092   2  10   0.0083   0.0077   0.0107  -0.0022  -0.0023   0.0019   0.00    1.2
1651 465766.500   48.780889207    8.917922309   493.1019   2  10   0.0083   0.0080   0.0107  -0.0024  -0.0019   0.0018   0.50    1.2
1651 465767.000   48.780889208    8.917922342   493.1033   2  10   0.0083   0.0076   0.0106  -0.0023  -0.0022   0.0019   0.00    1.2
1651 465767.500   48.780889230    8.917922315   493.1050   2  10   0.0083   0.0077   0.0107  -0.0023  -0.0022   0.0018   0.50    1.1
1651 465768.000   48.780889234    8.917922313   493.1057   2  10   0.0083   0.0077   0.0107  -0.0023  -0.0023   0.0019   0.00    1.1
1651 465768.500   48.780889241    8.917922336   493.1070   2  10   0.0083   0.0078   0.0107  -0.0023  -0.0020   0.0019   0.50    1.1
1651 465769.000   48.780889250    8.917922340   493.1077   2  10   0.0083   0.0078   0.0107  -0.0021  -0.0021   0.0020   0.00    1.1
1651 465769.500   48.780889232    8.917922342   493.1065   2  10   0.0083   0.0077   0.0107  -0.0019  -0.0022   0.0021   0.50    1.1
1651 465770.000   48.780889242    8.917922349   493.1080   2  10   0.0082   0.0079   0.0107  -0.0027  -0.0018   0.0019   0.00    1.1
1651 465770.500   48.780889245    8.917922298   493.1065   2  10   0.0083   0.0078   0.0107  -0.0021  -0.0023   0.0019   0.50    1.1
1651 465771.000   48.780889247    8.917922301   493.1044   2  10   0.0082   0.0077   0.0107  -0.0020  -0.0022   0.0019   0.00    1.1
1651 465771.500   48.780889230    8.917922346   493.1028   2  10   0.0083   0.0077   0.0107  -0.0024  -0.0023   0.0019   0.50    1.1
1651 465772.000   48.780889228    8.917922358   493.1014   2  10   0.0083   0.0077   0.0106  -0.0023  -0.0023   0.0019   0.00    1.1
1651 465772.500   48.780889239    8.917922331   493.1033   2  10   0.0083   0.0078   0.0107  -0.0026  -0.0020   0.0019   0.50    1.1
1651 465773.000   48.780889250    8.917922310   493.1056   2  10   0.0083   0.0080   0.0107  -0.0025  -0.0021   0.0018   0.00    1.1
1651 465773.500   48.780889240    8.917922323   493.1004   2  10   0.0083   0.0078   0.0107  -0.0023  -0.0022   0.0020   0.50    1.1
1651 465774.000   48.780889235    8.917922341   493.0993   2  10   0.0083   0.0077   0.0107  -0.0024  -0.0022   0.0020   0.00    1.1
1651 465774.500   48.780889232    8.917922321   493.1048   2  10   0.0083   0.0078   0.0107  -0.0024  -0.0022   0.0018   0.50    1.1
1651 465775.000   48.780889234    8.917922337   493.1025   2  10   0.0083   0.0077   0.0106  -0.0020  -0.0024   0.0020   0.00    1.1
1651 465775.500   48.780889206    8.917922337   493.1005   2  10   0.0083   0.0078   0.0107  -0.0024  -0.0020   0.0019   0.50    1.1
1651 465776.000   48.780889185    8.917922330   493.1029   2  10   0.0082   0.0077   0.0106  -0.0020  -0.0024   0.0020   0.00    1.1
1651 465776.500   48.780889224    8.917922322   493.0995   2  10   0.0082   0.0079   0.0107  -0.0024  -0.0019   0.0018   0.50    1.1
1651 465777.000   48.780889225    8.917922315   493.1011   2  10   0.0082   0.0079   0.0107  -0.0025  -0.0019   0.0018   0.00    1.1
1651 465777.500   48.780889224    8.917922344   493.1017   2  10   0.0083   0.0077   0.0107  -0.0020  -0.0023   0.0021   0.50    1.1
1651 465778.000   48.780889228    8.917922327   493.1033   2  10   0.0083   0.0078   0.0107  -0.0023  -0.0020   0.0019   0.00    1.1
1651 465778.500   48.780889222    8.917922295   493.0989   2  10   0.0083   0.0080   0.0107  -0.0026  -0.0020   0.0018   0.50    1.1
1651 465779.000   48.780889218    8.917922319   493.0968   2  10   0.0083   0.0078   0.0107  -0.0025  -0.0020   0.0019   0.00    1.1
1651 465779.500   48.780889214    8.917922345   493.0981   2  10   0.0083   0.0077   0.0107  -0.0023  -0.0022   0.0017   0.50    1.1
1651 465780.000   48.780889215    8.917922330   493.0989   2  10   0.0082   0.0079   0.0107  -0.0023  -0.0020   0.0019   0.00    1.1
1651 465780.500   48.780889217    8.917922346   493.0978   2  10   0.0083   0.0078   0.0107  -0.0022  -0.0019   0.0018   0.50    1.1
1651 465781.000   48.780889231    8.917922352   493.0991   2  10   0.0083   0.0078   0.0107  -0.0022  -0.0023   0.0018   0.00    1.1
1651 465781.500   48.780889212    8.917922347   493.1007   2  10   0.0083   0.0076   0.0107  -0.0022  -0.0023   0.0019   0.50    1.1
1651 465782.000   48.780889215    8.917922309   493.0999   2  10   0.0082   0.0078   0.0107  -0.0024  -0.0019   0.0019   0.00    1.1
1651 465782.500   48.780889204    8.917922334   493.0965   2  10   0.0083   0.0076   0.0107  -0.0021  -0.0024   0.0020   0.50    1.1
1651 465783.000   48.780889212    8.917922337   493.0993   2  10   0.0083   0.0077   0.0107  -0.0021  -0.0022   0.0019   0.00    1.1
1651 465783.500   48.780889212    8.917922329   493.1020   2  10   0.0083   0.0078   0.0107  -0.0025  -0.0019   0.0018   0.50    1.1
1651 465784.000   48.780889228    8.917922348   493.1014   2  10   0.0083   0.0079   0.0107  -0.0025  -0.0019   0.0018   0.00    1.1
1651 465784.500   48.780889217    8.917922332   493.0942   2  10   0.0083   0.0079   0.0108  -0.0024  -0.0020   0.0018   0.50    1.1
1651 465785.000   48.780889218    8.917922356   493.0952   2  10   0.0082   0.0077   0.0107  -0.0023  -0.0020   0.0018   0.00    1.1
1651 465785.500   48.780889214    8.917922351   493.0946   2  10   0.0083   0.0076   0.0107  -0.0019  -0.0025   0.0019   0.50    1.1
1651 465786.000   48.780889197    8.917922352   493.0930   2  10   0.0083   0.0076   0.0106  -0.0022  -0.0023   0.0019   0.00    1.1
1651 465786.500   48.780889186    8.917922342   493.0942   2  10   0.0083   0.0077   0.0106  -0.0021  -0.0023   0.0020   0.50    1.1
1651 465787.000   48.780889209    8.917922327   493.0944   2  10   0.0083   0.0079   0.0106  -0.0024  -0.0021   0.0018   0.00    1.1
1651 465787.500   48.780889213    8.917922363   493.0979   2  10   0.0082   0.0079   0.0107  -0.0025  -0.0019   0.0019   0.50    1.1
1651 465788.000   48.780889210    8.917922375   493.0965   2  10   0.0083   0.0078   0.0106  -0.0023  -0.0020   0.0019   0.00    1.1
1651 465788.500   48.780889209    8.917922348   493.0942   2  10   0.0082   0.0078   0.0107  -0.0024  -0.0020   0.0018   0.50    1.1
1651 465789.000   48.780889213    8.917922362   493.0958   2  10   0.0082   0.0078   0.0107  -0.0023  -0.0021   0.0018   0.00    1.1
1651 465789.500   48.780889215    8.917922309   493.0923   2  10   0.0082   0.0078   0.0107  -0.0023  -0.0022   0.0018   0.50    1.0
1651 465790.000   48.780889220    8.917922314   493.0932   2  10   0.0083   0.0078   0.0106  -0.0023  -0.0020   0.0017   0.00    1.0
1651 465790.500   48.780889222    8.917922354   493.0957   2  10   0.0082   0.0077   0.0106  -0.0021  -0.0024   0.0020   0.50    1.0
1651 465791.000   48.780889210    8.917922331   493.0946   2  10   0.0082   0.0079   0.0107  -0.0022  -0.0020   0.0017   0.00    1.0
1651 465791.500   48.780889226    8.917922321   493.0946   2  10   0.0083   0.0078   0.0107  -0.0025  -0.0020   0.0017   0.50    1.0
1651 465792.000   48.780889214    8.917922343   493.0947   2  10   0.0082   0.0077   0.0107  -0.0021  -0.0023   0.0019   0.00    1.0
1651 465792.500   48.780889214    8.917922338   493.0935   2  10   0.0082   0.0079   0.0107  -0.0024  -0.0020   0.0016   0.50    1.0
1651 465793.000   48.780889219    8.917922327   493.0944   2  10   0.0082   0.0079   0.0107  -0.0024  -0.0019   0.0017   0.00    1.0
1651 465793.500   48.780889197    8.917922340   493.0898   2  10   0.0082   0.0077   0.0107  -0.0020  -0.0024   0.0019   0.50    1.0
1651 465794.000   48.780889188    8.917922355   493.0892   2  10   0.0083   0.0076   0.0106  -0.0023  -0.0022   0.0017   0.00    1.0
1651 465794.500   48.780889227    8.917922364   493.0950   2  10   0.0082   0.0076   0.0107  -0.0021  -0.0022   0.0018   0.50    1.0
1651 465795.000   48.780889215    8.917922365   493.0956   2  10   0.0082   0.0077   0.0107  -0.0022  -0.0022   0.0018   0.00    1.0
1651 465795.500   48.780889213    8.917922356   493.0925   2  10   0.0082   0.0078   0.0107  -0.0025  -0.0020   0.0015   0.50    1.0
1651 465796.000   48.780889215    8.917922375   493.0931   2  10   0.0082   0.0078   0.0106  -0.0023  -0.0020   0.0017   0.00    1.0
1651 465796.500   48.780889196    8.917922368   493.0910   2  10   0.0082   0.0077   0.0107  -0.0023  -0.0021   0.0018   0.50    1.0
1651 465797.000   48.780889194    8.917922370   493.0919   2  10   0.0082   0.0078   0.0107  -0.0023  -0.0023   0.0018   0.00    1.0
1651 465797.500   48.780889224    8.917922337   493.0936   2  10   0.0082   0.0078   0.0107  -0.0025  -0.0020   0.0017   0.50    1.0
1651 465798.000   48.780889217    8.917922334   493.0916   2  10   0.0082   0.0078   0.0107  -0.0024  -0.0019   0.0017   0.00    1.0
1651 465798.500   48.780889162    8.917922390   493.0917   2  10   0.0082   0.0078   0.0107  -0.0023  -0.0021   0.0017   0.50    1.0
1651 465799.000   48.780889163    8.917922385   493.0907   2  10   0.0082   0.0077   0.0106  -0.0022  -0.0023   0.0018   0.00    1.0
1651 465799.500   48.780889200    8.917922347   493.0928   2  10   0.0082   0.0076   0.0107  -0.0024  -0.0022   0.0018   0.50    1.0
1651 465800.000   48.780889217    8.917922328   493.0941   2  10   0.0083   0.0077   0.0106  -0.0022  -0.0021   0.0016   0.00    1.0
1651 465800.500   48.780889205    8.917922380   493.0919   2  10   0.0083   0.0077   0.0107  -0.0022  -0.0022   0.0017   0.50    1.0
1651 465801.000   48.780889218    8.917922389   493.0922   2  10   0.0082   0.0078   0.0106  -0.0023  -0.0022   0.0018   0.00    1.0
1651 465801.500   48.780889197    8.917922368   493.0869   2  10   0.0082   0.0076   0.0107  -0.0021  -0.0022   0.0018   0.50    1.0
1651 465802.000   48.780889206    8.917922377   493.0879   2  10   0.0082   0.0076   0.0106  -0.0024  -0.0023   0.0017   0.00    1.0
1651 465802.500   48.780889195    8.917922351   493.0935   2  10   0.0082   0.0077   0.0106  -0.0021  -0.0021   0.0018   0.50    1.0
1651 465803.000   48.780889209    8.917922364   493.0930   2  10   0.0082   0.0076   0.0106  -0.0021  -0.0023   0.0019   0.00    1.0
1651 465803.500   48.780889200    8.917922380   493.0915   2  10   0.0082   0.0077   0.0106  -0.0021  -0.0022   0.0017   0.50    1.0
1651 465804.000   48.780889191    8.917922393   493.0899   2  10   0.0082   0.0076   0.0106  -0.0019  -0.0023   0.0017   0.00    1.0
1651 465804.500   48.780889173    8.917922391   493.0891   2  10   0.0083   0.0077   0.0107  -0.0023  -0.0021   0.0018   0.50    1.0
1651 465805.000   48.780889189    8.917922392   493.0917   2  10   0.0082   0.0077   0.0106  -0.0021  -0.0022   0.0017   0.00    1.0
1651 465805.500   48.780889198    8.917922378   493.0878   2  10   0.0082   0.0078   0.0106  -0.0023  -0.0021   0.0017   0.50    1.0
1651 465806.000   48.780889205    8.917922366   493.0893   2  10   0.0082   0.0078   0.0106  -0.0022  -0.0021   0.0018   0.00    1.0
1651 465806.500   48.780889178    8.917922373   493.0891   2  10   0.0083   0.0077   0.0107  -0.0024  -0.0022   0.0016   0.50    1.0
1651 465807.000   48.780889179    8.917922384   493.0882   2  10   0.0082   0.0077   0.0106  -0.0022  -0.0022   0.0016   0.00    1.0
1651 465807.500   48.780889190    8.917922417   493.0872   2  10   0.0082   0.0077   0.0106  -0.0023  -0.0024   0.0017   0.50    1.0
1651 465808.000   48.780889190    8.917922402   493.0880   2  10   0.0082   0.0078   0.0106  -0.0023  -0.0023   0.0018   0.00    1.0
1651 465808.500   48.780889178    8.917922398   493.0866   2  10   0.0082   0.0078   0.0107  -0.0024  -0.0020   0.0017   0.50    1.0
1651 465809.000   48.780889179    8.917922408   493.0867   2  10   0.0082   0.0076   0.0106  -0.0022  -0.0021   0.0017   0.00    1.0
1651 465809.500   48.780889173    8.917922410   493.0852   2  10   0.0082   0.0076   0.0106  -0.0024  -0.0023   0.0017   0.50    1.0
1651 465810.000   48.780889170    8.917922403   493.0848   2  10   0.0082   0.0079   0.0106  -0.0023  -0.0018   0.0017   0.00    1.0
1651 465810.500   48.780889204    8.917922378   493.0809   2  10   0.0082   0.0079   0.0107  -0.0025  -0.0017   0.0017   0.50    1.1
1651 465811.000   48.780889194    8.917922381   493.0821   2  10   0.0082   0.0078   0.0106  -0.0024  -0.0022   0.0018   0.00    1.1
1651 465811.500   48.780889163    8.917922392   493.0861   2  10   0.0082   0.0077   0.0107  -0.0024  -0.0021   0.0014   0.50    1.1
1651 465812.000   48.780889165    8.917922390   493.0856   2  10   0.0082   0.0078   0.0107  -0.0022  -0.0018   0.0016   0.00    1.1
1651 465812.500   48.780889202    8.917922351   493.0826   2  10   0.0081   0.0080   0.0107  -0.0024  -0.0016   0.0017   0.50    1.1
1651 465813.000   48.780889204    8.917922399   493.0845   2  10   0.0082   0.0074   0.0106  -0.0019  -0.0024   0.0019   0.00    1.1
1651 465813.500   48.780889169    8.917922398   493.0826   2  10   0.0083   0.0076   0.0106  -0.0018  -0.0022   0.0017   0.50    1.1
1651 465814.000   48.780889186    8.917922388   493.0828   2  10   0.0082   0.0078   0.0106  -0.0025  -0.0019   0.0016   0.00    1.1
1651 465814.500   48.780889172    8.917922372   493.0819   2  10   0.0082   0.0079   0.0107  -0.0025  -0.0020   0.0016   0.50    1.1
1651 465815.000   48.780889181    8.917922404   493.0812   2  10   0.0082   0.0077   0.0106  -0.0025  -0.0022   0.0016   0.00    1.1
1651 465815.500   48.780889170    8.917922403   493.0802   2  10   0.0082   0.0077   0.0106  -0.0022  -0.0023   0.0017   0.50    1.1
1651 465816.000   48.780889160    8.917922388   493.0799   2  10   0.0082   0.0078   0.0106  -0.0023  -0.0020   0.0015   0.00    1.1
1651 465816.500   48.780889141    8.917922414   493.0799   2  10   0.0083   0.0077   0.0106  -0.0020  -0.0021   0.0015   0.50    1.1
1651 465817.000   48.780889159    8.917922417   493.0818   2  10   0.0082   0.0077   0.0106  -0.0021  -0.0020   0.0017   0.00    1.1
1651 465817.500   48.780889142    8.917922379   493.0801   2  10   0.0082   0.0078   0.0106  -0.0023  -0.0020   0.0016   0.50    1.1
1651 465818.000   48.780889148    8.917922378   493.0809   2  10   0.0081   0.0078   0.0106  -0.0021  -0.0019   0.0017   0.00    1.1
1651 465818.500   48.780889134    8.917922383   493.0792   2  10   0.0082   0.0078   0.0106  -0.0023  -0.0021   0.0016   0.50    1.1
1651 465819.000   48.780889154    8.917922398   493.0813   2  10   0.0081   0.0078   0.0106  -0.0023  -0.0021   0.0015   0.00    1.1
1651 465819.500   48.780889154    8.917922414   493.0786   2  10   0.0082   0.0078   0.0106  -0.0024  -0.0020   0.0014   0.50    1.1
1651 465820.000   48.780889158    8.917922415   493.0827   2  10   0.0082   0.0077   0.0106  -0.0021  -0.0020   0.0017   0.00    1.1
1651 465820.500   48.780889177    8.917922378   493.0788   2  10   0.0082   0.0079   0.0106  -0.0024  -0.0019   0.0015   0.50    1.1
1651 465821.000   48.780889167    8.917922419   493.0776   2  10   0.0082   0.0077   0.0106  -0.0021  -0.0021   0.0015   0.00    1.1
1651 465821.500   48.780889133    8.917922440   493.0809   2  10   0.0082   0.0076   0.0106  -0.0021  -0.0022   0.0018   0.50    1.1
1651 465822.000   48.780889138    8.917922429   493.0841   2  10   0.0082   0.0077   0.0106  -0.0021  -0.0022   0.0016   0.00    1.1
1651 465822.500   48.780889127    8.917922432   493.0809   2  10   0.0082   0.0078   0.0106  -0.0022  -0.0020   0.0015   0.50    1.1
1651 465823.000   48.780889144    8.917922426   493.0824   2  10   0.0081   0.0078   0.0106  -0.0023  -0.0020   0.0016   0.00    1.1
1651 465823.500   48.780889114    8.917922441   493.0805   2  10   0.0082   0.0076   0.0106  -0.0024  -0.0023   0.0016   0.50    1.1
1651 465824.000   48.780889101    8.917922436   493.0783   2  10   0.0082   0.0078   0.0106  -0.0021  -0.0020   0.0017   0.00    1.1
1651 465824.500   48.780889145    8.917922390   493.0851   2  10   0.0082   0.0078   0.0106  -0.0021  -0.0020   0.0016   0.50    1.1
1651 465825.000   48.780889158    8.917922399   493.0833   2  10   0.0082   0.0078   0.0106  -0.0023  -0.0019   0.0016   0.00    1.1
1651 465825.500   48.780889169    8.917922391   493.0795   2  10   0.0082   0.0078   0.0106  -0.0021  -0.0020   0.0016   0.50    1.1
1651 465826.000   48.780889173    8.917922416   493.0794   2  10   0.0081   0.0078   0.0106  -0.0024  -0.0018   0.0016   0.00    1.1
1651 465826.500   48.780889146    8.917922415   493.0713   2  10   0.0082   0.0078   0.0107  -0.0023  -0.0019   0.0015   0.50    1.1
1651 465827.000   48.780889150    8.917922445   493.0758   2  10   0.0082   0.0077   0.0106  -0.0024  -0.0020   0.0016   0.00    1.1
1651 465827.500   48.780889141    8.917922422   493.0804   2  10   0.0082   0.0078   0.0106  -0.0023  -0.0017   0.0015   0.50    1.1
1651 465828.000   48.780889159    8.917922431   493.0845   2  10   0.0081   0.0077   0.0105  -0.0021  -0.0020   0.0016   0.00    1.1
1651 465828.500   48.780889119    8.917922441   493.0752   2  10   0.0082   0.0076   0.0106  -0.0019  -0.0022   0.0017   0.50    1.1
1651 465829.000   48.780889127    8.917922430   493.0754   2  10   0.0082   0.0079   0.0106  -0.0022  -0.0020   0.0016   0.00    1.1
1651 465829.500   48.780889125    8.917922445   493.0775   2  10   0.0082   0.0079   0.0106  -0.0025  -0.0018   0.0015   0.50    1.1
1651 465830.000   48.780889124    8.917922448   493.0802   2  10   0.0082   0.0078   0.0106  -0.0024  -0.0019   0.0017   0.00    1.1
1651 465830.500   48.780889158    8.917922421   493.0766   2  10   0.0081   0.0077   0.0106  -0.0024  -0.0020   0.0015   0.50    1.1
1651 465831.000   48.780889161    8.917922387   493.0796   2  10   0.0081   0.0078   0.0106  -0.0025  -0.0019   0.0013   0.00    1.1
1651 465831.500   48.780889152    8.917922394   493.0759   2  10   0.0082   0.0078   0.0106  -0.0022  -0.0019   0.0015   0.50    1.1
1651 465832.000   48.780889189    8.917922370   493.0776   2  10   0.0081   0.0077   0.0106  -0.0023  -0.0021   0.0016   0.00    1.1
1651 465832.500   48.780889174    8.917922379   493.0778   2  10   0.0082   0.0078   0.0106  -0.0022  -0.0021   0.0016   0.50    1.1
1651 465833.000   48.780889162    8.917922399   493.0802   2  10   0.0082   0.0077   0.0106  -0.0021  -0.0022   0.0015   0.00    1.1
1651 465833.500   48.780889146    8.917922352   493.0766   2  10   0.0081   0.0077   0.0106  -0.0020  -0.0021   0.0017   0.50    1.1
1651 465834.000   48.780889167    8.917922335   493.0798   2  10   0.0081   0.0078   0.0106  -0.0024  -0.0020   0.0014   0.00    1.1
1651 465834.500   48.780889106    8.917922373   493.0784   2  10   0.0082   0.0077   0.0106  -0.0023  -0.0020   0.0014   0.50    1.1
1651 465835.000   48.780889115    8.917922362   493.0776   2  10   0.0081   0.0078   0.0106  -0.0020  -0.0020   0.0015   0.00    1.1
1651 465835.500   48.780889166    8.917922336   493.0780   2  10   0.0082   0.0078   0.0106  -0.0025  -0.0016   0.0013   0.50    1.1
1651 465836.000   48.780889139    8.917922326   493.0786   2  10   0.0082   0.0078   0.0106  -0.0020  -0.0019   0.0014   0.00    1.1
1651 465836.500   48.780889119    8.917922376   493.0766   2  10   0.0082   0.0076   0.0106  -0.0021  -0.0021   0.0015   0.50    1.1
1651 465837.000   48.780889118    8.917922365   493.0796   2  10   0.0081   0.0076   0.0106  -0.0021  -0.0021   0.0016   0.00    1.1
1651 465837.500   48.780889142    8.917922340   493.0765   2  10   0.0082   0.0079   0.0106  -0.0024  -0.0018   0.0014   0.50    1.1
1651 465838.000   48.780889138    8.917922344   493.0778   2  10   0.0082   0.0078   0.0106  -0.0023  -0.0020   0.0013   0.00    1.1
1651 465838.500   48.780889129    8.917922362   493.0778   2  10   0.0082   0.0077   0.0106  -0.0022  -0.0020   0.0014   0.50    1.1
1651 465839.000   48.780889127    8.917922390   493.0787   2  10   0.0081   0.0076   0.0106  -0.0022  -0.0020   0.0015   0.00    1.1
1651 465839.500   48.780889141    8.917922369   493.0814   2  10   0.0082   0.0076   0.0105  -0.0021  -0.0022   0.0015   0.50    1.1
1651 465840.000   48.780889156    8.917922411   493.0820   2  10   0.0081   0.0075   0.0105  -0.0018  -0.0024   0.0016   0.00    1.1
1651 465840.500   48.780889144    8.917922380   493.0765   2  10   0.0081   0.0079   0.0106  -0.0023  -0.0017   0.0015   0.50    1.1
1651 465841.000   48.780889144    8.917922379   493.0780   2  10   0.0082   0.0077   0.0106  -0.0022  -0.0021   0.0014   0.00    1.1
1651 465841.500   48.780889151    8.917922373   493.0776   2  10   0.0082   0.0078   0.0106  -0.0023  -0.0018   0.0015   0.50    1.1
1651 465842.000   48.780889164    8.917922416   493.0773   2  10   0.0082   0.0076   0.0105  -0.0023  -0.0021   0.0014   0.00    1.1
1651 465842.500   48.780889164    8.917922430   493.0767   2  10   0.0081   0.0076   0.0106  -0.0020  -0.0021   0.0015   0.50    1.1
1651 465843.000   48.780889137    8.917922451   493.0774   2  10   0.0081   0.0076   0.0106  -0.0021  -0.0022   0.0015   0.00    1.1
1651 465843.500   48.780889067    8.917922495   493.0679   2  10   0.0082   0.0078   0.0106  -0.0023  -0.0018   0.0013   0.50    1.1
1651 465844.000   48.780889085    8.917922469   493.0725   2  10   0.0082   0.0077   0.0106  -0.0024  -0.0017   0.0015   0.00    1.1
1651 465844.500   48.780889097    8.917922421   493.0724   2  10   0.0081   0.0077   0.0106  -0.0022  -0.0020   0.0016   0.50    1.1
1651 465845.000   48.780889095    8.917922487   493.0690   2  10   0.0082   0.0077   0.0105  -0.0020  -0.0022   0.0014   0.00    1.1
1651 465845.500   48.780889120    8.917922465   493.0680   2  10   0.0081   0.0078   0.0106  -0.0021  -0.0019   0.0014   0.50    1.1
1651 465846.000   48.780889142    8.917922471   493.0705   2  10   0.0081   0.0077   0.0105  -0.0019  -0.0021   0.0015   0.00    1.1
1651 465846.500   48.780889145    8.917922470   493.0689   2  10   0.0082   0.0078   0.0106  -0.0022  -0.0020   0.0013   0.50    1.1
1651 465847.000   48.780889154    8.917922503   493.0696   2  10   0.0081   0.0078   0.0105  -0.0024  -0.0018   0.0014   0.00    1.1
1651 465847.500   48.780889153    8.917922518   493.0666   2  10   0.0081   0.0078   0.0106  -0.0024  -0.0017   0.0014   0.50    1.1
1651 465848.000   48.780889138    8.917922499   493.0691   2  10   0.0081   0.0077   0.0106  -0.0024  -0.0020   0.0013   0.00    1.1
1651 465848.500   48.780889190    8.917922492   493.0686   2  10   0.0081   0.0076   0.0105  -0.0019  -0.0022   0.0016   0.50    1.1
1651 465849.000   48.780889271    8.917922455   493.0717   2  10   0.0081   0.0078   0.0106  -0.0024  -0.0018   0.0013   0.00    1.1
1651 465849.500   48.780889220    8.917922515   493.0715   2  10   0.0081   0.0076   0.0106  -0.0023  -0.0020   0.0013   0.50    1.1
1651 465850.000   48.780889229    8.917922514   493.0724   2  10   0.0081   0.0077   0.0105  -0.0024  -0.0020   0.0014   0.00    1.1
1651 465850.500   48.780889231    8.917922470   493.0727   2  10   0.0081   0.0077   0.0106  -0.0021  -0.0020   0.0015   0.50    1.1
1651 465851.000   48.780889222    8.917922420   493.0744   2  10   0.0081   0.0077   0.0105  -0.0022  -0.0020   0.0012   0.00    1.1
1651 465851.500   48.780889223    8.917922444   493.0732   2  10   0.0081   0.0077   0.0106  -0.0023  -0.0019   0.0011   0.50    1.1
1651 465852.000   48.780889151    8.917922494   493.0680   2  10   0.0081   0.0077   0.0105  -0.0022  -0.0021   0.0014   0.00    1.1
1651 465852.500   48.780889138    8.917922488   493.0704   2  10   0.0081   0.0077   0.0106  -0.0020  -0.0021   0.0014   0.50    1.1
1651 465853.000   48.780889146    8.917922520   493.0674   2  10   0.0082   0.0077   0.0105  -0.0023  -0.0018   0.0012   0.00    1.1
1651 465853.500   48.780889147    8.917922502   493.0626   2  10   0.0081   0.0078   0.0106  -0.0023  -0.0018   0.0012   0.50    1.1
1651 465854.000   48.780889157    8.917922534   493.0639   2  10   0.0081   0.0077   0.0105  -0.0023  -0.0021   0.0014   0.00    1.1
1651 465854.500   48.780889195    8.917922518   493.0623   2  10   0.0081   0.0078   0.0106  -0.0022  -0.0020   0.0013   0.50    1.1
1651 465855.000   48.780889207    8.917922540   493.0653   2  10   0.0081   0.0076   0.0106  -0.0023  -0.0019   0.0012   0.00    1.1
1651 465855.500   48.780889190    8.917922525   493.0675   2  10   0.0081   0.0078   0.0106  -0.0021  -0.0019   0.0013   0.50    1.1
1651 465856.000   48.780889196    8.917922520   493.0677   2  10   0.0081   0.0077   0.0105  -0.0023  -0.0018   0.0014   0.00    1.1
1651 465856.500   48.780889139    8.917922570   493.0585   2  10   0.0081   0.0076   0.0105  -0.0021  -0.0023   0.0015   0.50    1.1
1651 465857.000   48.780889186    8.917922521   493.0586   2  10   0.0081   0.0078   0.0106  -0.0024  -0.0017   0.0012   0.00    1.1
1651 465857.500   48.780889153    8.917922553   493.0617   2  10   0.0081   0.0079   0.0106  -0.0023  -0.0017   0.0012   0.50    1.1
1651 465858.000   48.780889156    8.917922556   493.0635   2  10   0.0081   0.0078   0.0105  -0.0021  -0.0020   0.0013   0.00    1.1
1651 465858.500   48.780889157    8.917922557   493.0624   2  10   0.0081   0.0076   0.0105  -0.0020  -0.0020   0.0013   0.50    1.1
1651 465859.000   48.780889162    8.917922572   493.0637   2  10   0.0081   0.0077   0.0105  -0.0021  -0.0019   0.0011   0.00    1.1
1651 465859.500   48.780889186    8.917922558   493.0634   2  10   0.0081   0.0076   0.0105  -0.0021  -0.0020   0.0012   0.50    1.1
1651 465860.000   48.780889173    8.917922541   493.0621   2  10   0.0080   0.0077   0.0105  -0.0025  -0.0018   0.0012   0.00    1.1
1651 465860.500   48.780889187    8.917922566   493.0631   2  10   0.0081   0.0077   0.0105  -0.0023  -0.0022   0.0011   0.50    1.1
1651 465861.000   48.780889190    8.917922596   493.0607   2  10   0.0081   0.0077   0.0105  -0.0023  -0.0018   0.0012   0.00    1.1
1651 465861.500   48.780889223    8.917922565   493.0619   2  10   0.0081   0.0079   0.0106  -0.0024  -0.0017   0.0012   0.50    1.1
1651 465862.000   48.780889213    8.917922612   493.0628   2  10   0.0081   0.0077   0.0105  -0.0023  -0.0018   0.0012   0.00    1.1
1651 465862.500   48.780889226    8.917922596   493.0583   2  10   0.0081   0.0077   0.0105  -0.0021  -0.0019   0.0011   0.50    1.1
1651 465863.000   48.780889208    8.917922596   493.0594   2  10   0.0080   0.0077   0.0105  -0.0022  -0.0018   0.0012   0.00    1.1
1651 465863.500   48.780889243    8.917922619   493.0612   2  10   0.0081   0.0077   0.0106  -0.0023  -0.0019   0.0009   0.50    1.1
1651 465864.000   48.780889219    8.917922648   493.0612   2  10   0.0081   0.0075   0.0105  -0.0022  -0.0022   0.0011   0.00    1.1
1651 465864.500   48.780889177    8.917922597   493.0582   2  10   0.0081   0.0077   0.0105  -0.0019  -0.0021   0.0011   0.50    1.1
1651 465865.000   48.780889215    8.917922531   493.0595   2  10   0.0081   0.0078   0.0105  -0.0023  -0.0017   0.0008   0.00    1.1
1651 465865.500   48.780889188    8.917922548   493.0602   2  10   0.0081   0.0077   0.0105  -0.0021  -0.0018   0.0014   0.50    1.1
1651 465866.000   48.780889196    8.917922592   493.0606   2  10   0.0081   0.0076   0.0105  -0.0022  -0.0019   0.0011   0.00    1.1
1651 465866.500   48.780889192    8.917922600   493.0612   2  10   0.0081   0.0077   0.0105  -0.0021  -0.0018   0.0012   0.50    1.1
1651 465867.000   48.780889189    8.917922594   493.0622   2  10   0.0081   0.0077   0.0105  -0.0021  -0.0019   0.0011   0.00    1.1
1651 465867.500   48.780889216    8.917922628   493.0542   2  10   0.0081   0.0077   0.0105  -0.0025  -0.0018   0.0010   0.50    1.1
1651 465868.000   48.780889208    8.917922630   493.0526   2  10   0.0080   0.0078   0.0105  -0.0023  -0.0020   0.0009   0.00    1.1
1651 465868.500   48.780889164    8.917922636   493.0557   2  10   0.0081   0.0077   0.0105  -0.0022  -0.0019   0.0010   0.50    1.1
1651 465869.000   48.780889165    8.917922643   493.0581   2  10   0.0080   0.0076   0.0105  -0.0021  -0.0022   0.0011   0.00    1.1
1651 465869.500   48.780889182    8.917922615   493.0578   2  10   0.0081   0.0077   0.0105  -0.0021  -0.0019   0.0011   0.50    1.1
1651 465870.000   48.780889165    8.917922671   493.0578   2  10   0.0081   0.0076   0.0104  -0.0020  -0.0021   0.0014   0.00    1.1
1651 465870.500   48.780889180    8.917922668   493.0621   2  10   0.0081   0.0077   0.0105  -0.0022  -0.0019   0.0010   0.50    1.1
1651 465871.000   48.780889197    8.917922669   493.0619   2  10   0.0081   0.0077   0.0105  -0.0021  -0.0021   0.0012   0.00    1.1
1651 465871.500   48.780889229    8.917922658   493.0615   2  10   0.0081   0.0077   0.0105  -0.0021  -0.0021   0.0009   0.50    1.1
1651 465872.000   48.780889248    8.917922633   493.0612   2  10   0.0081   0.0077   0.0105  -0.0022  -0.0019   0.0010   0.00    1.1
1651 465872.500   48.780889225    8.917922632   493.0575   2  10   0.0081   0.0078   0.0105  -0.0025  -0.0018   0.0007   0.50    1.1
1651 465873.000   48.780889198    8.917922678   493.0590   2  10   0.0081   0.0076   0.0105  -0.0021  -0.0021   0.0007   0.00    1.1
1651 465873.500   48.780889237    8.917922684   493.0583   2  10   0.0081   0.0075   0.0105  -0.0022  -0.0020   0.0012   0.50    1.1
1651 465874.000   48.780889215    8.917922673   493.0582   2  10   0.0080   0.0076   0.0105  -0.0018  -0.0020   0.0011   0.00    1.1
1651 465874.500   48.780889224    8.917922679   493.0559   2  10   0.0080   0.0077   0.0105  -0.0022  -0.0019   0.0008   0.50    1.1
1651 465875.000   48.780889225    8.917922692   493.0574   2  10   0.0080   0.0076   0.0105  -0.0022  -0.0020   0.0010   0.00    1.1
1651 465875.500   48.780889217    8.917922679   493.0627   2  10   0.0081   0.0076   0.0105  -0.0021  -0.0019   0.0011   0.50    1.1
1651 465876.000   48.780889203    8.917922638   493.0589   2  10   0.0080   0.0078   0.0105  -0.0022  -0.0017   0.0009   0.00    1.1
1651 465876.500   48.780889205    8.917922680   493.0601   2  10   0.0080   0.0077   0.0105  -0.0024  -0.0018   0.0010   0.50    1.1
1651 465877.000   48.780889217    8.917922698   493.0609   2  10   0.0081   0.0077   0.0104  -0.0019  -0.0020   0.0009   0.00    1.1
1651 465877.500   48.780889183    8.917922700   493.0589   2  10   0.0081   0.0074   0.0105  -0.0016  -0.0022   0.0010   0.50    1.1
1651 465878.000   48.780889203    8.917922689   493.0570   2  10   0.0080   0.0077   0.0105  -0.0022  -0.0020   0.0009   0.00    1.1
1651 465878.500   48.780889238    8.917922686   493.0501   2  10   0.0080   0.0077   0.0105  -0.0021  -0.0020   0.0010   0.50    1.1
1651 465879.000   48.780889223    8.917922696   493.0507   2  10   0.0080   0.0076   0.0105  -0.0018  -0.0021   0.0010   0.00    1.1
1651 465879.500   48.780889230    8.917922683   493.0534   2  10   0.0080   0.0076   0.0105  -0.0023  -0.0019   0.0010   0.50    1.1
1651 465880.000   48.780889221    8.917922699   493.0563   2  10   0.0081   0.0076   0.0104  -0.0018  -0.0022   0.0010   0.00    1.1
1651 465880.500   48.780889229    8.917922682   493.0540   2  10   0.0080   0.0077   0.0104  -0.0021  -0.0019   0.0010   0.50    1.1
1651 465881.000   48.780889260    8.917922673   493.0535   2  10   0.0080   0.0077   0.0105  -0.0025  -0.0015   0.0005   0.00    1.1
1651 465881.500   48.780889248    8.917922713   493.0584   2  10   0.0081   0.0076   0.0104  -0.0022  -0.0018   0.0011   0.50    1.1
