%  GPST          latitude(deg) longitude(deg)  height(m)   Q  ns   sdn(m)   sde(m)   sdu(m)  sdne(m)  sdeu(m)  sdun(m) age(s)  ratio
1651 465661.000   48.780885120    8.917921637   493.4868   2   9   0.7763   0.5015   1.0058   0.0501  -0.3895   0.3772   0.00    1.2
1651 465661.500   48.780885121    8.917921644   493.4934   2   9   0.5542   0.3587   0.7169   0.0374  -0.2795   0.2710   0.50    1.2
1651 465662.000   48.780885969    8.917920881   493.4828   2  10   0.4522   0.2926   0.5829   0.0460  -0.2250   0.2162   0.00    1.1
1651 465662.500   48.780886430    8.917920422   493.4821   2  10   0.3919   0.2536   0.5044   0.0425  -0.1943   0.1863   0.50    1.2
1651 465663.000   48.780886827    8.917920072   493.4008   2  10   0.3499   0.2265   0.4494   0.0436  -0.1719   0.1634   0.00    1.1
1651 465663.500   48.780887110    8.917919802   493.3526   2  10   0.3192   0.2067   0.4094   0.0421  -0.1561   0.1476   0.50    1.2
1651 465664.000   48.780887269    8.917919708   493.2837   2  10   0.2954   0.1913   0.3784   0.0404  -0.1439   0.1356   0.00    1.2
1651 465664.500   48.780887390    8.917919626   493.2346   2  10   0.2762   0.1789   0.3536   0.0388  -0.1342   0.1261   0.50    1.3
1651 465665.000   48.780887719    8.917919911   493.1994   2  10   0.2603   0.1686   0.3331   0.0373  -0.1262   0.1183   0.00    1.3
1651 465665.500   48.780887982    8.917920144   493.1738   2  10   0.2469   0.1599   0.3158   0.0359  -0.1195   0.1118   0.50    1.3
1651 465666.000   48.780888151    8.917920185   493.1540   2  10   0.2353   0.1524   0.3009   0.0347  -0.1138   0.1063   0.00    1.3
1651 465666.500   48.780888310    8.917920208   493.1427   2  10   0.2253   0.1459   0.2879   0.0335  -0.1088   0.1015   0.50    1.3
1651 465667.000   48.780888458    8.917920198   493.1218   2  10   0.2164   0.1402   0.2765   0.0325  -0.1044   0.0973   0.00    1.3
1651 465667.500   48.780888573    8.917920196   493.1047   2  10   0.2085   0.1351   0.2664   0.0316  -0.1005   0.0935   0.50    1.3
1651 465668.000   48.780888610    8.917920101   493.1008   2  10   0.2014   0.1305   0.2572   0.0307  -0.0970   0.0902   0.00    1.4
1651 465668.500   48.780888611    8.917919988   493.0897   2  10   0.1949   0.1264   0.2490   0.0299  -0.0938   0.0871   0.50    1.4
1651 465669.000   48.780888596    8.917919938   493.0641   2  10   0.1891   0.1226   0.2415   0.0292  -0.0910   0.0844   0.00    1.4
1651 465669.500   48.780888621    8.917919920   493.0471   2  10   0.1837   0.1191   0.2346   0.0285  -0.0883   0.0819   0.50    1.4
1651 465670.000   48.780888795    8.917919920   493.0613   2  10   0.1788   0.1159   0.2283   0.0279  -0.0859   0.0796   0.00    1.4
1651 465670.500   48.780888925    8.917919909   493.0698   2  10   0.1742   0.1130   0.2225   0.0272  -0.0837   0.0774   0.50    1.4
1651 465671.000   48.780888986    8.917920021   493.0589   2  10   0.1700   0.1103   0.2171   0.0267  -0.0816   0.0754   0.00    1.4
1651 465671.500   48.780888986    8.917920090   493.0564   2  10   0.1660   0.1077   0.2120   0.0262  -0.0797   0.0736   0.50    1.4
1651 465672.000   48.780888943    8.917920232   493.0704   2  10   0.1623   0.1053   0.2073   0.0257  -0.0779   0.0719   0.00    1.4
1651 465672.500   48.780888925    8.917920315   493.0827   2  10   0.1589   0.1031   0.2029   0.0252  -0.0762   0.0702   0.50    1.3
1651 465673.000   48.780888763    8.917920372   493.0779   2  10   0.1556   0.1011   0.1988   0.0248  -0.0747   0.0687   0.00    1.3
1651 465673.500   48.780888647    8.917920449   493.0753   2  10   0.1526   0.0991   0.1949   0.0244  -0.0732   0.0673   0.50    1.3
1651 465674.000   48.780888663    8.917920345   493.0792   2  10   0.1497   0.0972   0.1912   0.0240  -0.0718   0.0659   0.00    1.3
1651 465674.500   48.780888710    8.917920266   493.0841   2  10   0.1469   0.0955   0.1877   0.0236  -0.0705   0.0646   0.50    1.3
1651 465675.000   48.780888658    8.917920336   493.0790   2  10   0.1443   0.0938   0.1844   0.0232  -0.0692   0.0634   0.00    1.3
1651 465675.500   48.780888626    8.917920359   493.0760   2  10   0.1419   0.0922   0.1813   0.0229  -0.0680   0.0622   0.50    1.3
1651 465676.000   48.780888566    8.917920279   493.0758   2  10   0.1395   0.0907   0.1783   0.0226  -0.0669   0.0611   0.00    1.3
1651 465676.500   48.780888504    8.917920234   493.0783   2  10   0.1373   0.0893   0.1754   0.0222  -0.0658   0.0601   0.50    1.3
1651 465677.000   48.780888509    8.917920268   493.0807   2  10   0.1351   0.0879   0.1727   0.0220  -0.0648   0.0591   0.00    1.3
1651 465677.500   48.780888506    8.917920277   493.0810   2  10   0.1331   0.0866   0.1701   0.0217  -0.0638   0.0581   0.50    1.3
1651 465678.000   48.780888559    8.917920391   493.0567   2  10   0.1311   0.0854   0.1676   0.0214  -0.0629   0.0572   0.00    1.3
1651 465678.500   48.780888595    8.917920449   493.0361   2  10   0.1292   0.0842   0.1652   0.0212  -0.0619   0.0563   0.50    1.3
1651 465679.000   48.780888646    8.917920444   493.0339   2  10   0.1274   0.0830   0.1629   0.0209  -0.0611   0.0554   0.00    1.3
1651 465679.500   48.780888635    8.917920434   493.0389   2  10   0.1257   0.0819   0.1607   0.0206  -0.0602   0.0546   0.50    1.3
1651 465680.000   48.780888647    8.917920450   493.0303   2  10   0.1240   0.0809   0.1586   0.0205  -0.0595   0.0538   0.00    1.3
1651 465680.500   48.780888672    8.917920490   493.0135   2  10   0.1224   0.0799   0.1566   0.0202  -0.0587   0.0530   0.50    1.3
1651 465681.000   48.780888763    8.917920487   493.0055   2  10   0.1209   0.0789   0.1546   0.0200  -0.0579   0.0522   0.00    1.3
1651 465681.500   48.780888826    8.917920513   493.0032   2  10   0.1194   0.0779   0.1527   0.0199  -0.0572   0.0515   0.50    1.3
1651 465682.000   48.780888855    8.917920469   493.0008   2  10   0.1179   0.0770   0.1509   0.0197  -0.0565   0.0508   0.00    1.3
1651 465682.500   48.780888827    8.917920440   492.9996   2  10   0.1165   0.0761   0.1491   0.0194  -0.0559   0.0501   0.50    1.3
1651 465683.000   48.780888879    8.917920478   493.0138   2  10   0.1152   0.0753   0.1474   0.0192  -0.0552   0.0495   0.00    1.3
1651 465683.500   48.780888906    8.917920516   493.0269   2  10   0.1139   0.0745   0.1458   0.0191  -0.0546   0.0488   0.50    1.3
1651 465684.000   48.780889003    8.917920499   493.0251   2  10   0.1126   0.0737   0.1442   0.0189  -0.0540   0.0482   0.00    1.3
1651 465684.500   48.780889078    8.917920492   493.0165   2  10   0.1113   0.0729   0.1426   0.0187  -0.0534   0.0476   0.50    1.3
1651 465685.000   48.780889078    8.917920512   493.0172   2  10   0.1101   0.0721   0.1411   0.0186  -0.0528   0.0470   0.00    1.3
1651 465685.500   48.780889070    8.917920525   493.0192   2  10   0.1090   0.0714   0.1397   0.0184  -0.0523   0.0464   0.50    1.3
1651 465686.000   48.780889089    8.917920536   493.0216   2  10   0.1079   0.0707   0.1382   0.0182  -0.0518   0.0459   0.00    1.3
1651 465686.500   48.780889113    8.917920557   493.0227   2  10   0.1068   0.0700   0.1369   0.0181  -0.0512   0.0453   0.50    1.3
1651 465687.000   48.780889094    8.917920498   493.0186   2  10   0.1057   0.0694   0.1355   0.0180  -0.0507   0.0448   0.00    1.3
1651 465687.500   48.780889069    8.917920483   493.0146   2  10   0.1046   0.0687   0.1342   0.0178  -0.0502   0.0443   0.50    1.3
1651 465688.000   48.780889053    8.917920413   493.0087   2  10   0.1036   0.0681   0.1329   0.0176  -0.0497   0.0437   0.00    1.3
1651 465688.500   48.780889070    8.917920330   493.0144   2  10   0.1026   0.0675   0.1317   0.0175  -0.0493   0.0432   0.50    1.3
1651 465689.000   48.780889150    8.917920310   493.0150   2  10   0.1017   0.0669   0.1305   0.0174  -0.0488   0.0428   0.00    1.3
1651 465689.500   48.780889177    8.917920303   493.0193   2  10   0.1007   0.0663   0.1293   0.0172  -0.0484   0.0423   0.50    1.3
1651 465690.000   48.780889153    8.917920288   493.0161   2  10   0.0998   0.0657   0.1282   0.0171  -0.0480   0.0418   0.00    1.3
1651 465690.500   48.780889133    8.917920304   493.0137   2  10   0.0989   0.0652   0.1271   0.0170  -0.0475   0.0413   0.50    1.3
1651 465691.000   48.780889201    8.917920302   493.0107   2  10   0.0980   0.0646   0.1260   0.0170  -0.0472   0.0409   0.00    1.3
1651 465691.500   48.780889255    8.917920324   493.0068   2  10   0.0972   0.0641   0.1249   0.0168  -0.0467   0.0405   0.50    1.3
1651 465692.000   48.780889301    8.917920280   492.9969   2  10   0.0963   0.0636   0.1238   0.0167  -0.0463   0.0400   0.00    1.3
1651 465692.500   48.780889332    8.917920289   492.9920   2  10   0.0955   0.0631   0.1228   0.0166  -0.0460   0.0396   0.50    1.3
1651 465693.000   48.780889282    8.917920363   492.9857   2  10   0.0947   0.0626   0.1218   0.0165  -0.0456   0.0392   0.00    1.3
1651 465693.500   48.780889260    8.917920418   492.9819   2  10   0.0939   0.0621   0.1209   0.0164  -0.0452   0.0388   0.50    1.3
1651 465694.000   48.780889259    8.917920369   492.9805   2  10   0.0932   0.0617   0.1199   0.0163  -0.0449   0.0383   0.00    1.3
1651 465694.500   48.780889229    8.917920356   492.9875   2  10   0.0924   0.0612   0.1190   0.0162  -0.0445   0.0379   0.50    1.3
1651 465695.000   48.780889193    8.917920312   492.9868   2  10   0.0917   0.0607   0.1181   0.0161  -0.0442   0.0376   0.00    1.3
1651 465695.500   48.780889193    8.917920268   492.9851   2  10   0.0910   0.0603   0.1172   0.0160  -0.0438   0.0372   0.50    1.3
1651 465696.000   48.780889200    8.917920249   492.9908   2  10   0.0903   0.0599   0.1163   0.0159  -0.0435   0.0368   0.00    1.3
1651 465696.500   48.780889207    8.917920259   492.9994   2  10   0.0896   0.0595   0.1154   0.0158  -0.0432   0.0364   0.50    1.3
1651 465697.000   48.780889207    8.917920230   493.0043   2  10   0.0889   0.0591   0.1146   0.0157  -0.0429   0.0360   0.00    1.3
1651 465697.500   48.780889191    8.917920215   493.0060   2  10   0.0882   0.0587   0.1137   0.0157  -0.0426   0.0357   0.50    1.3
1651 465698.000   48.780889178    8.917920260   493.0032   2  10   0.0875   0.0583   0.1129   0.0155  -0.0423   0.0353   0.00    1.3
1651 465698.500   48.780889156    8.917920260   493.0047   2  10   0.0869   0.0579   0.1121   0.0154  -0.0420   0.0350   0.50    1.3
1651 465699.000   48.780889158    8.917920216   492.9971   2  10   0.0863   0.0575   0.1114   0.0154  -0.0417   0.0346   0.00    1.3
1651 465699.500   48.780889142    8.917920173   492.9899   2  10   0.0856   0.0571   0.1106   0.0153  -0.0414   0.0343   0.50    1.3
1651 465700.000   48.780889171    8.917920221   492.9896   2  10   0.0850   0.0568   0.1098   0.0152  -0.0411   0.0339   0.00    1.3
1651 465700.500   48.780889161    8.917920241   492.9918   2  10   0.0844   0.0564   0.1091   0.0151  -0.0408   0.0336   0.50    1.3
1651 465701.000   48.780889151    8.917920258   492.9963   2  10   0.0838   0.0561   0.1084   0.0150  -0.0405   0.0332   0.00    1.3
1651 465701.500   48.780889160    8.917920266   493.0019   2  10   0.0833   0.0557   0.1076   0.0150  -0.0403   0.0329   0.50    1.2
1651 465702.000   48.780889173    8.917920241   493.0041   2  10   0.0827   0.0554   0.1069   0.0149  -0.0400   0.0326   0.00    1.2
1651 465702.500   48.780889138    8.917920242   493.0112   2  10   0.0821   0.0551   0.1063   0.0148  -0.0398   0.0323   0.50    1.2
1651 465703.000   48.780889119    8.917920246   493.0128   2  10   0.0816   0.0547   0.1056   0.0148  -0.0395   0.0320   0.00    1.2
1651 465703.500   48.780889083    8.917920280   493.0140   2  10   0.0810   0.0544   0.1049   0.0146  -0.0392   0.0316   0.50    1.2
1651 465704.000   48.780889068    8.917920319   493.0082   2  10   0.0805   0.0541   0.1042   0.0146  -0.0390   0.0313   0.00    1.2
1651 465704.500   48.780889039    8.917920335   493.0060   2  10   0.0800   0.0538   0.1036   0.0146  -0.0388   0.0310   0.50    1.2
1651 465705.000   48.780889024    8.917920272   492.9991   2  10   0.0794   0.0535   0.1030   0.0145  -0.0385   0.0307   0.00    1.2
1651 465705.500   48.780889015    8.917920286   492.9974   2  10   0.0789   0.0531   0.1023   0.0144  -0.0383   0.0304   0.50    1.2
1651 465706.000   48.780888987    8.917920308   492.9984   2  10   0.0784   0.0528   0.1017   0.0144  -0.0381   0.0301   0.00    1.2
1651 465706.500   48.780888933    8.917920283   493.0031   2  10   0.0779   0.0526   0.1011   0.0143  -0.0378   0.0298   0.50    1.2
1651 465707.000   48.780888906    8.917920247   493.0008   2  10   0.0774   0.0523   0.1005   0.0143  -0.0376   0.0295   0.00    1.2
1651 465707.500   48.780888876    8.917920239   493.0025   2  10   0.0769   0.0520   0.0999   0.0141  -0.0374   0.0293   0.50    1.2
1651 465708.000   48.780888835    8.917920260   492.9992   2  10   0.0765   0.0517   0.0993   0.0141  -0.0372   0.0290   0.00    1.2
1651 465708.500   48.780888781    8.917920277   492.9941   2  10   0.0760   0.0515   0.0988   0.0140  -0.0370   0.0287   0.50    1.2
1651 465709.000   48.780888741    8.917920221   492.9922   2  10   0.0755   0.0512   0.0982   0.0140  -0.0368   0.0284   0.00    1.2
1651 465709.500   48.780888708    8.917920232   492.9919   2  10   0.0751   0.0509   0.0976   0.0140  -0.0366   0.0281   0.50    1.2
1651 465710.000   48.780888752    8.917920200   492.9932   2  10   0.0746   0.0507   0.0971   0.0139  -0.0364   0.0278   0.00    1.2
1651 465710.500   48.780888728    8.917920230   492.9932   2  10   0.0742   0.0504   0.0965   0.0138  -0.0362   0.0276   0.50    1.2
1651 465711.000   48.780888702    8.917920269   492.9907   2  10   0.0737   0.0501   0.0960   0.0137  -0.0360   0.0273   0.00    1.2
1651 465711.500   48.780888695    8.917920262   492.9864   2  10   0.0733   0.0499   0.0955   0.0137  -0.0358   0.0270   0.50    1.2
1651 465712.000   48.780888718    8.917920241   492.9837   2  10   0.0729   0.0497   0.0950   0.0136  -0.0356   0.0268   0.00    1.2
1651 465712.500   48.780888724    8.917920235   492.9871   2  10   0.0724   0.0494   0.0944   0.0136  -0.0354   0.0265   0.50    1.2
1651 465713.000   48.780888713    8.917920230   492.9893   2  10   0.0720   0.0492   0.0939   0.0136  -0.0352   0.0262   0.00    1.2
1651 465713.500   48.780888707    8.917920199   492.9918   2  10   0.0716   0.0489   0.0934   0.0135  -0.0350   0.0260   0.50    1.2
1651 465714.000   48.780888751    8.917920159   492.9870   2  10   0.0712   0.0487   0.0929   0.0135  -0.0348   0.0257   0.00    1.2
1651 465714.500   48.780888760    8.917920163   492.9856   2  10   0.0708   0.0485   0.0925   0.0134  -0.0347   0.0255   0.50    1.2
1651 465715.000   48.780888810    8.917920131   492.9839   2  10   0.0704   0.0483   0.0920   0.0133  -0.0345   0.0252   0.00    1.2
1651 465715.500   48.780888824    8.917920125   492.9826   2  10   0.0700   0.0481   0.0915   0.0132  -0.0343   0.0249   0.50    1.2
1651 465716.000   48.780888819    8.917920133   492.9875   2  10   0.0696   0.0478   0.0910   0.0132  -0.0341   0.0247   0.00    1.2
1651 465716.500   48.780888806    8.917920148   492.9874   2  10   0.0692   0.0476   0.0906   0.0131  -0.0339   0.0244   0.50    1.2
1651 465717.000   48.780888793    8.917920119   492.9892   2  10   0.0688   0.0474   0.0901   0.0132  -0.0338   0.0242   0.00    1.2
1651 465717.500   48.780888783    8.917920091   492.9871   2  10   0.0685   0.0472   0.0897   0.0131  -0.0336   0.0239   0.50    1.2
1651 465718.000   48.780888820    8.917920079   492.9820   2  10   0.0681   0.0470   0.0892   0.0130  -0.0334   0.0237   0.00    1.2
1651 465718.500   48.780888802    8.917920101   492.9794   2  10   0.0677   0.0468   0.0888   0.0130  -0.0333   0.0234   0.50    1.2
1651 465719.000   48.780888771    8.917920101   492.9776   2  10   0.0674   0.0466   0.0883   0.0129  -0.0331   0.0232   0.00    1.2
1651 465719.500   48.780888742    8.917920110   492.9750   2  10   0.0670   0.0464   0.0879   0.0129  -0.0330   0.0230   0.50    1.2
1651 465720.000   48.780888733    8.917920110   492.9744   2  10   0.0667   0.0462   0.0875   0.0128  -0.0328   0.0227   0.00    1.2
1651 465720.500   48.780888723    8.917920110   492.9733   2  10   0.0663   0.0460   0.0870   0.0128  -0.0326   0.0225   0.50    1.2
1651 465721.000   48.780888737    8.917920099   492.9784   2  10   0.0660   0.0458   0.0866   0.0128  -0.0325   0.0223   0.00    1.2
1651 465721.500   48.780888723    8.917920135   492.9790   2  10   0.0656   0.0456   0.0862   0.0127  -0.0323   0.0220   0.50    1.2
1651 465722.000   48.780888729    8.917920086   492.9753   2  10   0.0653   0.0454   0.0858   0.0128  -0.0322   0.0218   0.00    1.2
1651 465722.500   48.780888736    8.917920073   492.9758   2  10   0.0649   0.0452   0.0854   0.0127  -0.0321   0.0215   0.50    1.2
1651 465723.000   48.780888721    8.917920043   492.9727   2  10   0.0646   0.0450   0.0850   0.0126  -0.0319   0.0213   0.00    1.2
1651 465723.500   48.780888687    8.917920067   492.9721   2  10   0.0643   0.0449   0.0846   0.0125  -0.0317   0.0211   0.50    1.2
1651 465724.000   48.780888683    8.917920071   492.9712   2  10   0.0639   0.0447   0.0842   0.0125  -0.0316   0.0208   0.00    1.2
1651 465724.500   48.780888692    8.917920099   492.9683   2  10   0.0636   0.0445   0.0838   0.0125  -0.0315   0.0206   0.50    1.2
1651 465725.000   48.780888687    8.917920076   492.9627   2  10   0.0633   0.0444   0.0834   0.0124  -0.0313   0.0204   0.00    1.2
1651 465725.500   48.780888645    8.917920085   492.9580   2  10   0.0630   0.0442   0.0831   0.0124  -0.0312   0.0201   0.50    1.2
1651 465726.000   48.780888643    8.917920108   492.9575   2  10   0.0627   0.0440   0.0827   0.0124  -0.0310   0.0199   0.00    1.2
1651 465726.500   48.780888610    8.917920132   492.9526   2  10   0.0624   0.0438   0.0823   0.0123  -0.0309   0.0197   0.50    1.2
1651 465727.000   48.780888620    8.917920123   492.9465   2  10   0.0620   0.0437   0.0819   0.0123  -0.0307   0.0195   0.00    1.2
1651 465727.500   48.780888645    8.917920145   492.9440   2  10   0.0617   0.0435   0.0816   0.0122  -0.0306   0.0192   0.50    1.2
1651 465728.000   48.780888656    8.917920125   492.9378   2  10   0.0614   0.0433   0.0812   0.0122  -0.0305   0.0190   0.00    1.2
1651 465728.500   48.780888664    8.917920139   492.9320   2  10   0.0611   0.0432   0.0809   0.0122  -0.0304   0.0188   0.50    1.2
1651 465729.000   48.780888678    8.917920118   492.9246   2  10   0.0608   0.0430   0.0805   0.0122  -0.0303   0.0186   0.00    1.2
1651 465729.500   48.780888685    8.917920109   492.9198   2  10   0.0605   0.0429   0.0802   0.0121  -0.0301   0.0184   0.50    1.2
1651 465730.000   48.780888690    8.917920088   492.9187   2  10   0.0603   0.0427   0.0798   0.0121  -0.0300   0.0181   0.00    1.2
1651 465730.500   48.780888671    8.917920067   492.9166   2  10   0.0600   0.0425   0.0795   0.0120  -0.0299   0.0179   0.50    1.2
1651 465731.000   48.780888673    8.917920067   492.9122   2  10   0.0597   0.0424   0.0791   0.0120  -0.0297   0.0177   0.00    1.2
1651 465731.500   48.780888637    8.917920050   492.9094   2  10   0.0594   0.0422   0.0788   0.0119  -0.0296   0.0175   0.50    1.2
1651 465732.000   48.780888661    8.917920031   492.9062   2  10   0.0591   0.0420   0.0785   0.0119  -0.0295   0.0173   0.00    1.2
1651 465732.500   48.780888649    8.917920027   492.9024   2  10   0.0588   0.0419   0.0781   0.0119  -0.0294   0.0170   0.50    1.2
1651 465733.000   48.780888722    8.917919994   492.9127   2  10   0.0586   0.0418   0.0778   0.0118  -0.0292   0.0168   0.00    1.2
1651 465733.500   48.780888716    8.917920027   492.9092   2  10   0.0583   0.0416   0.0775   0.0118  -0.0291   0.0166   0.50    1.2
1651 465734.000   48.780888724    8.917919990   492.9077   2  10   0.0580   0.0415   0.0772   0.0117  -0.0290   0.0164   0.00    1.2
1651 465734.500   48.780888733    8.917920015   492.9059   2  10   0.0578   0.0413   0.0768   0.0117  -0.0289   0.0162   0.50    1.2
1651 465735.000   48.780888734    8.917919987   492.9053   2  10   0.0575   0.0412   0.0765   0.0117  -0.0288   0.0159   0.00    1.2
1651 465735.500   48.780888740    8.917919995   492.9018   2  10   0.0572   0.0411   0.0762   0.0117  -0.0287   0.0157   0.50    1.2
1651 465736.000   48.780888714    8.917919961   492.9041   2  10   0.0570   0.0409   0.0759   0.0116  -0.0285   0.0155   0.00    1.2
1651 465736.500   48.780888724    8.917919948   492.9031   2  10   0.0567   0.0408   0.0756   0.0116  -0.0284   0.0153   0.50    1.2
1651 465737.000   48.780888697    8.917919932   492.9000   2  10   0.0565   0.0407   0.0753   0.0115  -0.0283   0.0151   0.00    1.2
1651 465737.500   48.780888671    8.917919925   492.8996   2  10   0.0562   0.0405   0.0750   0.0115  -0.0282   0.0149   0.50    1.2
1651 465738.000   48.780888654    8.917919876   492.8975   2  10   0.0559   0.0404   0.0747   0.0115  -0.0281   0.0147   0.00    1.2
1651 465738.500   48.780888653    8.917919815   492.8966   2  10   0.0557   0.0403   0.0744   0.0115  -0.0280   0.0144   0.50    1.2
1651 465739.000   48.780888659    8.917919829   492.8950   2  10   0.0554   0.0401   0.0741   0.0114  -0.0279   0.0142   0.00    1.2
1651 465739.500   48.780888652    8.917919800   492.8978   2  10   0.0552   0.0400   0.0738   0.0114  -0.0278   0.0140   0.50    1.2
1651 465740.000   48.780888626    8.917919782   492.8986   2  10   0.0550   0.0399   0.0735   0.0114  -0.0277   0.0138   0.00    1.2
1651 465740.500   48.780888602    8.917919786   492.8943   2  10   0.0547   0.0397   0.0732   0.0113  -0.0276   0.0136   0.50    1.2
1651 465741.000   48.780888601    8.917919758   492.8910   2  10   0.0545   0.0396   0.0729   0.0113  -0.0275   0.0133   0.00    1.2
1651 465741.500   48.780888577    8.917919748   492.8889   2  10   0.0542   0.0395   0.0727   0.0112  -0.0273   0.0131   0.50    1.2
1651 465742.000   48.780888521    8.917919766   492.8844   2  10   0.0540   0.0394   0.0724   0.0113  -0.0273   0.0129   0.00    1.2
1651 465742.500   48.780888537    8.917919763   492.8832   2  10   0.0538   0.0393   0.0721   0.0112  -0.0271   0.0127   0.50    1.2
1651 465743.000   48.780888541    8.917919733   492.8845   2  10   0.0535   0.0391   0.0718   0.0111  -0.0270   0.0125   0.00    1.2
1651 465743.500   48.780888511    8.917919715   492.8825   2  10   0.0533   0.0390   0.0715   0.0111  -0.0269   0.0122   0.50    1.2
1651 465744.000   48.780888475    8.917919713   492.8749   2  10   0.0531   0.0389   0.0713   0.0111  -0.0268   0.0120   0.00    1.2
1651 465744.500   48.780888466    8.917919717   492.8773   2  10   0.0528   0.0388   0.0710   0.0110  -0.0268   0.0118   0.50    1.2
1651 465745.000   48.780888474    8.917919715   492.8805   2  10   0.0526   0.0386   0.0707   0.0111  -0.0267   0.0116   0.00    1.2
1651 465745.500   48.780888473    8.917919705   492.8820   2  10   0.0524   0.0385   0.0705   0.0110  -0.0265   0.0113   0.50    1.2
1651 465746.000   48.780888480    8.917919673   492.8866   2  10   0.0522   0.0384   0.0702   0.0111  -0.0265   0.0111   0.00    1.2
1651 465746.500   48.780888484    8.917919690   492.8850   2  10   0.0520   0.0383   0.0700   0.0109  -0.0264   0.0109   0.50    1.2
1651 465747.000   48.780888457    8.917919666   492.8852   2  10   0.0517   0.0382   0.0697   0.0109  -0.0263   0.0107   0.00    1.2
1651 465747.500   48.780888451    8.917919680   492.8841   2  10   0.0515   0.0381   0.0694   0.0109  -0.0262   0.0104   0.50    1.2
1651 465748.000   48.780888454    8.917919669   492.8805   2  10   0.0513   0.0380   0.0692   0.0109  -0.0261   0.0102   0.00    1.2
1651 465748.500   48.780888435    8.917919663   492.8794   2  10   0.0511   0.0379   0.0689   0.0108  -0.0260   0.0100   0.50    1.2
1651 465749.000   48.780888454    8.917919652   492.8725   2  10   0.0509   0.0378   0.0687   0.0108  -0.0259   0.0097   0.00    1.2
1651 465749.500   48.780888459    8.917919635   492.8670   2  10   0.0507   0.0377   0.0684   0.0108  -0.0258   0.0095   0.50    1.2
1651 465750.000   48.780888450    8.917919659   492.8680   2  10   0.0505   0.0375   0.0682   0.0108  -0.0257   0.0093   0.00    1.2
1651 465750.500   48.780888455    8.917919653   492.8631   2  10   0.0503   0.0374   0.0679   0.0107  -0.0256   0.0090   0.50    1.2
1651 465751.000   48.780888471    8.917919631   492.8576   2  10   0.0500   0.0373   0.0677   0.0107  -0.0255   0.0088   0.00    1.2
1651 465751.500   48.780888488    8.917919621   492.8596   2  10   0.0498   0.0372   0.0675   0.0106  -0.0254   0.0085   0.50    1.2
1651 465752.000   48.780888479    8.917919647   492.8647   2  10   0.0496   0.0371   0.0672   0.0107  -0.0254   0.0083   0.00    1.2
1651 465752.500   48.780888474    8.917919614   492.8636   2  10   0.0494   0.0370   0.0670   0.0106  -0.0253   0.0080   0.50    1.2
1651 465753.000   48.780888438    8.917919601   492.8588   2  10   0.0492   0.0369   0.0667   0.0106  -0.0252   0.0077   0.00    1.2
1651 465753.500   48.780888422    8.917919580   492.8593   2  10   0.0490   0.0368   0.0665   0.0105  -0.0251   0.0075   0.50    1.2
1651 465754.000   48.780888432    8.917919563   492.8534   2  10   0.0488   0.0367   0.0663   0.0105  -0.0250   0.0072   0.00    1.2
1651 465754.500   48.780888413    8.917919556   492.8519   2  10   0.0487   0.0366   0.0660   0.0105  -0.0249   0.0070   0.50    1.2
1651 465755.000   48.780888401    8.917919560   492.8472   2  10   0.0485   0.0365   0.0658   0.0105  -0.0248   0.0067   0.00    1.2
1651 465755.500   48.780888400    8.917919559   492.8485   2  10   0.0483   0.0364   0.0656   0.0104  -0.0248   0.0063   0.50    1.2
1651 465756.000   48.780888421    8.917919543   492.8442   2  10   0.0481   0.0363   0.0654   0.0104  -0.0247   0.0060   0.00    1.2
1651 465756.500   48.780888395    8.917919542   492.8434   2  10   0.0479   0.0362   0.0651   0.0104  -0.0246   0.0057   0.50    1.2
1651 465757.000   48.780888410    8.917919554   492.8411   2  10   0.0477   0.0361   0.0649   0.0104  -0.0245   0.0054   0.00    1.2
1651 465757.500   48.780888414    8.917919549   492.8400   2  10   0.0475   0.0361   0.0647   0.0103  -0.0244   0.0050   0.50    1.2
1651 465758.000   48.780888366    8.917919507   492.8412   2  10   0.0473   0.0359   0.0645   0.0103  -0.0243   0.0047   0.00    1.2
1651 465758.500   48.780888371    8.917919508   492.8415   2  10   0.0471   0.0358   0.0642   0.0102  -0.0243   0.0043   0.50    1.2
1651 465759.000   48.780888386    8.917919545   492.8330   2  10   0.0470   0.0357   0.0640   0.0103  -0.0242   0.0039   0.00    1.2
1651 465759.500   48.780888377    8.917919541   492.8338   2  10   0.0468   0.0357   0.0638   0.0102  -0.0241   0.0034   0.50    1.2
1651 465760.000   48.780888321    8.917919554   492.8329   2  10   0.0466   0.0356   0.0636   0.0102  -0.0240   0.0029   0.00    1.2
1651 465760.500   48.780888347    8.917919521   492.8356   2  10   0.0464   0.0355   0.0634   0.0102  -0.0240   0.0022   0.50    1.2
1651 465761.000   48.780888348    8.917919564   492.8304   2  10   0.0462   0.0354   0.0632   0.0101  -0.0239   0.0012   0.00    1.2
1651 465761.500   48.780888353    8.917919556   492.8309   2  10   0.0461   0.0353   0.0630   0.0101  -0.0238  -0.0013   0.50    1.2
1651 465762.000   48.780888334    8.917919526   492.8270   2  10   0.0459   0.0352   0.0627   0.0101  -0.0237  -0.0022   0.00    1.2
1651 465762.500   48.780888327    8.917919542   492.8251   2  10   0.0457   0.0351   0.0625   0.0101  -0.0236  -0.0028   0.50    1.2
1651 465763.000   48.780888325    8.917919527   492.8281   2  10   0.0455   0.0350   0.0623   0.0100  -0.0236  -0.0033   0.00    1.2
1651 465763.500   48.780888312    8.917919510   492.8286   2  10   0.0454   0.0350   0.0621   0.0099  -0.0235  -0.0039   0.50    1.2
1651 465764.000   48.780888346    8.917919515   492.8276   2  10   0.0452   0.0348   0.0619   0.0099  -0.0234  -0.0041   0.00    1.2
1651 465764.500   48.780888352    8.917919517   492.8261   2  10   0.0450   0.0348   0.0617   0.0099  -0.0233  -0.0045   0.50    1.2
1651 465765.000   48.780888356    8.917919536   492.8206   2  10   0.0448   0.0347   0.0615   0.0099  -0.0232  -0.0048   0.00    1.2
1651 465765.500   48.780888354    8.917919549   492.8210   2  10   0.0447   0.0346   0.0613   0.0100  -0.0232  -0.0051   0.50    1.2
1651 465766.000   48.780888342    8.917919518   492.8261   2  10   0.0445   0.0345   0.0611   0.0098  -0.0231  -0.0053   0.00    1.2
1651 465766.500   48.780888328    8.917919506   492.8248   2  10   0.0443   0.0344   0.0609   0.0098  -0.0230  -0.0056   0.50    1.2
1651 465767.000   48.780888313    8.917919517   492.8200   2  10   0.0442   0.0344   0.0607   0.0099  -0.0230  -0.0058   0.00    1.2
1651 465767.500   48.780888326    8.917919521   492.8185   2  10   0.0440   0.0343   0.0606   0.0097  -0.0229  -0.0061   0.50    1.1
1651 465768.000   48.780888345    8.917919480   492.8216   2  10   0.0439   0.0342   0.0604   0.0098  -0.0228  -0.0063   0.00    1.1
1651 465768.500   48.780888332    8.917919472   492.8227   2  10   0.0437   0.0341   0.0602   0.0098  -0.0228  -0.0065   0.50    1.1
1651 465769.000   48.780888351    8.917919500   492.8231   2  10   0.0435   0.0340   0.0600   0.0097  -0.0227  -0.0067   0.00    1.1
1651 465769.500   48.780888340    8.917919496   492.8223   2  10   0.0434   0.0339   0.0598   0.0097  -0.0226  -0.0068   0.50    1.1
1651 465770.000   48.780888327    8.917919510   492.8235   2  10   0.0432   0.0338   0.0596   0.0097  -0.0226  -0.0070   0.00    1.1
1651 465770.500   48.780888339    8.917919472   492.8238   2  10   0.0431   0.0338   0.0594   0.0097  -0.0225  -0.0072   0.50    1.1
1651 465771.000   48.780888342    8.917919438   492.8211   2  10   0.0429   0.0337   0.0592   0.0097  -0.0224  -0.0074   0.00    1.1
1651 465771.500   48.780888338    8.917919465   492.8229   2  10   0.0428   0.0336   0.0590   0.0096  -0.0223  -0.0075   0.50    1.1
1651 465772.000   48.780888313    8.917919484   492.8189   2  10   0.0426   0.0335   0.0588   0.0096  -0.0223  -0.0077   0.00    1.1
1651 465772.500   48.780888303    8.917919482   492.8187   2  10   0.0424   0.0334   0.0587   0.0095  -0.0222  -0.0078   0.50    1.1
1651 465773.000   48.780888312    8.917919439   492.8220   2  10   0.0423   0.0334   0.0585   0.0095  -0.0221  -0.0080   0.00    1.1
1651 465773.500   48.780888300    8.917919447   492.8211   2  10   0.0421   0.0333   0.0583   0.0095  -0.0221  -0.0081   0.50    1.1
1651 465774.000   48.780888280    8.917919447   492.8147   2  10   0.0420   0.0333   0.0581   0.0095  -0.0220  -0.0082   0.00    1.1
1651 465774.500   48.780888270    8.917919449   492.8177   2  10   0.0418   0.0331   0.0580   0.0095  -0.0220  -0.0084   0.50    1.1
1651 465775.000   48.780888266    8.917919435   492.8182   2  10   0.0417   0.0331   0.0578   0.0094  -0.0219  -0.0085   0.00    1.1
1651 465775.500   48.780888264    8.917919409   492.8205   2  10   0.0415   0.0330   0.0576   0.0093  -0.0218  -0.0086   0.50    1.1
1651 465776.000   48.780888214    8.917919397   492.8184   2  10   0.0414   0.0329   0.0574   0.0094  -0.0217  -0.0087   0.00    1.1
1651 465776.500   48.780888224    8.917919382   492.8187   2  10   0.0413   0.0329   0.0573   0.0093  -0.0217  -0.0089   0.50    1.1
1651 465777.000   48.780888253    8.917919372   492.8180   2  10   0.0411   0.0328   0.0571   0.0093  -0.0216  -0.0090   0.00    1.1
1651 465777.500   48.780888246    8.917919384   492.8179   2  10   0.0410   0.0327   0.0569   0.0094  -0.0216  -0.0090   0.50    1.1
1651 465778.000   48.780888266    8.917919366   492.8207   2  10   0.0408   0.0326   0.0567   0.0093  -0.0215  -0.0092   0.00    1.1
1651 465778.500   48.780888258    8.917919356   492.8202   2  10   0.0407   0.0326   0.0566   0.0092  -0.0214  -0.0093   0.50    1.1
1651 465779.000   48.780888264    8.917919351   492.8164   2  10   0.0406   0.0325   0.0564   0.0092  -0.0214  -0.0094   0.00    1.1
1651 465779.500   48.780888267    8.917919363   492.8204   2  10   0.0404   0.0324   0.0562   0.0092  -0.0213  -0.0095   0.50    1.1
1651 465780.000   48.780888264    8.917919356   492.8210   2  10   0.0403   0.0324   0.0561   0.0092  -0.0212  -0.0096   0.00    1.1
1651 465780.500   48.780888246    8.917919350   492.8238   2  10   0.0401   0.0323   0.0559   0.0091  -0.0212  -0.0097   0.50    1.1
1651 465781.000   48.780888284    8.917919344   492.8207   2  10   0.0400   0.0323   0.0557   0.0091  -0.0211  -0.0097   0.00    1.1
1651 465781.500   48.780888269    8.917919336   492.8196   2  10   0.0399   0.0322   0.0556   0.0091  -0.0211  -0.0099   0.50    1.1
1651 465782.000   48.780888274    8.917919280   492.8209   2  10   0.0397   0.0321   0.0554   0.0091  -0.0210  -0.0099   0.00    1.1
1651 465782.500   48.780888270    8.917919266   492.8221   2  10   0.0396   0.0321   0.0553   0.0090  -0.0209  -0.0101   0.50    1.1
1651 465783.000   48.780888281    8.917919277   492.8209   2  10   0.0394   0.0320   0.0551   0.0090  -0.0209  -0.0101   0.00    1.1
1651 465783.500   48.780888265    8.917919277   492.8221   2  10   0.0393   0.0319   0.0549   0.0091  -0.0208  -0.0101   0.50    1.1
1651 465784.000   48.780888281    8.917919279   492.8223   2  10   0.0392   0.0319   0.0548   0.0089  -0.0207  -0.0103   0.00    1.1
1651 465784.500   48.780888254    8.917919260   492.8197   2  10   0.0391   0.0318   0.0546   0.0089  -0.0207  -0.0103   0.50    1.1
1651 465785.000   48.780888260    8.917919268   492.8155   2  10   0.0389   0.0317   0.0544   0.0091  -0.0207  -0.0104   0.00    1.1
1651 465785.500   48.780888264    8.917919255   492.8158   2  10   0.0388   0.0316   0.0543   0.0089  -0.0206  -0.0105   0.50    1.1
1651 465786.000   48.780888242    8.917919247   492.8146   2  10   0.0386   0.0316   0.0541   0.0089  -0.0205  -0.0105   0.00    1.1
1651 465786.500   48.780888243    8.917919246   492.8159   2  10   0.0385   0.0315   0.0540   0.0088  -0.0205  -0.0106   0.50    1.1
1651 465787.000   48.780888250    8.917919221   492.8162   2  10   0.0384   0.0314   0.0538   0.0088  -0.0204  -0.0107   0.00    1.1
1651 465787.500   48.780888245    8.917919230   492.8168   2  10   0.0383   0.0314   0.0537   0.0089  -0.0203  -0.0107   0.50    1.1
1651 465788.000   48.780888260    8.917919244   492.8195   2  10   0.0381   0.0313   0.0535   0.0088  -0.0203  -0.0108   0.00    1.1
1651 465788.500   48.780888259    8.917919231   492.8185   2  10   0.0380   0.0312   0.0534   0.0088  -0.0203  -0.0109   0.50    1.1
1651 465789.000   48.780888270    8.917919213   492.8207   2  10   0.0379   0.0312   0.0532   0.0088  -0.0202  -0.0109   0.00    1.1
1651 465789.500   48.780888266    8.917919196   492.8231   2  10   0.0378   0.0312   0.0531   0.0088  -0.0201  -0.0110   0.50    1.0
1651 465790.000   48.780888273    8.917919139   492.8202   2  10   0.0376   0.0310   0.0529   0.0087  -0.0200  -0.0111   0.00    1.0
1651 465790.500   48.780888265    8.917919142   492.8218   2  10   0.0375   0.0310   0.0528   0.0088  -0.0200  -0.0111   0.50    1.0
1651 465791.000   48.780888266    8.917919127   492.8233   2  10   0.0374   0.0309   0.0526   0.0087  -0.0200  -0.0112   0.00    1.0
1651 465791.500   48.780888260    8.917919123   492.8212   2  10   0.0373   0.0309   0.0525   0.0086  -0.0199  -0.0112   0.50    1.0
1651 465792.000   48.780888275    8.917919106   492.8253   2  10   0.0372   0.0308   0.0523   0.0086  -0.0199  -0.0113   0.00    1.0
1651 465792.500   48.780888282    8.917919120   492.8256   2  10   0.0370   0.0307   0.0522   0.0087  -0.0198  -0.0113   0.50    1.0
1651 465793.000   48.780888283    8.917919099   492.8305   2  10   0.0369   0.0307   0.0520   0.0086  -0.0197  -0.0114   0.00    1.0
1651 465793.500   48.780888278    8.917919110   492.8297   2  10   0.0368   0.0306   0.0519   0.0086  -0.0197  -0.0114   0.50    1.0
1651 465794.000   48.780888255    8.917919100   492.8274   2  10   0.0367   0.0306   0.0517   0.0086  -0.0197  -0.0115   0.00    1.0
1651 465794.500   48.780888257    8.917919108   492.8291   2  10   0.0366   0.0305   0.0516   0.0085  -0.0196  -0.0115   0.50    1.0
1651 465795.000   48.780888289    8.917919112   492.8344   2  10   0.0365   0.0304   0.0514   0.0085  -0.0195  -0.0116   0.00    1.0
1651 465795.500   48.780888292    8.917919127   492.8344   2  10   0.0364   0.0304   0.0513   0.0085  -0.0195  -0.0116   0.50    1.0
1651 465796.000   48.780888295    8.917919133   492.8327   2  10   0.0362   0.0304   0.0512   0.0084  -0.0194  -0.0117   0.00    1.0
1651 465796.500   48.780888278    8.917919137   492.8331   2  10   0.0361   0.0303   0.0510   0.0084  -0.0194  -0.0117   0.50    1.0
1651 465797.000   48.780888282    8.917919118   492.8320   2  10   0.0360   0.0302   0.0509   0.0084  -0.0193  -0.0117   0.00    1.0
1651 465797.500   48.780888309    8.917919101   492.8341   2  10   0.0359   0.0302   0.0508   0.0084  -0.0192  -0.0118   0.50    1.0
1651 465798.000   48.780888320    8.917919087   492.8331   2  10   0.0358   0.0301   0.0506   0.0083  -0.0192  -0.0118   0.00    1.0
1651 465798.500   48.780888322    8.917919119   492.8339   2  10   0.0357   0.0301   0.0505   0.0083  -0.0192  -0.0119   0.50    1.0
1651 465799.000   48.780888277    8.917919131   492.8331   2  10   0.0355   0.0299   0.0503   0.0084  -0.0191  -0.0119   0.00    1.0
1651 465799.500   48.780888292    8.917919126   492.8342   2  10   0.0354   0.0299   0.0502   0.0084  -0.0191  -0.0119   0.50    1.0
1651 465800.000   48.780888335    8.917919062   492.8373   2  10   0.0353   0.0299   0.0501   0.0082  -0.0190  -0.0120   0.00    1.0
1651 465800.500   48.780888315    8.917919061   492.8380   2  10   0.0352   0.0298   0.0500   0.0081  -0.0189  -0.0120   0.50    1.0
1651 465801.000   48.780888337    8.917919108   492.8376   2  10   0.0351   0.0298   0.0498   0.0081  -0.0189  -0.0121   0.00    1.0
1651 465801.500   48.780888341    8.917919080   492.8368   2  10   0.0350   0.0297   0.0497   0.0083  -0.0189  -0.0121   0.50    1.0
1651 465802.000   48.780888317    8.917919069   492.8358   2  10   0.0349   0.0297   0.0495   0.0083  -0.0188  -0.0121   0.00    1.0
1651 465802.500   48.780888328    8.917919084   492.8383   2  10   0.0348   0.0297   0.0494   0.0081  -0.0187  -0.0121   0.50    1.0
1651 465803.000   48.780888319    8.917919039   492.8442   2  10   0.0347   0.0296   0.0493   0.0081  -0.0187  -0.0122   0.00    1.0
1651 465803.500   48.780888322    8.917919033   492.8464   2  10   0.0346   0.0295   0.0492   0.0081  -0.0186  -0.0122   0.50    1.0
1651 465804.000   48.780888313    8.917919048   492.8438   2  10   0.0345   0.0294   0.0490   0.0081  -0.0186  -0.0122   0.00    1.0
1651 465804.500   48.780888327    8.917919066   492.8451   2  10   0.0344   0.0294   0.0489   0.0081  -0.0186  -0.0123   0.50    1.0
1651 465805.000   48.780888302    8.917919049   492.8472   2  10   0.0343   0.0294   0.0488   0.0081  -0.0185  -0.0123   0.00    1.0
1651 465805.500   48.780888295    8.917919052   492.8496   2  10   0.0341   0.0293   0.0486   0.0080  -0.0185  -0.0123   0.50    1.0
1651 465806.000   48.780888323    8.917919017   492.8471   2  10   0.0340   0.0292   0.0485   0.0080  -0.0184  -0.0124   0.00    1.0
1651 465806.500   48.780888319    8.917919014   492.8467   2  10   0.0340   0.0291   0.0484   0.0080  -0.0184  -0.0124   0.50    1.0
1651 465807.000   48.780888308    8.917919005   492.8470   2  10   0.0338   0.0291   0.0483   0.0080  -0.0183  -0.0124   0.00    1.0
1651 465807.500   48.780888333    8.917919012   492.8491   2  10   0.0337   0.0291   0.0481   0.0079  -0.0183  -0.0124   0.50    1.0
1651 465808.000   48.780888325    8.917919004   492.8479   2  10   0.0336   0.0291   0.0480   0.0078  -0.0182  -0.0125   0.00    1.0
1651 465808.500   48.780888322    8.917918995   492.8497   2  10   0.0336   0.0290   0.0479   0.0079  -0.0182  -0.0125   0.50    1.0
1651 465809.000   48.780888305    8.917918988   492.8482   2  10   0.0334   0.0289   0.0478   0.0079  -0.0181  -0.0125   0.00    1.0
1651 465809.500   48.780888313    8.917918989   492.8495   2  10   0.0334   0.0289   0.0476   0.0079  -0.0181  -0.0125   0.50    1.0
1651 465810.000   48.780888301    8.917919007   492.8482   2  10   0.0333   0.0288   0.0475   0.0080  -0.0181  -0.0125   0.00    1.0
1651 465810.500   48.780888305    8.917918986   492.8476   2  10   0.0331   0.0288   0.0474   0.0078  -0.0180  -0.0125   0.50    1.1
1651 465811.000   48.780888327    8.917918976   492.8451   2  10   0.0330   0.0287   0.0473   0.0077  -0.0180  -0.0126   0.00    1.1
1651 465811.500   48.780888315    8.917918975   492.8462   2  10   0.0330   0.0287   0.0472   0.0078  -0.0179  -0.0126   0.50    1.1
1651 465812.000   48.780888298    8.917918989   492.8488   2  10   0.0329   0.0286   0.0470   0.0077  -0.0179  -0.0126   0.00    1.1
1651 465812.500   48.780888304    8.917918984   492.8478   2  10   0.0328   0.0285   0.0469   0.0078  -0.0179  -0.0126   0.50    1.1
1651 465813.000   48.780888351    8.917918959   492.8471   2  10   0.0327   0.0286   0.0468   0.0076  -0.0177  -0.0127   0.00    1.1
1651 465813.500   48.780888349    8.917918998   492.8457   2  10   0.0326   0.0285   0.0467   0.0077  -0.0177  -0.0127   0.50    1.1
1651 465814.000   48.780888338    8.917918993   492.8477   2  10   0.0325   0.0284   0.0466   0.0077  -0.0177  -0.0127   0.00    1.1
1651 465814.500   48.780888347    8.917918996   492.8508   2  10   0.0324   0.0284   0.0465   0.0077  -0.0176  -0.0127   0.50    1.1
1651 465815.000   48.780888348    8.917918999   492.8455   2  10   0.0323   0.0283   0.0463   0.0077  -0.0176  -0.0128   0.00    1.1
1651 465815.500   48.780888355    8.917918999   492.8449   2  10   0.0322   0.0283   0.0462   0.0076  -0.0176  -0.0127   0.50    1.1
1651 465816.000   48.780888341    8.917919005   492.8467   2  10   0.0321   0.0283   0.0461   0.0076  -0.0175  -0.0128   0.00    1.1
1651 465816.500   48.780888332    8.917919038   492.8492   2  10   0.0320   0.0282   0.0460   0.0075  -0.0175  -0.0128   0.50    1.1
1651 465817.000   48.780888347    8.917919021   492.8512   2  10   0.0319   0.0281   0.0459   0.0076  -0.0174  -0.0128   0.00    1.1
1651 465817.500   48.780888347    8.917919007   492.8539   2  10   0.0318   0.0281   0.0458   0.0076  -0.0174  -0.0128   0.50    1.1
1651 465818.000   48.780888334    8.917918981   492.8528   2  10   0.0317   0.0280   0.0456   0.0076  -0.0174  -0.0128   0.00    1.1
1651 465818.500   48.780888319    8.917918993   492.8522   2  10   0.0316   0.0280   0.0455   0.0075  -0.0173  -0.0128   0.50    1.1
1651 465819.000   48.780888330    8.917918977   492.8562   2  10   0.0316   0.0279   0.0454   0.0074  -0.0173  -0.0128   0.00    1.1
1651 465819.500   48.780888332    8.917918996   492.8554   2  10   0.0315   0.0279   0.0453   0.0076  -0.0172  -0.0128   0.50    1.1
1651 465820.000   48.780888333    8.917918977   492.8609   2  10   0.0314   0.0279   0.0452   0.0075  -0.0171  -0.0128   0.00    1.1
1651 465820.500   48.780888328    8.917918981   492.8628   2  10   0.0313   0.0278   0.0451   0.0075  -0.0172  -0.0129   0.50    1.1
1651 465821.000   48.780888340    8.917918968   492.8581   2  10   0.0312   0.0278   0.0450   0.0074  -0.0171  -0.0129   0.00    1.1
1651 465821.500   48.780888337    8.917918955   492.8607   2  10   0.0311   0.0277   0.0449   0.0073  -0.0171  -0.0129   0.50    1.1
1651 465822.000   48.780888311    8.917918967   492.8666   2  10   0.0310   0.0277   0.0448   0.0074  -0.0170  -0.0129   0.00    1.1
1651 465822.500   48.780888310    8.917918978   492.8661   2  10   0.0310   0.0276   0.0447   0.0074  -0.0170  -0.0129   0.50    1.1
1651 465823.000   48.780888313    8.917918961   492.8688   2  10   0.0309   0.0276   0.0445   0.0073  -0.0169  -0.0129   0.00    1.1
1651 465823.500   48.780888303    8.917918955   492.8710   2  10   0.0308   0.0275   0.0444   0.0074  -0.0169  -0.0130   0.50    1.1
1651 465824.000   48.780888280    8.917918960   492.8668   2  10   0.0307   0.0275   0.0443   0.0074  -0.0169  -0.0129   0.00    1.1
1651 465824.500   48.780888302    8.917918957   492.8690   2  10   0.0306   0.0275   0.0442   0.0073  -0.0168  -0.0130   0.50    1.1
1651 465825.000   48.780888340    8.917918911   492.8733   2  10   0.0305   0.0274   0.0441   0.0073  -0.0168  -0.0130   0.00    1.1
1651 465825.500   48.780888347    8.917918903   492.8757   2  10   0.0304   0.0273   0.0440   0.0072  -0.0167  -0.0130   0.50    1.1
1651 465826.000   48.780888348    8.917918924   492.8718   2  10   0.0304   0.0273   0.0439   0.0073  -0.0167  -0.0130   0.00    1.1
1651 465826.500   48.780888332    8.917918927   492.8717   2  10   0.0303   0.0273   0.0438   0.0072  -0.0166  -0.0130   0.50    1.1
1651 465827.000   48.780888327    8.917918954   492.8706   2  10   0.0302   0.0272   0.0437   0.0071  -0.0166  -0.0130   0.00    1.1
1651 465827.500   48.780888322    8.917918962   492.8731   2  10   0.0301   0.0272   0.0436   0.0071  -0.0165  -0.0130   0.50    1.1
1651 465828.000   48.780888333    8.917918944   492.8828   2  10   0.0300   0.0272   0.0435   0.0070  -0.0165  -0.0130   0.00    1.1
1651 465828.500   48.780888301    8.917918958   492.8813   2  10   0.0300   0.0271   0.0434   0.0071  -0.0165  -0.0130   0.50    1.1
1651 465829.000   48.780888292    8.917918957   492.8770   2  10   0.0299   0.0271   0.0433   0.0071  -0.0164  -0.0130   0.00    1.1
1651 465829.500   48.780888285    8.917918951   492.8826   2  10   0.0298   0.0271   0.0432   0.0070  -0.0164  -0.0130   0.50    1.1
1651 465830.000   48.780888282    8.917918962   492.8847   2  10   0.0297   0.0270   0.0431   0.0071  -0.0163  -0.0130   0.00    1.1
1651 465830.500   48.780888291    8.917918962   492.8862   2  10   0.0296   0.0270   0.0430   0.0070  -0.0163  -0.0130   0.50    1.1
1651 465831.000   48.780888319    8.917918894   492.8874   2  10   0.0296   0.0269   0.0429   0.0069  -0.0163  -0.0130   0.00    1.1
1651 465831.500   48.780888323    8.917918924   492.8923   2  10   0.0295   0.0269   0.0428   0.0070  -0.0163  -0.0130   0.50    1.1
1651 465832.000   48.780888361    8.917918870   492.8874   2  10   0.0294   0.0269   0.0427   0.0069  -0.0162  -0.0131   0.00    1.1
1651 465832.500   48.780888354    8.917918866   492.8900   2  10   0.0293   0.0268   0.0426   0.0069  -0.0161  -0.0131   0.50    1.1
1651 465833.000   48.780888335    8.917918896   492.8932   2  10   0.0292   0.0268   0.0425   0.0070  -0.0161  -0.0131   0.00    1.1
1651 465833.500   48.780888316    8.917918867   492.8958   2  10   0.0292   0.0267   0.0424   0.0069  -0.0161  -0.0131   0.50    1.1
1651 465834.000   48.780888334    8.917918818   492.8957   2  10   0.0291   0.0267   0.0423   0.0068  -0.0160  -0.0131   0.00    1.1
1651 465834.500   48.780888293    8.917918852   492.8941   2  10   0.0290   0.0267   0.0422   0.0069  -0.0160  -0.0131   0.50    1.1
1651 465835.000   48.780888303    8.917918844   492.8959   2  10   0.0289   0.0266   0.0421   0.0068  -0.0160  -0.0131   0.00    1.1
1651 465835.500   48.780888326    8.917918847   492.9005   2  10   0.0289   0.0266   0.0420   0.0069  -0.0159  -0.0131   0.50    1.1
1651 465836.000   48.780888333    8.917918802   492.8993   2  10   0.0288   0.0265   0.0419   0.0068  -0.0159  -0.0131   0.00    1.1
1651 465836.500   48.780888331    8.917918824   492.9024   2  10   0.0287   0.0264   0.0418   0.0069  -0.0159  -0.0131   0.50    1.1
1651 465837.000   48.780888318    8.917918824   492.9012   2  10   0.0286   0.0264   0.0417   0.0070  -0.0159  -0.0131   0.00    1.1
1651 465837.500   48.780888340    8.917918847   492.9026   2  10   0.0286   0.0264   0.0416   0.0068  -0.0158  -0.0131   0.50    1.1
1651 465838.000   48.780888350    8.917918820   492.9007   2  10   0.0285   0.0264   0.0415   0.0067  -0.0157  -0.0131   0.00    1.1
1651 465838.500   48.780888344    8.917918818   492.9049   2  10   0.0284   0.0263   0.0414   0.0068  -0.0157  -0.0131   0.50    1.1
1651 465839.000   48.780888353    8.917918840   492.9035   2  10   0.0283   0.0263   0.0413   0.0067  -0.0157  -0.0131   0.00    1.1
1651 465839.500   48.780888366    8.917918846   492.9077   2  10   0.0283   0.0263   0.0412   0.0067  -0.0156  -0.0131   0.50    1.1
1651 465840.000   48.780888391    8.917918846   492.9080   2  10   0.0282   0.0262   0.0411   0.0067  -0.0156  -0.0131   0.00    1.1
1651 465840.500   48.780888396    8.917918852   492.9114   2  10   0.0281   0.0261   0.0411   0.0067  -0.0156  -0.0131   0.50    1.1
1651 465841.000   48.780888378    8.917918825   492.9075   2  10   0.0281   0.0261   0.0410   0.0066  -0.0155  -0.0131   0.00    1.1
1651 465841.500   48.780888380    8.917918841   492.9099   2  10   0.0280   0.0261   0.0409   0.0066  -0.0155  -0.0131   0.50    1.1
1651 465842.000   48.780888409    8.917918850   492.9081   2  10   0.0279   0.0260   0.0408   0.0066  -0.0155  -0.0131   0.00    1.1
1651 465842.500   48.780888405    8.917918877   492.9109   2  10   0.0279   0.0260   0.0407   0.0066  -0.0154  -0.0131   0.50    1.1
1651 465843.000   48.780888402    8.917918889   492.9089   2  10   0.0278   0.0259   0.0406   0.0066  -0.0154  -0.0131   0.00    1.1
1651 465843.500   48.780888355    8.917918957   492.9032   2  10   0.0277   0.0260   0.0405   0.0065  -0.0153  -0.0130   0.50    1.1
1651 465844.000   48.780888358    8.917918931   492.9061   2  10   0.0276   0.0259   0.0404   0.0065  -0.0153  -0.0130   0.00    1.1
1651 465844.500   48.780888365    8.917918922   492.9119   2  10   0.0276   0.0259   0.0403   0.0064  -0.0153  -0.0131   0.50    1.1
1651 465845.000   48.780888375    8.917918960   492.9028   2  10   0.0275   0.0258   0.0402   0.0066  -0.0152  -0.0130   0.00    1.1
1651 465845.500   48.780888405    8.917918941   492.9064   2  10   0.0274   0.0258   0.0401   0.0066  -0.0152  -0.0131   0.50    1.1
1651 465846.000   48.780888436    8.917918952   492.9059   2  10   0.0274   0.0258   0.0400   0.0063  -0.0152  -0.0131   0.00    1.1
1651 465846.500   48.780888439    8.917918961   492.9074   2  10   0.0273   0.0257   0.0400   0.0064  -0.0152  -0.0131   0.50    1.1
1651 465847.000   48.780888454    8.917918997   492.9054   2  10   0.0272   0.0257   0.0399   0.0064  -0.0151  -0.0131   0.00    1.1
1651 465847.500   48.780888452    8.917918995   492.9062   2  10   0.0272   0.0256   0.0398   0.0065  -0.0151  -0.0131   0.50    1.1
1651 465848.000   48.780888450    8.917918990   492.9053   2  10   0.0271   0.0256   0.0397   0.0064  -0.0151  -0.0130   0.00    1.1
1651 465848.500   48.780888476    8.917919011   492.9076   2  10   0.0270   0.0255   0.0396   0.0063  -0.0150  -0.0130   0.50    1.1
1651 465849.000   48.780888593    8.917918958   492.9098   2  10   0.0270   0.0255   0.0395   0.0063  -0.0150  -0.0130   0.00    1.1
1651 465849.500   48.780888563    8.917918992   492.9116   2  10   0.0269   0.0255   0.0394   0.0064  -0.0149  -0.0131   0.50    1.1
1651 465850.000   48.780888554    8.917919000   492.9116   2  10   0.0268   0.0255   0.0394   0.0062  -0.0149  -0.0130   0.00    1.1
1651 465850.500   48.780888570    8.917918962   492.9155   2  10   0.0268   0.0254   0.0393   0.0063  -0.0149  -0.0130   0.50    1.1
1651 465851.000   48.780888548    8.917918914   492.9158   2  10   0.0267   0.0254   0.0392   0.0062  -0.0149  -0.0130   0.00    1.1
1651 465851.500   48.780888545    8.917918935   492.9198   2  10   0.0266   0.0254   0.0391   0.0062  -0.0148  -0.0130   0.50    1.1
1651 465852.000   48.780888480    8.917918995   492.9104   2  10   0.0266   0.0253   0.0390   0.0063  -0.0148  -0.0130   0.00    1.1
1651 465852.500   48.780888479    8.917919002   492.9133   2  10   0.0265   0.0253   0.0389   0.0062  -0.0147  -0.0130   0.50    1.1
1651 465853.000   48.780888478    8.917919027   492.9118   2  10   0.0264   0.0253   0.0389   0.0062  -0.0147  -0.0130   0.00    1.1
1651 465853.500   48.780888455    8.917919024   492.9134   2  10   0.0264   0.0252   0.0388   0.0062  -0.0147  -0.0130   0.50    1.1
1651 465854.000   48.780888482    8.917919039   492.9097   2  10   0.0263   0.0252   0.0387   0.0062  -0.0146  -0.0130   0.00    1.1
1651 465854.500   48.780888500    8.917919033   492.9134   2  10   0.0263   0.0251   0.0386   0.0062  -0.0147  -0.0130   0.50    1.1
1651 465855.000   48.780888533    8.917919042   492.9129   2  10   0.0262   0.0251   0.0385   0.0062  -0.0146  -0.0130   0.00    1.1
1651 465855.500   48.780888524    8.917919051   492.9127   2  10   0.0261   0.0251   0.0384   0.0062  -0.0145  -0.0130   0.50    1.1
1651 465856.000   48.780888528    8.917919045   492.9165   2  10   0.0261   0.0251   0.0384   0.0061  -0.0145  -0.0130   0.00    1.1
1651 465856.500   48.780888482    8.917919089   492.9131   2  10   0.0260   0.0250   0.0383   0.0060  -0.0145  -0.0130   0.50    1.1
1651 465857.000   48.780888515    8.917919066   492.9094   2  10   0.0260   0.0249   0.0382   0.0061  -0.0145  -0.0129   0.00    1.1
1651 465857.500   48.780888502    8.917919115   492.9121   2  10   0.0259   0.0249   0.0381   0.0061  -0.0144  -0.0129   0.50    1.1
1651 465858.000   48.780888496    8.917919110   492.9150   2  10   0.0258   0.0249   0.0380   0.0060  -0.0144  -0.0129   0.00    1.1
1651 465858.500   48.780888470    8.917919113   492.9165   2  10   0.0258   0.0249   0.0380   0.0062  -0.0144  -0.0129   0.50    1.1
1651 465859.000   48.780888508    8.917919120   492.9166   2  10   0.0257   0.0248   0.0379   0.0060  -0.0143  -0.0129   0.00    1.1
1651 465859.500   48.780888524    8.917919123   492.9167   2  10   0.0256   0.0248   0.0378   0.0060  -0.0143  -0.0129   0.50    1.1
1651 465860.000   48.780888518    8.917919088   492.9163   2  10   0.0256   0.0247   0.0377   0.0060  -0.0143  -0.0129   0.00    1.1
1651 465860.500   48.780888523    8.917919118   492.9177   2  10   0.0255   0.0248   0.0376   0.0059  -0.0142  -0.0129   0.50    1.1
1651 465861.000   48.780888546    8.917919139   492.9158   2  10   0.0255   0.0247   0.0375   0.0059  -0.0142  -0.0129   0.00    1.1
1651 465861.500   48.780888554    8.917919113   492.9191   2  10   0.0254   0.0247   0.0375   0.0059  -0.0142  -0.0129   0.50    1.1
1651 465862.000   48.780888569    8.917919168   492.9178   2  10   0.0254   0.0247   0.0374   0.0059  -0.0141  -0.0129   0.00    1.1
1651 465862.500   48.780888586    8.917919180   492.9184   2  10   0.0253   0.0246   0.0373   0.0059  -0.0141  -0.0129   0.50    1.1
1651 465863.000   48.780888562    8.917919170   492.9165   2  10   0.0252   0.0246   0.0372   0.0058  -0.0141  -0.0129   0.00    1.1
1651 465863.500   48.780888584    8.917919177   492.9161   2  10   0.0252   0.0245   0.0372   0.0058  -0.0141  -0.0129   0.50    1.1
1651 465864.000   48.780888582    8.917919194   492.9189   2  10   0.0251   0.0245   0.0371   0.0058  -0.0140  -0.0129   0.00    1.1
1651 465864.500   48.780888560    8.917919207   492.9185   2  10   0.0251   0.0245   0.0370   0.0058  -0.0140  -0.0128   0.50    1.1
1651 465865.000   48.780888579    8.917919133   492.9196   2  10   0.0250   0.0244   0.0369   0.0059  -0.0139  -0.0128   0.00    1.1
1651 465865.500   48.780888568    8.917919130   492.9231   2  10   0.0250   0.0244   0.0369   0.0059  -0.0139  -0.0128   0.50    1.1
1651 465866.000   48.780888565    8.917919179   492.9225   2  10   0.0249   0.0243   0.0368   0.0058  -0.0139  -0.0128   0.00    1.1
1651 465866.500   48.780888550    8.917919185   492.9252   2  10   0.0248   0.0244   0.0367   0.0057  -0.0139  -0.0128   0.50    1.1
1651 465867.000   48.780888566    8.917919196   492.9260   2  10   0.0248   0.0243   0.0366   0.0057  -0.0139  -0.0128   0.00    1.1
1651 465867.500   48.780888561    8.917919215   492.9256   2  10   0.0247   0.0243   0.0366   0.0058  -0.0138  -0.0128   0.50    1.1
1651 465868.000   48.780888588    8.917919252   492.9190   2  10   0.0247   0.0243   0.0365   0.0057  -0.0138  -0.0128   0.00    1.1
1651 465868.500   48.780888578    8.917919253   492.9214   2  10   0.0246   0.0242   0.0364   0.0058  -0.0138  -0.0128   0.50    1.1
1651 465869.000   48.780888561    8.917919253   492.9255   2  10   0.0245   0.0242   0.0363   0.0057  -0.0137  -0.0127   0.00    1.1
1651 465869.500   48.780888559    8.917919272   492.9270   2  10   0.0245   0.0242   0.0363   0.0056  -0.0137  -0.0128   0.50    1.1
1651 465870.000   48.780888580    8.917919284   492.9276   2  10   0.0245   0.0242   0.0362   0.0056  -0.0137  -0.0127   0.00    1.1
1651 465870.500   48.780888584    8.917919316   492.9291   2  10   0.0244   0.0241   0.0361   0.0057  -0.0137  -0.0127   0.50    1.1
1651 465871.000   48.780888620    8.917919308   492.9328   2  10   0.0243   0.0241   0.0360   0.0056  -0.0136  -0.0127   0.00    1.1
1651 465871.500   48.780888632    8.917919337   492.9351   2  10   0.0243   0.0241   0.0360   0.0055  -0.0135  -0.0127   0.50    1.1
1651 465872.000   48.780888675    8.917919270   492.9337   2  10   0.0242   0.0241   0.0359   0.0054  -0.0135  -0.0127   0.00    1.1
1651 465872.500   48.780888673    8.917919261   492.9336   2  10   0.0242   0.0240   0.0358   0.0056  -0.0136  -0.0127   0.50    1.1
1651 465873.000   48.780888631    8.917919306   492.9327   2  10   0.0242   0.0240   0.0357   0.0055  -0.0135  -0.0127   0.00    1.1
1651 465873.500   48.780888658    8.917919322   492.9319   2  10   0.0241   0.0240   0.0357   0.0056  -0.0134  -0.0127   0.50    1.1
1651 465874.000   48.780888661    8.917919318   492.9337   2  10   0.0240   0.0239   0.0356   0.0056  -0.0135  -0.0127   0.00    1.1
1651 465874.500   48.780888657    8.917919317   492.9350   2  10   0.0240   0.0238   0.0355   0.0055  -0.0135  -0.0127   0.50    1.1
1651 465875.000   48.780888664    8.917919343   492.9345   2  10   0.0239   0.0238   0.0355   0.0055  -0.0134  -0.0126   0.00    1.1
1651 465875.500   48.780888647    8.917919351   492.9379   2  10   0.0239   0.0238   0.0354   0.0053  -0.0133  -0.0126   0.50    1.1
1651 465876.000   48.780888644    8.917919324   492.9386   2  10   0.0238   0.0238   0.0353   0.0053  -0.0133  -0.0126   0.00    1.1
1651 465876.500   48.780888651    8.917919358   492.9410   2  10   0.0238   0.0238   0.0353   0.0054  -0.0133  -0.0126   0.50    1.1
1651 465877.000   48.780888668    8.917919398   492.9422   2  10   0.0237   0.0238   0.0352   0.0054  -0.0133  -0.0126   0.00    1.1
1651 465877.500   48.780888644    8.917919394   492.9441   2  10   0.0237   0.0237   0.0351   0.0054  -0.0132  -0.0126   0.50    1.1
1651 465878.000   48.780888656    8.917919409   492.9398   2  10   0.0236   0.0237   0.0350   0.0054  -0.0132  -0.0126   0.00    1.1
1651 465878.500   48.780888683    8.917919411   492.9389   2  10   0.0236   0.0236   0.0350   0.0055  -0.0132  -0.0126   0.50    1.1
1651 465879.000   48.780888698    8.917919410   492.9348   2  10   0.0235   0.0237   0.0349   0.0053  -0.0131  -0.0126   0.00    1.1
1651 465879.500   48.780888712    8.917919413   492.9378   2  10   0.0235   0.0236   0.0349   0.0053  -0.0131  -0.0126   0.50    1.1
1651 465880.000   48.780888705    8.917919426   492.9423   2  10   0.0234   0.0236   0.0348   0.0053  -0.0131  -0.0125   0.00    1.1
1651 465880.500   48.780888692    8.917919420   492.9435   2  10   0.0234   0.0236   0.0347   0.0052  -0.0130  -0.0126   0.50    1.1
1651 465881.000   48.780888732    8.917919414   492.9438   2  10   0.0233   0.0235   0.0346   0.0053  -0.0131  -0.0125   0.00    1.1
1651 465881.500   48.780888741    8.917919415   492.9493   2  10   0.0233   0.0235   0.0346   0.0052  -0.0130  -0.0125   0.50    1.1
1651 465882.000   48.780888711    8.917919430   492.9499   2  10   0.0232   0.0235   0.0345   0.0052  -0.0129  -0.0125   0.00    1.1
1651 465882.500   48.780888732    8.917919439   492.9507   2  10   0.0232   0.0235   0.0345   0.0051  -0.0129  -0.0125   0.50    1.1
1651 465883.000   48.780888698    8.917919453   492.9504   2  10   0.0231   0.0234   0.0344   0.0052  -0.0130  -0.0125   0.00    1.1
1651 465883.500   48.780888689    8.917919466   492.9506   2  10   0.0231   0.0233   0.0343   0.0051  -0.0129  -0.0125   0.50    1.1
1651 465884.000   48.780888705    8.917919463   492.9527   2  10   0.0230   0.0233   0.0342   0.0051  -0.0129  -0.0125   0.00    1.1
1651 465884.500   48.780888711    8.917919451   492.9549   2  10   0.0230   0.0233   0.0342   0.0051  -0.0129  -0.0125   0.50    1.1
1651 465885.000   48.780888696    8.917919443   492.9505   2  10   0.0229   0.0233   0.0341   0.0051  -0.0128  -0.0124   0.00    1.1
1651 465885.500   48.780888728    8.917919452   492.9532   2  10   0.0229   0.0233   0.0340   0.0052  -0.0128  -0.0124   0.50    1.1
