% program   : RTKPOST ver.2.4.3 b33
% inp file  : E:\Study\master\semester 3\Satellite Navigation\lab5\data_sets\INSA00DEU_R_20193591200_01H_01S_MO.rnx
% inp file  : E:\Study\master\semester 3\Satellite Navigation\lab5\data_sets\INSA00DEU_R_20193591200_01H_01S_MN.rnx
% obs start : 2019/12/25 12:00:00.0 GPST (week2085 302400.0s)
% obs end   : 2019/12/25 12:59:59.0 GPST (week2085 305999.0s)
% pos mode  : single
% elev mask : 5.0 deg
% ionos opt : off
% tropo opt : off
% ephemeris : broadcast
%
% (lat/lon/height=WGS84/ellipsoidal,Q=1:fix,2:float,3:sbas,4:dgps,5:single,6:ppp,ns=# of satellites)
%  GPST          latitude(deg) longitude(deg)  height(m)   Q  ns   sdn(m)   sde(m)   sdu(m)  sdne(m)  sdeu(m)  sdun(m) age(s)  ratio
2085 302400.000   48.780732234    9.171592801   337.4561   5   7   8.1455   3.8393  10.9654   0.8337   0.5800  -7.5654   0.00    0.0
2085 302401.000   48.780739384    9.171591835   337.0638   5   7   8.1455   3.8393  10.9652   0.8316   0.5843  -7.5654   0.00    0.0
2085 302402.000   48.780732759    9.171593489   338.0345   5   7   8.1455   3.8393  10.9650   0.8294   0.5885  -7.5654   0.00    0.0
2085 302403.000   48.780737637    9.171593759   337.0400   5   7   8.1455   3.8393  10.9649   0.8272   0.5928  -7.5654   0.00    0.0
2085 302404.000   48.780734308    9.171593524   337.5854   5   7   8.1455   3.8393  10.9647   0.8250   0.5970  -7.5654   0.00    0.0
2085 302405.000   48.780739682    9.171587649   337.4411   5   7   8.1455   3.8393  10.9645   0.8227   0.6012  -7.5654   0.00    0.0
2085 302406.000   48.780735686    9.171590687   337.2579   5   7   8.1456   3.8393  10.9644   0.8205   0.6053  -7.5653   0.00    0.0
2085 302407.000   48.780738867    9.171588549   336.5368   5   7   8.1456   3.8393  10.9642   0.8183   0.6094  -7.5653   0.00    0.0
2085 302408.000   48.780735729    9.171586699   336.7427   5   7   8.1456   3.8393  10.9640   0.8161   0.6135  -7.5653   0.00    0.0
2085 302409.000   48.780738978    9.171590071   336.6129   5   7   8.1456   3.8393  10.9638   0.8139   0.6176  -7.5653   0.00    0.0
2085 302410.000   48.780732834    9.171587762   337.8284   5   7   8.1456   3.8393  10.9637   0.8116   0.6216  -7.5653   0.00    0.0
2085 302411.000   48.780738417    9.171584990   336.9017   5   7   8.1456   3.8394  10.9635   0.8094   0.6256  -7.5653   0.00    0.0
2085 302412.000   48.780744288    9.171588296   336.7027   5   7   8.1456   3.8394  10.9633   0.8071   0.6296  -7.5653   0.00    0.0
2085 302413.000   48.780740614    9.171586037   337.0370   5   7   8.1456   3.8394  10.9631   0.8048   0.6336  -7.5653   0.00    0.0
2085 302414.000   48.780736500    9.171585891   337.6675   5   7   8.1457   3.8394  10.9630   0.8026   0.6375  -7.5652   0.00    0.0
2085 302415.000   48.780740913    9.171585863   337.3969   5   7   8.1457   3.8394  10.9628   0.8003   0.6414  -7.5652   0.00    0.0
2085 302416.000   48.780741701    9.171589390   337.1952   5   7   8.1457   3.8394  10.9626   0.7980   0.6453  -7.5652   0.00    0.0
2085 302417.000   48.780742337    9.171590582   336.8907   5   7   8.1457   3.8394  10.9624   0.7958   0.6491  -7.5652   0.00    0.0
2085 302418.000   48.780740553    9.171585229   336.9307   5   7   8.1457   3.8394  10.9622   0.7935   0.6530  -7.5652   0.00    0.0
2085 302419.000   48.780738010    9.171589431   336.6999   5   7   8.1457   3.8394  10.9621   0.7912   0.6568  -7.5652   0.00    0.0
2085 302420.000   48.780737524    9.171592180   337.0917   5   7   8.1457   3.8394  10.9619   0.7889   0.6606  -7.5651   0.00    0.0
2085 302421.000   48.780739966    9.171591509   337.0563   5   7   8.1457   3.8394  10.9617   0.7865   0.6644  -7.5651   0.00    0.0
2085 302422.000   48.780735399    9.171595787   337.0764   5   7   8.1457   3.8394  10.9615   0.7842   0.6681  -7.5651   0.00    0.0
2085 302423.000   48.780734131    9.171597833   337.3769   5   7   8.1457   3.8394  10.9613   0.7819   0.6718  -7.5651   0.00    0.0
2085 302424.000   48.780732942    9.171591349   337.4022   5   7   8.1457   3.8395  10.9611   0.7796   0.6755  -7.5650   0.00    0.0
2085 302425.000   48.780731666    9.171596218   337.8671   5   7   8.1457   3.8395  10.9609   0.7772   0.6792  -7.5650   0.00    0.0
2085 302426.000   48.780727885    9.171591810   337.8553   5   7   8.1458   3.8395  10.9608   0.7749   0.6829  -7.5650   0.00    0.0
2085 302427.000   48.780738576    9.171592211   336.9587   5   7   8.1458   3.8395  10.9606   0.7725   0.6865  -7.5650   0.00    0.0
2085 302428.000   48.780729419    9.171587027   336.9631   5   7   8.1458   3.8395  10.9604   0.7701   0.6902  -7.5650   0.00    0.0
2085 302429.000   48.780731213    9.171588105   336.9487   5   7   8.1458   3.8395  10.9602   0.7678   0.6938  -7.5649   0.00    0.0
2085 302430.000   48.780735634    9.171590701   336.9033   5   7   8.1458   3.8395  10.9600   0.7654   0.6974  -7.5649   0.00    0.0
2085 302431.000   48.780737575    9.171588497   336.7816   5   7   8.1458   3.8395  10.9598   0.7630   0.7009  -7.5649   0.00    0.0
2085 302432.000   48.780727976    9.171589113   337.5910   5   7   8.1458   3.8395  10.9596   0.7606   0.7045  -7.5648   0.00    0.0
2085 302433.000   48.780728479    9.171590854   337.3080   5   7   8.1458   3.8395  10.9594   0.7582   0.7080  -7.5648   0.00    0.0
2085 302434.000   48.780727792    9.171592776   337.2189   5   7   8.1458   3.8395  10.9592   0.7558   0.7115  -7.5648   0.00    0.0
2085 302435.000   48.780729451    9.171587903   338.0823   5   7   8.1458   3.8396  10.9590   0.7534   0.7150  -7.5648   0.00    0.0
2085 302436.000   48.780730950    9.171591571   338.0311   5   7   8.1458   3.8396  10.9588   0.7510   0.7185  -7.5647   0.00    0.0
2085 302437.000   48.780734526    9.171592023   337.5757   5   7   8.1458   3.8396  10.9586   0.7485   0.7220  -7.5647   0.00    0.0
2085 302438.000   48.780727343    9.171590536   337.4615   5   7   8.1458   3.8396  10.9584   0.7461   0.7254  -7.5647   0.00    0.0
2085 302439.000   48.780732523    9.171588508   337.3369   5   7   8.1458   3.8396  10.9582   0.7436   0.7288  -7.5646   0.00    0.0
2085 302440.000   48.780727157    9.171590377   337.4936   5   7   8.1458   3.8396  10.9580   0.7412   0.7323  -7.5646   0.00    0.0
2085 302441.000   48.780723945    9.171587283   337.8253   5   7   8.1458   3.8396  10.9578   0.7387   0.7357  -7.5646   0.00    0.0
2085 302442.000   48.780727868    9.171586544   337.0174   5   7   8.1458   3.8396  10.9576   0.7363   0.7390  -7.5645   0.00    0.0
2085 302443.000   48.780730236    9.171584762   336.9048   5   7   8.1458   3.8396  10.9574   0.7338   0.7424  -7.5645   0.00    0.0
2085 302444.000   48.780728320    9.171587845   337.6440   5   7   8.1458   3.8396  10.9572   0.7313   0.7458  -7.5645   0.00    0.0
2085 302445.000   48.780731996    9.171585390   337.3714   5   7   8.1458   3.8397  10.9570   0.7288   0.7491  -7.5644   0.00    0.0
2085 302446.000   48.780733956    9.171588747   336.7337   5   7   8.1458   3.8397  10.9568   0.7263   0.7524  -7.5644   0.00    0.0
2085 302447.000   48.780735751    9.171585720   336.9164   5   7   8.1458   3.8397  10.9566   0.7238   0.7557  -7.5644   0.00    0.0
2085 302448.000   48.780731059    9.171591220   337.7427   5   7   8.1458   3.8397  10.9564   0.7212   0.7590  -7.5643   0.00    0.0
2085 302449.000   48.780736660    9.171596053   337.3371   5   7   8.1458   3.8397  10.9562   0.7187   0.7623  -7.5643   0.00    0.0
2085 302450.000   48.780737456    9.171589825   337.3632   5   7   8.1458   3.8397  10.9560   0.7162   0.7655  -7.5642   0.00    0.0
2085 302451.000   48.780740021    9.171592670   336.5494   5   7   8.1458   3.8397  10.9557   0.7136   0.7688  -7.5642   0.00    0.0
2085 302452.000   48.780743461    9.171592569   337.3399   5   7   8.1458   3.8397  10.9555   0.7110   0.7720  -7.5642   0.00    0.0
2085 302453.000   48.780745653    9.171590779   336.5898   5   7   8.1458   3.8397  10.9553   0.7085   0.7752  -7.5641   0.00    0.0
2085 302454.000   48.780745795    9.171590528   336.5931   5   7   8.1458   3.8398  10.9551   0.7059   0.7784  -7.5641   0.00    0.0
2085 302455.000   48.780740223    9.171591148   337.1364   5   7   8.1457   3.8398  10.9549   0.7033   0.7816  -7.5640   0.00    0.0
2085 302456.000   48.780743512    9.171594158   336.9447   5   7   8.1457   3.8398  10.9547   0.7007   0.7848  -7.5640   0.00    0.0
2085 302457.000   48.780742958    9.171594615   336.8239   5   7   8.1457   3.8398  10.9545   0.6981   0.7880  -7.5639   0.00    0.0
2085 302458.000   48.780743019    9.171592534   337.1396   5   7   8.1457   3.8398  10.9542   0.6955   0.7911  -7.5639   0.00    0.0
2085 302459.000   48.780744115    9.171592513   336.6732   5   7   8.1457   3.8398  10.9540   0.6928   0.7943  -7.5638   0.00    0.0
2085 302460.000   48.780742729    9.171592818   336.5020   5   7   8.1457   3.8398  10.9538   0.6902   0.7974  -7.5638   0.00    0.0
2085 302461.000   48.780739609    9.171592695   336.9574   5   7   8.1457   3.8398  10.9536   0.6875   0.8005  -7.5638   0.00    0.0
2085 302462.000   48.780737027    9.171592330   337.5981   5   7   8.1457   3.8399  10.9534   0.6849   0.8036  -7.5637   0.00    0.0
2085 302463.000   48.780743517    9.171593991   336.8128   5   7   8.1457   3.8399  10.9531   0.6822   0.8067  -7.5637   0.00    0.0
2085 302464.000   48.780739391    9.171596694   336.8107   5   7   8.1457   3.8399  10.9529   0.6795   0.8098  -7.5636   0.00    0.0
2085 302465.000   48.780735081    9.171590150   337.1717   5   7   8.1457   3.8399  10.9527   0.6768   0.8129  -7.5636   0.00    0.0
2085 302466.000   48.780731300    9.171594386   337.1169   5   7   8.1457   3.8399  10.9525   0.6741   0.8159  -7.5635   0.00    0.0
2085 302467.000   48.780734865    9.171589994   337.4190   5   7   8.1456   3.8399  10.9522   0.6714   0.8190  -7.5635   0.00    0.0
2085 302468.000   48.780735898    9.171589790   337.2418   5   7   8.1456   3.8399  10.9520   0.6687   0.8220  -7.5634   0.00    0.0
2085 302469.000   48.780732095    9.171589071   337.9222   5   7   8.1456   3.8399  10.9518   0.6659   0.8250  -7.5633   0.00    0.0
2085 302470.000   48.780729349    9.171588268   337.7420   5   7   8.1456   3.8400  10.9516   0.6632   0.8280  -7.5633   0.00    0.0
2085 302471.000   48.780731963    9.171589619   337.1823   5   7   8.1456   3.8400  10.9513   0.6604   0.8310  -7.5632   0.00    0.0
2085 302472.000   48.780736105    9.171589146   336.9047   5   7   8.1456   3.8400  10.9511   0.6577   0.8340  -7.5632   0.00    0.0
2085 302473.000   48.780734890    9.171586344   336.8074   5   7   8.1456   3.8400  10.9509   0.6549   0.8370  -7.5631   0.00    0.0
2085 302474.000   48.780736017    9.171591426   336.6322   5   7   8.1456   3.8400  10.9506   0.6521   0.8399  -7.5631   0.00    0.0
2085 302475.000   48.780735600    9.171586141   336.2456   5   7   8.1455   3.8400  10.9504   0.6493   0.8429  -7.5630   0.00    0.0
2085 302476.000   48.780735856    9.171585941   336.9593   5   7   8.1455   3.8400  10.9502   0.6464   0.8458  -7.5630   0.00    0.0
2085 302477.000   48.780730240    9.171584116   337.4718   5   7   8.1455   3.8401  10.9499   0.6436   0.8488  -7.5629   0.00    0.0
2085 302478.000   48.780734869    9.171585946   336.9748   5   7   8.1455   3.8401  10.9497   0.6408   0.8517  -7.5628   0.00    0.0
2085 302479.000   48.780730636    9.171588189   336.9575   5   7   8.1455   3.8401  10.9495   0.6379   0.8546  -7.5628   0.00    0.0
2085 302480.000   48.780726855    9.171590573   337.6102   5   7   8.1455   3.8401  10.9492   0.6350   0.8575  -7.5627   0.00    0.0
2085 302481.000   48.780734445    9.171585184   336.4983   5   7   8.1455   3.8401  10.9490   0.6321   0.8604  -7.5627   0.00    0.0
2085 302482.000   48.780725217    9.171584488   337.4214   5   7   8.1454   3.8401  10.9488   0.6292   0.8633  -7.5626   0.00    0.0
2085 302483.000   48.780730949    9.171582934   337.1925   5   7   8.1454   3.8401  10.9485   0.6263   0.8662  -7.5625   0.00    0.0
2085 302484.000   48.780737821    9.171588429   337.1160   5   7   8.1454   3.8402  10.9483   0.6234   0.8690  -7.5625   0.00    0.0
2085 302485.000   48.780731538    9.171586644   337.4146   5   7   8.1454   3.8402  10.9480   0.6205   0.8719  -7.5624   0.00    0.0
2085 302486.000   48.780735916    9.171589965   336.7266   5   7   8.1454   3.8402  10.9478   0.6175   0.8747  -7.5624   0.00    0.0
2085 302487.000   48.780742271    9.171585180   336.6356   5   7   8.1453   3.8402  10.9475   0.6145   0.8775  -7.5623   0.00    0.0
2085 302488.000   48.780733054    9.171586523   337.5898   5   7   8.1453   3.8402  10.9473   0.6116   0.8804  -7.5622   0.00    0.0
2085 302489.000   48.780738030    9.171586821   336.9563   5   7   8.1453   3.8402  10.9471   0.6086   0.8832  -7.5622   0.00    0.0
2085 302490.000   48.780738302    9.171587859   336.7077   5   7   8.1453   3.8403  10.9468   0.6056   0.8860  -7.5621   0.00    0.0
2085 302491.000   48.780736047    9.171589286   337.5351   5   7   8.1453   3.8403  10.9466   0.6025   0.8888  -7.5620   0.00    0.0
2085 302492.000   48.780734180    9.171585519   337.8966   5   7   8.1452   3.8403  10.9463   0.5995   0.8916  -7.5620   0.00    0.0
2085 302493.000   48.780725686    9.171586505   338.3867   5   7   8.1452   3.8403  10.9461   0.5964   0.8943  -7.5619   0.00    0.0
2085 302494.000   48.780727666    9.171586591   337.7044   5   7   8.1452   3.8403  10.9458   0.5934   0.8971  -7.5618   0.00    0.0
2085 302495.000   48.780729879    9.171584216   338.2288   5   7   8.1452   3.8403  10.9456   0.5903   0.8999  -7.5617   0.00    0.0
2085 302496.000   48.780731255    9.171587366   337.8259   5   7   8.1452   3.8404  10.9453   0.5872   0.9026  -7.5617   0.00    0.0
2085 302497.000   48.780732801    9.171582627   337.4915   5   7   8.1451   3.8404  10.9451   0.5840   0.9054  -7.5616   0.00    0.0
2085 302498.000   48.780728582    9.171590454   338.7192   5   7   8.1451   3.8404  10.9448   0.5809   0.9081  -7.5615   0.00    0.0
2085 302499.000   48.780733002    9.171587732   337.9764   5   7   8.1451   3.8404  10.9446   0.5777   0.9108  -7.5615   0.00    0.0
2085 302500.000   48.780730794    9.171587049   337.7328   5   7   8.1451   3.8404  10.9443   0.5746   0.9135  -7.5614   0.00    0.0
2085 302501.000   48.780731554    9.171586880   337.0672   5   7   8.1450   3.8404  10.9440   0.5714   0.9163  -7.5613   0.00    0.0
2085 302502.000   48.780728843    9.171586824   338.1758   5   7   8.1450   3.8405  10.9438   0.5681   0.9190  -7.5612   0.00    0.0
2085 302503.000   48.780731580    9.171589351   337.1194   5   7   8.1450   3.8405  10.9435   0.5649   0.9216  -7.5612   0.00    0.0
2085 302504.000   48.780737791    9.171586766   336.5667   5   7   8.1450   3.8405  10.9433   0.5617   0.9243  -7.5611   0.00    0.0
2085 302505.000   48.780733999    9.171585746   336.4413   5   7   8.1449   3.8405  10.9430   0.5584   0.9270  -7.5610   0.00    0.0
2085 302506.000   48.780733836    9.171587154   336.4041   5   7   8.1449   3.8405  10.9427   0.5551   0.9297  -7.5609   0.00    0.0
2085 302507.000   48.780736951    9.171588532   336.5263   5   7   8.1449   3.8405  10.9425   0.5518   0.9323  -7.5609   0.00    0.0
2085 302508.000   48.780737539    9.171584479   336.8516   5   7   8.1449   3.8406  10.9422   0.5485   0.9350  -7.5608   0.00    0.0
2085 302509.000   48.780731353    9.171587590   337.1589   5   7   8.1448   3.8406  10.9420   0.5451   0.9376  -7.5607   0.00    0.0
2085 302510.000   48.780738229    9.171586819   336.7234   5   7   8.1448   3.8406  10.9417   0.5418   0.9403  -7.5606   0.00    0.0
2085 302511.000   48.780735112    9.171589642   337.1321   5   7   8.1448   3.8406  10.9414   0.5384   0.9429  -7.5605   0.00    0.0
2085 302512.000   48.780740282    9.171589386   336.8514   5   7   8.1448   3.8406  10.9412   0.5350   0.9455  -7.5605   0.00    0.0
2085 302513.000   48.780738110    9.171588446   336.4713   5   7   8.1447   3.8407  10.9409   0.5315   0.9481  -7.5604   0.00    0.0
2085 302514.000   48.780737677    9.171585485   335.9984   5   7   8.1447   3.8407  10.9406   0.5281   0.9507  -7.5603   0.00    0.0
2085 302515.000   48.780737148    9.171589308   336.6021   5   7   8.1447   3.8407  10.9404   0.5246   0.9533  -7.5602   0.00    0.0
2085 302516.000   48.780734476    9.171587414   337.2424   5   7   8.1446   3.8407  10.9401   0.5211   0.9559  -7.5601   0.00    0.0
2085 302517.000   48.780740716    9.171587276   336.9688   5   7   8.1446   3.8407  10.9398   0.5176   0.9585  -7.5600   0.00    0.0
2085 302518.000   48.780741821    9.171589024   336.3025   5   7   8.1446   3.8407  10.9396   0.5140   0.9611  -7.5600   0.00    0.0
2085 302519.000   48.780737549    9.171587717   337.3764   5   7   8.1445   3.8408  10.9393   0.5104   0.9637  -7.5599   0.00    0.0
2085 302520.000   48.780732209    9.171589410   338.1676   5   7   8.1445   3.8408  10.9390   0.5069   0.9662  -7.5598   0.00    0.0
2085 302521.000   48.780732858    9.171590035   338.3111   5   7   8.1445   3.8408  10.9387   0.5032   0.9688  -7.5597   0.00    0.0
2085 302522.000   48.780732364    9.171588707   337.7509   5   7   8.1444   3.8408  10.9385   0.4996   0.9713  -7.5596   0.00    0.0
2085 302523.000   48.780737217    9.171588865   336.8222   5   7   8.1444   3.8408  10.9382   0.4959   0.9739  -7.5595   0.00    0.0
2085 302524.000   48.780732955    9.171590469   337.0582   5   7   8.1444   3.8409  10.9379   0.4922   0.9764  -7.5594   0.00    0.0
2085 302525.000   48.780728990    9.171587258   337.1519   5   7   8.1443   3.8409  10.9376   0.4884   0.9789  -7.5593   0.00    0.0
2085 302526.000   48.780732985    9.171592295   337.2049   5   7   8.1443   3.8409  10.9374   0.4847   0.9814  -7.5592   0.00    0.0
2085 302527.000   48.780729566    9.171591619   337.3246   5   7   8.1443   3.8409  10.9371   0.4809   0.9840  -7.5592   0.00    0.0
2085 302528.000   48.780736299    9.171593736   337.9790   5   7   8.1442   3.8409  10.9368   0.4771   0.9865  -7.5591   0.00    0.0
2085 302529.000   48.780729484    9.171590994   338.4304   5   7   8.1442   3.8410  10.9365   0.4732   0.9890  -7.5590   0.00    0.0
2085 302530.000   48.780729749    9.171588839   337.6414   5   7   8.1442   3.8410  10.9362   0.4693   0.9915  -7.5589   0.00    0.0
2085 302531.000   48.780734065    9.171589861   337.1886   5   7   8.1441   3.8410  10.9359   0.4654   0.9940  -7.5588   0.00    0.0
2085 302532.000   48.780730421    9.171589504   337.6607   5   7   8.1441   3.8410  10.9357   0.4615   0.9964  -7.5587   0.00    0.0
2085 302533.000   48.780733321    9.171590051   337.1041   5   7   8.1441   3.8410  10.9354   0.4575   0.9989  -7.5586   0.00    0.0
2085 302534.000   48.780728411    9.171593954   337.6836   5   7   8.1440   3.8411  10.9351   0.4534   1.0014  -7.5585   0.00    0.0
2085 302535.000   48.780737707    9.171590135   336.4032   5   7   8.1440   3.8411  10.9348   0.4494   1.0038  -7.5584   0.00    0.0
2085 302536.000   48.780727788    9.171593551   337.0641   5   7   8.1439   3.8411  10.9345   0.4453   1.0063  -7.5583   0.00    0.0
2085 302537.000   48.780736066    9.171590390   336.8469   5   7   8.1439   3.8411  10.9342   0.4412   1.0087  -7.5582   0.00    0.0
2085 302538.000   48.780729251    9.171589955   336.8109   5   7   8.1439   3.8411  10.9339   0.4370   1.0112  -7.5581   0.00    0.0
2085 302539.000   48.780728931    9.171589559   337.7917   5   7   8.1438   3.8412  10.9337   0.4328   1.0136  -7.5580   0.00    0.0
2085 302540.000   48.780736702    9.171590587   336.9856   5   7   8.1438   3.8412  10.9334   0.4285   1.0161  -7.5579   0.00    0.0
2085 302541.000   48.780731977    9.171591180   336.9026   5   7   8.1437   3.8412  10.9331   0.4242   1.0185  -7.5578   0.00    0.0
2085 302542.000   48.780735421    9.171588732   336.7889   5   7   8.1437   3.8412  10.9328   0.4199   1.0209  -7.5577   0.00    0.0
2085 302543.000   48.780728491    9.171591542   337.3049   5   7   8.1437   3.8413  10.9325   0.4155   1.0233  -7.5576   0.00    0.0
2085 302544.000   48.780733074    9.171588980   337.1967   5   7   8.1436   3.8413  10.9322   0.4110   1.0257  -7.5575   0.00    0.0
2085 302545.000   48.780732558    9.171586719   336.9934   5   7   8.1436   3.8413  10.9319   0.4066   1.0281  -7.5574   0.00    0.0
2085 302546.000   48.780737675    9.171591662   336.6845   5   7   8.1435   3.8413  10.9316   0.4020   1.0305  -7.5573   0.00    0.0
2085 302547.000   48.780738422    9.171587952   336.9442   5   7   8.1435   3.8413  10.9313   0.3974   1.0329  -7.5572   0.00    0.0
2085 302548.000   48.780738766    9.171585040   336.1551   5   7   8.1435   3.8414  10.9310   0.3928   1.0353  -7.5571   0.00    0.0
2085 302549.000   48.780737801    9.171583526   336.6809   5   7   8.1434   3.8414  10.9307   0.3881   1.0377  -7.5570   0.00    0.0
2085 302550.000   48.780739436    9.171586339   336.6074   5   7   8.1434   3.8414  10.9304   0.3834   1.0400  -7.5569   0.00    0.0
2085 302551.000   48.780738291    9.171585880   336.6720   5   7   8.1433   3.8414  10.9301   0.3785   1.0424  -7.5568   0.00    0.0
2085 302552.000   48.780729343    9.171585881   337.2106   5   7   8.1433   3.8415  10.9298   0.3737   1.0448  -7.5567   0.00    0.0
2085 302553.000   48.780725174    9.171587337   337.9786   5   7   8.1432   3.8415  10.9295   0.3687   1.0471  -7.5566   0.00    0.0
2085 302554.000   48.780730768    9.171586193   336.9209   5   7   8.1432   3.8415  10.9292   0.3637   1.0495  -7.5564   0.00    0.0
2085 302555.000   48.780733878    9.171587220   337.2669   5   7   8.1431   3.8415  10.9289   0.3587   1.0518  -7.5563   0.00    0.0
2085 302556.000   48.780728004    9.171587642   337.5964   5   7   8.1431   3.8415  10.9286   0.3535   1.0541  -7.5562   0.00    0.0
2085 302557.000   48.780728451    9.171588327   337.6525   5   7   8.1430   3.8416  10.9283   0.3483   1.0565  -7.5561   0.00    0.0
2085 302558.000   48.780730891    9.171588431   337.8038   5   7   8.1430   3.8416  10.9280   0.3430   1.0588  -7.5560   0.00    0.0
2085 302559.000   48.780731863    9.171590548   337.6739   5   7   8.1429   3.8416  10.9277   0.3376   1.0611  -7.5559   0.00    0.0
2085 302560.000   48.780740372    9.171587506   337.2334   5   7   8.1429   3.8416  10.9274   0.3321   1.0634  -7.5558   0.00    0.0
2085 302561.000   48.780735247    9.171591180   337.6167   5   7   8.1429   3.8417  10.9271   0.3266   1.0658  -7.5557   0.00    0.0
2085 302562.000   48.780736362    9.171590616   337.0354   5   7   8.1428   3.8417  10.9267   0.3209   1.0681  -7.5555   0.00    0.0
2085 302563.000   48.780743696    9.171589519   337.3281   5   7   8.1428   3.8417  10.9264   0.3151   1.0704  -7.5554   0.00    0.0
2085 302564.000   48.780739673    9.171588379   336.9521   5   7   8.1427   3.8417  10.9261   0.3092   1.0727  -7.5553   0.00    0.0
2085 302565.000   48.780742012    9.171594093   336.5698   5   7   8.1427   3.8418  10.9258   0.3033   1.0749  -7.5552   0.00    0.0
2085 302566.000   48.780732785    9.171590642   337.9917   5   7   8.1426   3.8418  10.9255   0.2971   1.0772  -7.5551   0.00    0.0
2085 302567.000   48.780734625    9.171592736   337.1331   5   7   8.1426   3.8418  10.9252   0.2909   1.0795  -7.5550   0.00    0.0
2085 302568.000   48.780736440    9.171594301   337.5716   5   7   8.1425   3.8418  10.9249   0.2845   1.0818  -7.5548   0.00    0.0
2085 302569.000   48.780735523    9.171593696   337.6748   5   7   8.1425   3.8419  10.9246   0.2780   1.0840  -7.5547   0.00    0.0
2085 302570.000   48.780731202    9.171591336   337.3230   5   7   8.1424   3.8419  10.9242   0.2713   1.0863  -7.5546   0.00    0.0
2085 302571.000   48.780729993    9.171587702   336.6749   5   7   8.1424   3.8419  10.9239   0.2645   1.0886  -7.5545   0.00    0.0
2085 302572.000   48.780732650    9.171591209   337.4869   5   7   8.1423   3.8419  10.9236   0.2575   1.0908  -7.5544   0.00    0.0
2085 302573.000   48.780727059    9.171589884   336.9082   5   7   8.1422   3.8420  10.9233   0.2502   1.0931  -7.5542   0.00    0.0
2085 302574.000   48.780724883    9.171592239   337.1639   5   7   8.1422   3.8420  10.9230   0.2428   1.0953  -7.5541   0.00    0.0
2085 302575.000   48.780730697    9.171592431   337.4981   5   7   8.1421   3.8420  10.9226   0.2351   1.0976  -7.5540   0.00    0.0
2085 302576.000   48.780734097    9.171589495   337.1166   5   7   8.1421   3.8420  10.9223   0.2272   1.0998  -7.5539   0.00    0.0
2085 302577.000   48.780735930    9.171586407   336.7134   5   7   8.1420   3.8421  10.9220   0.2190   1.1020  -7.5538   0.00    0.0
2085 302578.000   48.780731630    9.171590566   337.8666   5   7   8.1420   3.8421  10.9217   0.2104   1.1042  -7.5536   0.00    0.0
2085 302579.000   48.780736066    9.171590804   337.7046   5   7   8.1419   3.8421  10.9213   0.2015   1.1065  -7.5535   0.00    0.0
2085 302580.000   48.780736569    9.171588719   337.7463   5   7   8.1419   3.8421  10.9210   0.1922   1.1087  -7.5534   0.00    0.0
2085 302581.000   48.780733300    9.171587977   337.4032   5   7   8.1418   3.8422  10.9207   0.1824   1.1109  -7.5532   0.00    0.0
2085 302582.000   48.780738635    9.171585607   337.1269   5   7   8.1418   3.8422  10.9204   0.1720   1.1131  -7.5531   0.00    0.0
2085 302583.000   48.780731275    9.171584722   337.1135   5   7   8.1417   3.8422  10.9200   0.1610   1.1153  -7.5530   0.00    0.0
2085 302584.000   48.780732838    9.171587126   336.9336   5   7   8.1416   3.8422  10.9197   0.1492   1.1175  -7.5529   0.00    0.0
2085 302585.000   48.780727828    9.171591123   337.2568   5   7   8.1416   3.8423  10.9194   0.1364   1.1197  -7.5527   0.00    0.0
2085 302586.000   48.780731891    9.171591019   337.2767   5   7   8.1415   3.8423  10.9190   0.1222   1.1219  -7.5526   0.00    0.0
2085 302587.000   48.780734343    9.171591607   336.9576   5   7   8.1415   3.8423  10.9187   0.1061   1.1241  -7.5525   0.00    0.0
2085 302588.000   48.780730979    9.171586030   337.3151   5   7   8.1414   3.8424  10.9184   0.0870   1.1262  -7.5523   0.00    0.0
2085 302589.000   48.780727955    9.171591156   338.1302   5   7   8.1413   3.8424  10.9180   0.0626   1.1284  -7.5522   0.00    0.0
2085 302590.000   48.780738552    9.171587842   336.8231   5   7   8.1413   3.8424  10.9177   0.0156   1.1306  -7.5521   0.00    0.0
2085 302591.000   48.780738628    9.171591308   337.3352   5   7   8.1412   3.8424  10.9174  -0.0585   1.1327  -7.5519   0.00    0.0
2085 302592.000   48.780739009    9.171586852   337.5509   5   7   8.1412   3.8425  10.9170  -0.0843   1.1349  -7.5518   0.00    0.0
2085 302593.000   48.780741536    9.171586118   337.0094   5   7   8.1411   3.8425  10.9167  -0.1038   1.1371  -7.5517   0.00    0.0
2085 302594.000   48.780743989    9.171587317   336.6264   5   7   8.1410   3.8425  10.9164  -0.1202   1.1392  -7.5515   0.00    0.0
2085 302595.000   48.780740773    9.171589871   336.6305   5   7   8.1410   3.8425  10.9160  -0.1346   1.1414  -7.5514   0.00    0.0
2085 302596.000   48.780739563    9.171593078   337.3876   5   7   8.1409   3.8426  10.9157  -0.1475   1.1435  -7.5513   0.00    0.0
2085 302597.000   48.780745321    9.171590048   336.8490   5   7   8.1409   3.8426  10.9153  -0.1595   1.1456  -7.5511   0.00    0.0
2085 302598.000   48.780742353    9.171590201   336.6186   5   7   8.1408   3.8426  10.9150  -0.1706   1.1478  -7.5510   0.00    0.0
2085 302599.000   48.780740700    9.171592215   336.8690   5   7   8.1407   3.8427  10.9147  -0.1811   1.1499  -7.5509   0.00    0.0
2085 302600.000   48.780732699    9.171596410   337.6632   5   7   8.1407   3.8427  10.9143  -0.1909   1.1520  -7.5507   0.00    0.0
2085 302601.000   48.780735413    9.171590826   337.0493   5   7   8.1406   3.8427  10.9140  -0.2003   1.1542  -7.5506   0.00    0.0
2085 302602.000   48.780738059    9.171597136   337.3934   5   7   8.1405   3.8427  10.9136  -0.2093   1.1563  -7.5504   0.00    0.0
2085 302603.000   48.780726360    9.171589145   337.0803   5   7   8.1405   3.8428  10.9133  -0.2179   1.1584  -7.5503   0.00    0.0
2085 302604.000   48.780730923    9.171589920   337.3142   5   7   8.1404   3.8428  10.9129  -0.2261   1.1605  -7.5502   0.00    0.0
2085 302605.000   48.780734061    9.171590629   336.8959   5   7   8.1403   3.8428  10.9126  -0.2341   1.1626  -7.5500   0.00    0.0
2085 302606.000   48.780733171    9.171591376   336.6866   5   7   8.1403   3.8429  10.9122  -0.2418   1.1647  -7.5499   0.00    0.0
2085 302607.000   48.780738007    9.171589686   337.2180   5   7   8.1402   3.8429  10.9119  -0.2493   1.1668  -7.5497   0.00    0.0
2085 302608.000   48.780733286    9.171590406   336.7863   5   7   8.1401   3.8429  10.9115  -0.2566   1.1689  -7.5496   0.00    0.0
2085 302609.000   48.780729354    9.171590209   337.2356   5   7   8.1401   3.8429  10.9112  -0.2636   1.1710  -7.5494   0.00    0.0
2085 302610.000   48.780733725    9.171591439   337.9279   5   7   8.1400   3.8430  10.9108  -0.2705   1.1731  -7.5493   0.00    0.0
2085 302611.000   48.780733357    9.171587990   337.6173   5   7   8.1399   3.8430  10.9105  -0.2772   1.1751  -7.5491   0.00    0.0
2085 302612.000   48.780736918    9.171586308   337.6127   5   7   8.1399   3.8430  10.9101  -0.2837   1.1772  -7.5490   0.00    0.0
2085 302613.000   48.780730719    9.171585570   338.1039   5   7   8.1398   3.8431  10.9098  -0.2901   1.1793  -7.5489   0.00    0.0
2085 302614.000   48.780728446    9.171587964   337.4937   5   7   8.1397   3.8431  10.9094  -0.2964   1.1814  -7.5487   0.00    0.0
2085 302615.000   48.780723753    9.171587736   337.6558   5   7   8.1397   3.8431  10.9091  -0.3025   1.1834  -7.5486   0.00    0.0
2085 302616.000   48.780727274    9.171592389   337.4104   5   7   8.1396   3.8431  10.9087  -0.3085   1.1855  -7.5484   0.00    0.0
2085 302617.000   48.780728196    9.171590587   337.7901   5   7   8.1395   3.8432  10.9084  -0.3144   1.1875  -7.5483   0.00    0.0
2085 302618.000   48.780737661    9.171596996   337.2899   5   7   8.1395   3.8432  10.9080  -0.3202   1.1896  -7.5481   0.00    0.0
2085 302619.000   48.780727475    9.171593624   337.5443   5   7   8.1394   3.8432  10.9076  -0.3259   1.1916  -7.5480   0.00    0.0
2085 302620.000   48.780723899    9.171594442   337.9537   5   7   8.1393   3.8433  10.9073  -0.3315   1.1937  -7.5478   0.00    0.0
2085 302621.000   48.780731732    9.171594902   337.4714   5   7   8.1393   3.8433  10.9069  -0.3370   1.1957  -7.5476   0.00    0.0
2085 302622.000   48.780737882    9.171591636   337.0766   5   7   8.1392   3.8433  10.9066  -0.3424   1.1978  -7.5475   0.00    0.0
2085 302623.000   48.780734665    9.171589970   337.1943   5   7   8.1391   3.8434  10.9062  -0.3477   1.1998  -7.5473   0.00    0.0
2085 302624.000   48.780733577    9.171590711   337.4340   5   7   8.1390   3.8434  10.9058  -0.3529   1.2018  -7.5472   0.00    0.0
2085 302625.000   48.780733831    9.171591420   337.4765   5   7   8.1390   3.8434  10.9055  -0.3581   1.2038  -7.5470   0.00    0.0
2085 302626.000   48.780735975    9.171590621   337.4045   5   7   8.1389   3.8435  10.9051  -0.3632   1.2059  -7.5469   0.00    0.0
2085 302627.000   48.780738527    9.171595081   337.0385   5   7   8.1388   3.8435  10.9047  -0.3682   1.2079  -7.5467   0.00    0.0
2085 302628.000   48.780736912    9.171586852   337.6083   5   7   8.1387   3.8435  10.9044  -0.3732   1.2099  -7.5466   0.00    0.0
2085 302629.000   48.780727221    9.171594741   338.0637   5   7   8.1387   3.8435  10.9040  -0.3780   1.2119  -7.5464   0.00    0.0
2085 302630.000   48.780735295    9.171595234   337.0424   5   7   8.1386   3.8436  10.9036  -0.3829   1.2139  -7.5462   0.00    0.0
2085 302631.000   48.780737270    9.171592158   337.2051   5   7   8.1385   3.8436  10.9033  -0.3876   1.2159  -7.5461   0.00    0.0
2085 302632.000   48.780732869    9.171595028   337.8865   5   7   8.1384   3.8436  10.9029  -0.3923   1.2179  -7.5459   0.00    0.0
2085 302633.000   48.780737386    9.171592625   337.7766   5   7   8.1384   3.8437  10.9025  -0.3970   1.2199  -7.5458   0.00    0.0
2085 302634.000   48.780740082    9.171591358   337.7928   5   7   8.1383   3.8437  10.9021  -0.4016   1.2219  -7.5456   0.00    0.0
2085 302635.000   48.780739789    9.171596712   337.5192   5   7   8.1382   3.8437  10.9018  -0.4061   1.2239  -7.5454   0.00    0.0
2085 302636.000   48.780733993    9.171593536   337.6525   5   7   8.1381   3.8438  10.9014  -0.4106   1.2259  -7.5453   0.00    0.0
2085 302637.000   48.780731866    9.171595720   337.5478   5   7   8.1381   3.8438  10.9010  -0.4151   1.2279  -7.5451   0.00    0.0
2085 302638.000   48.780745096    9.171589388   336.7196   5   7   8.1380   3.8438  10.9007  -0.4195   1.2299  -7.5450   0.00    0.0
2085 302639.000   48.780737499    9.171590215   337.4072   5   7   8.1379   3.8439  10.9003  -0.4238   1.2318  -7.5448   0.00    0.0
2085 302640.000   48.780738635    9.171588026   337.2227   5   7   8.1378   3.8439  10.8999  -0.4282   1.2338  -7.5446   0.00    0.0
2085 302641.000   48.780739387    9.171594347   337.8507   5   7   8.1377   3.8439  10.8995  -0.4324   1.2358  -7.5445   0.00    0.0
2085 302642.000   48.780734655    9.171595241   337.5061   5   7   8.1377   3.8440  10.8991  -0.4366   1.2377  -7.5443   0.00    0.0
2085 302643.000   48.780731012    9.171594383   337.9096   5   7   8.1376   3.8440  10.8988  -0.4408   1.2397  -7.5441   0.00    0.0
2085 302644.000   48.780732378    9.171591973   338.0835   5   7   8.1375   3.8440  10.8984  -0.4450   1.2416  -7.5440   0.00    0.0
2085 302645.000   48.780732992    9.171598833   337.6891   5   7   8.1374   3.8441  10.8980  -0.4491   1.2436  -7.5438   0.00    0.0
2085 302646.000   48.780738463    9.171596536   337.1165   5   7   8.1373   3.8441  10.8976  -0.4531   1.2456  -7.5436   0.00    0.0
2085 302647.000   48.780733505    9.171597443   337.4445   5   7   8.1373   3.8441  10.8972  -0.4572   1.2475  -7.5435   0.00    0.0
2085 302648.000   48.780735171    9.171596570   336.4858   5   7   8.1372   3.8442  10.8968  -0.4612   1.2494  -7.5433   0.00    0.0
2085 302649.000   48.780737888    9.171597150   336.8465   5   7   8.1371   3.8442  10.8965  -0.4651   1.2514  -7.5431   0.00    0.0
2085 302650.000   48.780734388    9.171595486   336.6293   5   7   8.1370   3.8442  10.8961  -0.4691   1.2533  -7.5429   0.00    0.0
2085 302651.000   48.780729094    9.171593918   336.7065   5   7   8.1369   3.8443  10.8957  -0.4730   1.2553  -7.5428   0.00    0.0
2085 302652.000   48.780730366    9.171591789   336.2842   5   7   8.1368   3.8443  10.8953  -0.4768   1.2572  -7.5426   0.00    0.0
2085 302653.000   48.780732857    9.171589943   337.6426   5   7   8.1368   3.8443  10.8949  -0.4807   1.2591  -7.5424   0.00    0.0
2085 302654.000   48.780735184    9.171589259   336.7127   5   7   8.1367   3.8444  10.8945  -0.4845   1.2610  -7.5423   0.00    0.0
2085 302655.000   48.780736709    9.171589504   337.1920   5   7   8.1366   3.8444  10.8941  -0.4883   1.2630  -7.5421   0.00    0.0
2085 302656.000   48.780733402    9.171590523   337.4321   5   7   8.1365   3.8444  10.8937  -0.4920   1.2649  -7.5419   0.00    0.0
2085 302657.000   48.780733797    9.171592006   336.7546   5   7   8.1364   3.8445  10.8934  -0.4957   1.2668  -7.5417   0.00    0.0
2085 302658.000   48.780735044    9.171598517   337.2656   5   7   8.1363   3.8445  10.8930  -0.4994   1.2687  -7.5416   0.00    0.0
2085 302659.000   48.780725969    9.171592329   338.1014   5   7   8.1362   3.8445  10.8926  -0.5031   1.2706  -7.5414   0.00    0.0
2085 302660.000   48.780732099    9.171589342   337.4910   5   7   8.1362   3.8446  10.8922  -0.5067   1.2725  -7.5412   0.00    0.0
2085 302661.000   48.780734605    9.171591427   337.1611   5   7   8.1361   3.8446  10.8918  -0.5103   1.2744  -7.5410   0.00    0.0
2085 302662.000   48.780739166    9.171588972   337.2724   5   7   8.1360   3.8446  10.8914  -0.5139   1.2763  -7.5408   0.00    0.0
2085 302663.000   48.780732052    9.171593372   337.6514   5   7   8.1359   3.8447  10.8910  -0.5175   1.2782  -7.5407   0.00    0.0
2085 302664.000   48.780734514    9.171594312   337.8431   5   7   8.1358   3.8447  10.8906  -0.5210   1.2801  -7.5405   0.00    0.0
2085 302665.000   48.780732697    9.171594348   337.5649   5   7   8.1357   3.8448  10.8902  -0.5245   1.2820  -7.5403   0.00    0.0
2085 302666.000   48.780734248    9.171589912   336.9368   5   7   8.1356   3.8448  10.8898  -0.5280   1.2839  -7.5401   0.00    0.0
2085 302667.000   48.780736251    9.171589989   336.9252   5   7   8.1355   3.8448  10.8894  -0.5315   1.2858  -7.5399   0.00    0.0
2085 302668.000   48.780739648    9.171591069   337.1784   5   7   8.1355   3.8449  10.8890  -0.5349   1.2877  -7.5398   0.00    0.0
2085 302669.000   48.780735103    9.171591239   336.1899   5   7   8.1354   3.8449  10.8886  -0.5383   1.2895  -7.5396   0.00    0.0
2085 302670.000   48.780736163    9.171591968   336.3662   5   7   8.1353   3.8449  10.8882  -0.5417   1.2914  -7.5394   0.00    0.0
2085 302671.000   48.780741761    9.171593516   336.1727   5   7   8.1352   3.8450  10.8878  -0.5451   1.2933  -7.5392   0.00    0.0
2085 302672.000   48.780739370    9.171591616   336.5169   5   7   8.1351   3.8450  10.8874  -0.5485   1.2951  -7.5390   0.00    0.0
2085 302673.000   48.780744135    9.171589717   336.1440   5   7   8.1350   3.8450  10.8870  -0.5518   1.2970  -7.5388   0.00    0.0
2085 302674.000   48.780741951    9.171590754   336.5786   5   7   8.1349   3.8451  10.8866  -0.5551   1.2989  -7.5386   0.00    0.0
2085 302675.000   48.780739261    9.171588448   337.2388   5   7   8.1348   3.8451  10.8862  -0.5584   1.3007  -7.5385   0.00    0.0
2085 302676.000   48.780730983    9.171589383   337.9056   5   7   8.1347   3.8451  10.8857  -0.5617   1.3026  -7.5383   0.00    0.0
2085 302677.000   48.780730339    9.171585688   337.7538   5   7   8.1346   3.8452  10.8853  -0.5650   1.3044  -7.5381   0.00    0.0
2085 302678.000   48.780740504    9.171587490   336.8458   5   7   8.1345   3.8452  10.8849  -0.5682   1.3063  -7.5379   0.00    0.0
2085 302679.000   48.780735125    9.171591530   337.6761   5   7   8.1345   3.8453  10.8845  -0.5714   1.3081  -7.5377   0.00    0.0
2085 302680.000   48.780741191    9.171590550   336.8844   5   7   8.1344   3.8453  10.8841  -0.5746   1.3100  -7.5375   0.00    0.0
2085 302681.000   48.780737193    9.171588977   336.8462   5   7   8.1343   3.8453  10.8837  -0.5778   1.3118  -7.5373   0.00    0.0
2085 302682.000   48.780744127    9.171592339   337.0736   5   7   8.1342   3.8454  10.8833  -0.5810   1.3137  -7.5371   0.00    0.0
2085 302683.000   48.780742759    9.171591135   336.7353   5   7   8.1341   3.8454  10.8829  -0.5842   1.3155  -7.5369   0.00    0.0
2085 302684.000   48.780739104    9.171592398   336.7019   5   7   8.1340   3.8454  10.8825  -0.5873   1.3173  -7.5368   0.00    0.0
2085 302685.000   48.780737160    9.171591272   337.5195   5   7   8.1339   3.8455  10.8820  -0.5904   1.3192  -7.5366   0.00    0.0
2085 302686.000   48.780737067    9.171593495   337.5112   5   7   8.1338   3.8455  10.8816  -0.5935   1.3210  -7.5364   0.00    0.0
2085 302687.000   48.780729542    9.171591445   337.4760   5   7   8.1337   3.8456  10.8812  -0.5966   1.3228  -7.5362   0.00    0.0
2085 302688.000   48.780731159    9.171593724   337.5381   5   7   8.1336   3.8456  10.8808  -0.5997   1.3246  -7.5360   0.00    0.0
2085 302689.000   48.780730349    9.171596536   337.8376   5   7   8.1335   3.8456  10.8804  -0.6027   1.3264  -7.5358   0.00    0.0
2085 302690.000   48.780740520    9.171593087   337.3732   5   7   8.1334   3.8457  10.8800  -0.6058   1.3283  -7.5356   0.00    0.0
2085 302691.000   48.780733084    9.171594193   337.8267   5   7   8.1333   3.8457  10.8795  -0.6088   1.3301  -7.5354   0.00    0.0
2085 302692.000   48.780726582    9.171600855   338.2033   5   7   8.1332   3.8457  10.8791  -0.6118   1.3319  -7.5352   0.00    0.0
2085 302693.000   48.780734139    9.171595586   338.2620   5   7   8.1331   3.8458  10.8787  -0.6148   1.3337  -7.5350   0.00    0.0
2085 302694.000   48.780729739    9.171598749   338.0908   5   7   8.1330   3.8458  10.8783  -0.6178   1.3355  -7.5348   0.00    0.0
2085 302695.000   48.780731179    9.171595145   337.3794   5   7   8.1329   3.8459  10.8778  -0.6207   1.3373  -7.5346   0.00    0.0
2085 302696.000   48.780739623    9.171594929   336.4598   5   7   8.1328   3.8459  10.8774  -0.6237   1.3391  -7.5344   0.00    0.0
2085 302697.000   48.780737718    9.171593375   336.7964   5   7   8.1327   3.8459  10.8770  -0.6266   1.3409  -7.5342   0.00    0.0
2085 302698.000   48.780729373    9.171597509   336.7532   5   7   8.1326   3.8460  10.8766  -0.6295   1.3427  -7.5340   0.00    0.0
2085 302699.000   48.780731224    9.171592795   337.2185   5   7   8.1325   3.8460  10.8761  -0.6325   1.3445  -7.5338   0.00    0.0
2085 302700.000   48.780724596    9.171593770   337.7637   5   7   8.1324   3.8461  10.8757  -0.6353   1.3463  -7.5336   0.00    0.0
2085 302701.000   48.780732101    9.171595587   337.6504   5   7   8.1323   3.8461  10.8753  -0.6382   1.3480  -7.5334   0.00    0.0
2085 302702.000   48.780731576    9.171595045   337.4174   5   7   8.1322   3.8461  10.8749  -0.6411   1.3498  -7.5332   0.00    0.0
2085 302703.000   48.780732089    9.171595478   337.7028   5   7   8.1321   3.8462  10.8744  -0.6440   1.3516  -7.5330   0.00    0.0
2085 302704.000   48.780734579    9.171588949   337.5423   5   7   8.1320   3.8462  10.8740  -0.6468   1.3534  -7.5328   0.00    0.0
2085 302705.000   48.780734592    9.171591726   337.7276   5   7   8.1319   3.8463  10.8736  -0.6496   1.3552  -7.5326   0.00    0.0
2085 302706.000   48.780732208    9.171593119   337.7455   5   7   8.1318   3.8463  10.8731  -0.6525   1.3569  -7.5324   0.00    0.0
2085 302707.000   48.780736516    9.171594107   336.8923   5   7   8.1317   3.8463  10.8727  -0.6553   1.3587  -7.5322   0.00    0.0
2085 302708.000   48.780740195    9.171595760   337.0624   5   7   8.1316   3.8464  10.8723  -0.6581   1.3605  -7.5319   0.00    0.0
2085 302709.000   48.780741326    9.171596784   336.9238   5   7   8.1315   3.8464  10.8718  -0.6608   1.3622  -7.5317   0.00    0.0
2085 302710.000   48.780738042    9.171589837   337.1529   5   7   8.1314   3.8465  10.8714  -0.6636   1.3640  -7.5315   0.00    0.0
2085 302711.000   48.780734114    9.171595694   337.3085   5   7   8.1313   3.8465  10.8710  -0.6664   1.3658  -7.5313   0.00    0.0
2085 302712.000   48.780734377    9.171593083   337.2798   5   7   8.1312   3.8465  10.8705  -0.6691   1.3675  -7.5311   0.00    0.0
2085 302713.000   48.780735021    9.171590240   337.0859   5   7   8.1311   3.8466  10.8701  -0.6719   1.3693  -7.5309   0.00    0.0
2085 302714.000   48.780732336    9.171590702   337.5318   5   7   8.1309   3.8466  10.8696  -0.6746   1.3710  -7.5307   0.00    0.0
2085 302715.000   48.780741012    9.171593599   336.4802   5   7   8.1308   3.8467  10.8692  -0.6773   1.3728  -7.5305   0.00    0.0
2085 302716.000   48.780734931    9.171593139   336.9804   5   7   8.1307   3.8467  10.8688  -0.6800   1.3745  -7.5303   0.00    0.0
2085 302717.000   48.780736211    9.171592767   336.6239   5   7   8.1306   3.8467  10.8683  -0.6827   1.3763  -7.5300   0.00    0.0
2085 302718.000   48.780732387    9.171588652   337.0064   5   7   8.1305   3.8468  10.8679  -0.6854   1.3780  -7.5298   0.00    0.0
2085 302719.000   48.780735703    9.171591732   337.2602   5   7   8.1304   3.8468  10.8674  -0.6881   1.3797  -7.5296   0.00    0.0
2085 302720.000   48.780735933    9.171589494   337.2178   5   7   8.1303   3.8469  10.8670  -0.6907   1.3815  -7.5294   0.00    0.0
2085 302721.000   48.780735483    9.171590741   336.4926   5   7   8.1302   3.8469  10.8665  -0.6934   1.3832  -7.5292   0.00    0.0
2085 302722.000   48.780734122    9.171590944   335.9935   5   7   8.1301   3.8470  10.8661  -0.6960   1.3849  -7.5290   0.00    0.0
2085 302723.000   48.780732988    9.171588999   337.0021   5   7   8.1300   3.8470  10.8656  -0.6987   1.3867  -7.5288   0.00    0.0
2085 302724.000   48.780736904    9.171590991   336.5304   5   7   8.1299   3.8470  10.8652  -0.7013   1.3884  -7.5285   0.00    0.0
2085 302725.000   48.780739876    9.171592465   335.8759   5   7   8.1297   3.8471  10.8647  -0.7039   1.3901  -7.5283   0.00    0.0
2085 302726.000   48.780726447    9.171590992   336.9268   5   7   8.1296   3.8471  10.8643  -0.7065   1.3918  -7.5281   0.00    0.0
2085 302727.000   48.780733143    9.171594396   336.3766   5   7   8.1295   3.8472  10.8638  -0.7091   1.3935  -7.5279   0.00    0.0
2085 302728.000   48.780731918    9.171597679   336.9099   5   7   8.1294   3.8472  10.8634  -0.7117   1.3953  -7.5277   0.00    0.0
2085 302729.000   48.780727245    9.171596265   337.3929   5   7   8.1293   3.8472  10.8629  -0.7142   1.3970  -7.5274   0.00    0.0
2085 302730.000   48.780733815    9.171596034   337.5926   5   7   8.1292   3.8473  10.8625  -0.7168   1.3987  -7.5272   0.00    0.0
2085 302731.000   48.780734114    9.171594448   337.3310   5   7   8.1291   3.8473  10.8620  -0.7194   1.4004  -7.5270   0.00    0.0
2085 302732.000   48.780736474    9.171594195   336.8764   5   7   8.1290   3.8474  10.8616  -0.7219   1.4021  -7.5268   0.00    0.0
2085 302733.000   48.780727986    9.171596563   337.6310   5   7   8.1288   3.8474  10.8611  -0.7245   1.4038  -7.5266   0.00    0.0
2085 302734.000   48.780732457    9.171594061   337.1518   5   7   8.1287   3.8475  10.8607  -0.7270   1.4055  -7.5263   0.00    0.0
2085 302735.000   48.780733565    9.171596283   337.5622   5   7   8.1286   3.8475  10.8602  -0.7295   1.4072  -7.5261   0.00    0.0
2085 302736.000   48.780735502    9.171599334   337.1929   5   7   8.1285   3.8475  10.8598  -0.7320   1.4089  -7.5259   0.00    0.0
2085 302737.000   48.780737980    9.171594343   336.9245   5   7   8.1284   3.8476  10.8593  -0.7345   1.4106  -7.5257   0.00    0.0
2085 302738.000   48.780739513    9.171595451   336.7228   5   7   8.1283   3.8476  10.8588  -0.7370   1.4123  -7.5254   0.00    0.0
2085 302739.000   48.780737548    9.171594746   337.3014   5   7   8.1282   3.8477  10.8584  -0.7395   1.4140  -7.5252   0.00    0.0
2085 302740.000   48.780737887    9.171594725   337.0313   5   7   8.1280   3.8477  10.8579  -0.7420   1.4157  -7.5250   0.00    0.0
2085 302741.000   48.780733493    9.171597501   336.6535   5   7   8.1279   3.8478  10.8575  -0.7444   1.4173  -7.5248   0.00    0.0
2085 302742.000   48.780740812    9.171597953   336.3477   5   7   8.1278   3.8478  10.8570  -0.7469   1.4190  -7.5245   0.00    0.0
2085 302743.000   48.780736732    9.171595007   336.3665   5   7   8.1277   3.8479  10.8565  -0.7494   1.4207  -7.5243   0.00    0.0
2085 302744.000   48.780737373    9.171593477   335.8950   5   7   8.1276   3.8479  10.8561  -0.7518   1.4224  -7.5241   0.00    0.0
2085 302745.000   48.780735020    9.171597882   337.0134   5   7   8.1275   3.8479  10.8556  -0.7542   1.4241  -7.5238   0.00    0.0
2085 302746.000   48.780737026    9.171596150   336.9310   5   7   8.1273   3.8480  10.8551  -0.7567   1.4257  -7.5236   0.00    0.0
2085 302747.000   48.780742201    9.171597641   336.0112   5   7   8.1272   3.8480  10.8547  -0.7591   1.4274  -7.5234   0.00    0.0
2085 302748.000   48.780736259    9.171596022   336.7140   5   7   8.1271   3.8481  10.8542  -0.7615   1.4291  -7.5231   0.00    0.0
2085 302749.000   48.780726725    9.171598766   337.8334   5   7   8.1270   3.8481  10.8537  -0.7639   1.4307  -7.5229   0.00    0.0
2085 302750.000   48.780733596    9.171594185   336.8735   5   7   8.1269   3.8482  10.8533  -0.7663   1.4324  -7.5227   0.00    0.0
2085 302751.000   48.780738091    9.171593065   336.8652   5   7   8.1267   3.8482  10.8528  -0.7687   1.4341  -7.5224   0.00    0.0
2085 302752.000   48.780729865    9.171591656   336.9236   5   7   8.1266   3.8483  10.8523  -0.7711   1.4357  -7.5222   0.00    0.0
2085 302753.000   48.780735876    9.171594684   336.6862   5   7   8.1265   3.8483  10.8519  -0.7735   1.4374  -7.5220   0.00    0.0
2085 302754.000   48.780736476    9.171594861   336.2437   5   7   8.1264   3.8483  10.8514  -0.7758   1.4390  -7.5217   0.00    0.0
2085 302755.000   48.780730889    9.171592690   337.0483   5   7   8.1263   3.8484  10.8509  -0.7782   1.4407  -7.5215   0.00    0.0
2085 302756.000   48.780732917    9.171590100   336.6197   5   7   8.1261   3.8484  10.8504  -0.7806   1.4423  -7.5213   0.00    0.0
2085 302757.000   48.780735261    9.171593279   337.0957   5   7   8.1260   3.8485  10.8500  -0.7829   1.4440  -7.5210   0.00    0.0
2085 302758.000   48.780737388    9.171595810   336.4539   5   7   8.1259   3.8485  10.8495  -0.7852   1.4456  -7.5208   0.00    0.0
2085 302759.000   48.780731376    9.171595387   337.0409   5   7   8.1258   3.8486  10.8490  -0.7876   1.4473  -7.5205   0.00    0.0
2085 302760.000   48.780736474    9.171589767   337.1066   5   7   8.1256   3.8486  10.8485  -0.7899   1.4489  -7.5203   0.00    0.0
2085 302761.000   48.780734234    9.171598453   336.8550   5   7   8.1255   3.8487  10.8481  -0.7922   1.4506  -7.5201   0.00    0.0
2085 302762.000   48.780729274    9.171592725   337.3770   5   7   8.1254   3.8487  10.8476  -0.7945   1.4522  -7.5198   0.00    0.0
2085 302763.000   48.780734708    9.171594019   336.9019   5   7   8.1253   3.8488  10.8471  -0.7968   1.4538  -7.5196   0.00    0.0
2085 302764.000   48.780731840    9.171593933   337.8191   5   7   8.1252   3.8488  10.8466  -0.7991   1.4555  -7.5193   0.00    0.0
2085 302765.000   48.780731049    9.171595462   338.4825   5   7   8.1250   3.8489  10.8461  -0.8014   1.4571  -7.5191   0.00    0.0
2085 302766.000   48.780728400    9.171594093   337.8367   5   7   8.1249   3.8489  10.8457  -0.8037   1.4587  -7.5189   0.00    0.0
2085 302767.000   48.780731517    9.171593041   337.5841   5   7   8.1248   3.8489  10.8452  -0.8060   1.4603  -7.5186   0.00    0.0
2085 302768.000   48.780730188    9.171590833   337.9169   5   7   8.1246   3.8490  10.8447  -0.8083   1.4620  -7.5184   0.00    0.0
2085 302769.000   48.780730901    9.171591789   337.7348   5   7   8.1245   3.8490  10.8442  -0.8105   1.4636  -7.5181   0.00    0.0
2085 302770.000   48.780731448    9.171597337   337.5160   5   7   8.1244   3.8491  10.8437  -0.8128   1.4652  -7.5179   0.00    0.0
2085 302771.000   48.780731125    9.171596453   337.6957   5   7   8.1243   3.8491  10.8432  -0.8150   1.4668  -7.5176   0.00    0.0
2085 302772.000   48.780732039    9.171597197   337.4141   5   7   8.1241   3.8492  10.8427  -0.8173   1.4684  -7.5174   0.00    0.0
2085 302773.000   48.780737094    9.171591029   337.0932   5   7   8.1240   3.8492  10.8423  -0.8195   1.4701  -7.5171   0.00    0.0
2085 302774.000   48.780734145    9.171592217   337.8718   5   7   8.1239   3.8493  10.8418  -0.8218   1.4717  -7.5169   0.00    0.0
2085 302775.000   48.780735203    9.171593889   337.0208   5   7   8.1238   3.8493  10.8413  -0.8240   1.4733  -7.5166   0.00    0.0
2085 302776.000   48.780734551    9.171591086   337.5434   5   7   8.1236   3.8494  10.8408  -0.8262   1.4749  -7.5164   0.00    0.0
2085 302777.000   48.780730941    9.171591316   337.4162   5   7   8.1235   3.8494  10.8403  -0.8284   1.4765  -7.5161   0.00    0.0
2085 302778.000   48.780735735    9.171591095   336.8340   5   7   8.1234   3.8495  10.8398  -0.8307   1.4781  -7.5159   0.00    0.0
2085 302779.000   48.780732601    9.171589282   337.3528   5   7   8.1232   3.8495  10.8393  -0.8329   1.4797  -7.5156   0.00    0.0
2085 302780.000   48.780734978    9.171593815   336.5305   5   7   8.1231   3.8496  10.8388  -0.8351   1.4813  -7.5154   0.00    0.0
2085 302781.000   48.780732950    9.171592352   336.7742   5   7   8.1230   3.8496  10.8383  -0.8373   1.4829  -7.5151   0.00    0.0
2085 302782.000   48.780729584    9.171593343   337.7095   5   7   8.1228   3.8497  10.8378  -0.8394   1.4845  -7.5149   0.00    0.0
2085 302783.000   48.780724010    9.171596580   337.8302   5   7   8.1227   3.8497  10.8373  -0.8416   1.4861  -7.5146   0.00    0.0
2085 302784.000   48.780731610    9.171592528   337.2257   5   7   8.1226   3.8498  10.8368  -0.8438   1.4877  -7.5144   0.00    0.0
2085 302785.000   48.780724249    9.171596800   338.3337   5   7   8.1224   3.8498  10.8363  -0.8460   1.4893  -7.5141   0.00    0.0
2085 302786.000   48.780735586    9.171593758   337.2490   5   7   8.1223   3.8499  10.8358  -0.8481   1.4908  -7.5139   0.00    0.0
2085 302787.000   48.780730337    9.171593282   337.8610   5   7   8.1222   3.8499  10.8354  -0.8503   1.4924  -7.5136   0.00    0.0
2085 302788.000   48.780728767    9.171593660   337.5425   5   7   8.1220   3.8499  10.8349  -0.8524   1.4940  -7.5134   0.00    0.0
2085 302789.000   48.780733306    9.171592022   336.9304   5   7   8.1219   3.8500  10.8344  -0.8546   1.4956  -7.5131   0.00    0.0
2085 302790.000   48.780731510    9.171589801   336.4560   5   7   8.1218   3.8500  10.8339  -0.8567   1.4972  -7.5129   0.00    0.0
2085 302791.000   48.780736272    9.171592719   337.2688   5   7   8.1216   3.8501  10.8333  -0.8589   1.4987  -7.5126   0.00    0.0
2085 302792.000   48.780746464    9.171591171   336.2670   5   7   8.1215   3.8501  10.8328  -0.8610   1.5003  -7.5123   0.00    0.0
2085 302793.000   48.780737799    9.171592816   336.4003   5   7   8.1214   3.8502  10.8323  -0.8631   1.5019  -7.5121   0.00    0.0
2085 302794.000   48.780735093    9.171596096   336.4562   5   7   8.1212   3.8502  10.8318  -0.8653   1.5035  -7.5118   0.00    0.0
2085 302795.000   48.780734263    9.171592982   337.4684   5   7   8.1211   3.8503  10.8313  -0.8674   1.5050  -7.5116   0.00    0.0
2085 302796.000   48.780737731    9.171593875   336.6736   5   7   8.1210   3.8503  10.8308  -0.8695   1.5066  -7.5113   0.00    0.0
2085 302797.000   48.780733080    9.171586888   336.4726   5   7   8.1208   3.8504  10.8303  -0.8716   1.5082  -7.5110   0.00    0.0
2085 302798.000   48.780741879    9.171594584   336.7435   5   7   8.1207   3.8504  10.8298  -0.8737   1.5097  -7.5108   0.00    0.0
2085 302799.000   48.780734637    9.171596136   337.1182   5   7   8.1206   3.8505  10.8293  -0.8758   1.5113  -7.5105   0.00    0.0
2085 302800.000   48.780739027    9.171594189   336.0828   5   7   8.1204   3.8505  10.8288  -0.8779   1.5128  -7.5102   0.00    0.0
2085 302801.000   48.780737754    9.171597019   336.5507   5   7   8.1203   3.8506  10.8283  -0.8800   1.5144  -7.5100   0.00    0.0
2085 302802.000   48.780741107    9.171597796   336.5316   5   7   8.1201   3.8506  10.8278  -0.8820   1.5159  -7.5097   0.00    0.0
2085 302803.000   48.780737446    9.171597912   337.8094   5   7   8.1200   3.8507  10.8273  -0.8841   1.5175  -7.5095   0.00    0.0
2085 302804.000   48.780742462    9.171595807   337.1320   5   7   8.1199   3.8507  10.8268  -0.8862   1.5191  -7.5092   0.00    0.0
2085 302805.000   48.780738486    9.171595905   336.7665   5   7   8.1197   3.8508  10.8262  -0.8883   1.5206  -7.5089   0.00    0.0
2085 302806.000   48.780741696    9.171602218   337.1142   5   7   8.1196   3.8509  10.8257  -0.8903   1.5221  -7.5087   0.00    0.0
2085 302807.000   48.780745650    9.171597380   336.6955   5   7   8.1195   3.8509  10.8252  -0.8924   1.5237  -7.5084   0.00    0.0
2085 302808.000   48.780738850    9.171598427   336.7285   5   7   8.1193   3.8510  10.8247  -0.8944   1.5252  -7.5081   0.00    0.0
2085 302809.000   48.780743310    9.171597559   336.7144   5   7   8.1192   3.8510  10.8242  -0.8965   1.5268  -7.5079   0.00    0.0
2085 302810.000   48.780739701    9.171598515   337.1073   5   7   8.1190   3.8511  10.8237  -0.8985   1.5283  -7.5076   0.00    0.0
2085 302811.000   48.780739343    9.171600682   337.1401   5   7   8.1189   3.8511  10.8231  -0.9005   1.5299  -7.5073   0.00    0.0
2085 302812.000   48.780743719    9.171602525   337.1595   5   7   8.1187   3.8512  10.8226  -0.9026   1.5314  -7.5070   0.00    0.0
2085 302813.000   48.780738986    9.171598216   337.9068   5   7   8.1186   3.8512  10.8221  -0.9046   1.5329  -7.5068   0.00    0.0
2085 302814.000   48.780740663    9.171599232   336.8314   5   7   8.1185   3.8513  10.8216  -0.9066   1.5345  -7.5065   0.00    0.0
2085 302815.000   48.780740431    9.171600086   337.1766   5   7   8.1183   3.8513  10.8211  -0.9086   1.5360  -7.5062   0.00    0.0
2085 302816.000   48.780742383    9.171597724   336.8064   5   7   8.1182   3.8514  10.8205  -0.9107   1.5375  -7.5060   0.00    0.0
2085 302817.000   48.780740385    9.171595764   337.9211   5   7   8.1180   3.8514  10.8200  -0.9127   1.5390  -7.5057   0.00    0.0
2085 302818.000   48.780739473    9.171594488   336.9448   5   7   8.1179   3.8515  10.8195  -0.9147   1.5406  -7.5054   0.00    0.0
2085 302819.000   48.780732922    9.171592060   337.5246   5   7   8.1177   3.8515  10.8190  -0.9167   1.5421  -7.5051   0.00    0.0
2085 302820.000   48.780737049    9.171594821   337.5656   5   7   8.1176   3.8516  10.8185  -0.9187   1.5436  -7.5049   0.00    0.0
2085 302821.000   48.780735512    9.171596396   337.3473   5   7   8.1175   3.8516  10.8179  -0.9207   1.5451  -7.5046   0.00    0.0
2085 302822.000   48.780735480    9.171596865   338.0673   5   7   8.1173   3.8517  10.8174  -0.9227   1.5466  -7.5043   0.00    0.0
2085 302823.000   48.780735955    9.171599412   337.4557   5   7   8.1172   3.8517  10.8169  -0.9246   1.5482  -7.5040   0.00    0.0
2085 302824.000   48.780733910    9.171598524   337.0170   5   7   8.1170   3.8518  10.8163  -0.9266   1.5497  -7.5038   0.00    0.0
2085 302825.000   48.780742810    9.171596937   336.4080   5   7   8.1169   3.8518  10.8158  -0.9286   1.5512  -7.5035   0.00    0.0
2085 302826.000   48.780738714    9.171593765   337.3920   5   7   8.1167   3.8519  10.8153  -0.9306   1.5527  -7.5032   0.00    0.0
2085 302827.000   48.780736684    9.171588481   337.3350   5   7   8.1166   3.8519  10.8148  -0.9325   1.5542  -7.5029   0.00    0.0
2085 302828.000   48.780730630    9.171586967   337.0536   5   7   8.1164   3.8520  10.8142  -0.9345   1.5557  -7.5026   0.00    0.0
2085 302829.000   48.780736501    9.171593574   337.0963   5   7   8.1163   3.8521  10.8137  -0.9365   1.5572  -7.5024   0.00    0.0
2085 302830.000   48.780736586    9.171591372   337.1560   5   7   8.1161   3.8521  10.8132  -0.9384   1.5587  -7.5021   0.00    0.0
2085 302831.000   48.780731254    9.171585701   337.7252   5   7   8.1160   3.8522  10.8126  -0.9404   1.5602  -7.5018   0.00    0.0
2085 302832.000   48.780732412    9.171585194   336.7787   5   7   8.1158   3.8522  10.8121  -0.9423   1.5617  -7.5015   0.00    0.0
2085 302833.000   48.780729232    9.171587109   337.7016   5   7   8.1157   3.8523  10.8116  -0.9442   1.5632  -7.5012   0.00    0.0
2085 302834.000   48.780736760    9.171592686   337.2346   5   7   8.1155   3.8523  10.8110  -0.9462   1.5647  -7.5010   0.00    0.0
2085 302835.000   48.780729139    9.171589754   337.9158   5   7   8.1154   3.8524  10.8105  -0.9481   1.5662  -7.5007   0.00    0.0
2085 302836.000   48.780730029    9.171593401   337.8160   5   7   8.1152   3.8524  10.8100  -0.9500   1.5677  -7.5004   0.00    0.0
2085 302837.000   48.780726736    9.171594110   337.7403   5   7   8.1151   3.8525  10.8094  -0.9520   1.5692  -7.5001   0.00    0.0
2085 302838.000   48.780731444    9.171593339   337.5957   5   7   8.1149   3.8525  10.8089  -0.9539   1.5707  -7.4998   0.00    0.0
2085 302839.000   48.780731181    9.171594927   337.2775   5   7   8.1148   3.8526  10.8083  -0.9558   1.5722  -7.4995   0.00    0.0
2085 302840.000   48.780734142    9.171593109   337.4845   5   7   8.1146   3.8526  10.8078  -0.9577   1.5736  -7.4992   0.00    0.0
2085 302841.000   48.780738992    9.171595659   336.8991   5   7   8.1145   3.8527  10.8073  -0.9596   1.5751  -7.4990   0.00    0.0
2085 302842.000   48.780735219    9.171597938   337.3079   5   7   8.1143   3.8528  10.8067  -0.9615   1.5766  -7.4987   0.00    0.0
2085 302843.000   48.780738720    9.171595671   337.0859   5   7   8.1142   3.8528  10.8062  -0.9634   1.5781  -7.4984   0.00    0.0
2085 302844.000   48.780731302    9.171596129   337.8961   5   7   8.1140   3.8529  10.8056  -0.9653   1.5796  -7.4981   0.00    0.0
