% program   : RTKPOST ver.2.4.3 b33
% inp file  : E:\Study\master\semester 3\Satellite Navigation\lab5\data_sets\INSA00DEU_R_20193591200_01H_01S_MO.rnx
% inp file  : E:\Study\master\semester 3\Satellite Navigation\lab5\data_sets\INSA00DEU_R_20193591200_01H_01S_MN.rnx
% obs start : 2019/12/25 12:00:00.0 GPST (week2085 302400.0s)
% obs end   : 2019/12/25 12:59:59.0 GPST (week2085 305999.0s)
% pos mode  : single
% elev mask : 5.0 deg
% ionos opt : broadcast
% tropo opt : saastamoinen
% ephemeris : broadcast
%
% (lat/lon/height=WGS84/ellipsoidal,Q=1:fix,2:float,3:sbas,4:dgps,5:single,6:ppp,ns=# of satellites)
%  GPST          latitude(deg) longitude(deg)  height(m)   Q  ns   sdn(m)   sde(m)   sdu(m)  sdne(m)  sdeu(m)  sdun(m) age(s)  ratio
2085 302400.000   48.780706906    9.171597586   326.6582   5   7   4.1546   1.9727   5.1488   0.5958  -0.6402  -3.5274   0.00    0.0
2085 302401.000   48.780713383    9.171597519   326.3410   5   7   4.1546   1.9728   5.1489   0.5954  -0.6393  -3.5276   0.00    0.0
2085 302402.000   48.780707372    9.171598788   327.2423   5   7   4.1546   1.9728   5.1490   0.5951  -0.6383  -3.5277   0.00    0.0
2085 302403.000   48.780711122    9.171598806   326.3578   5   7   4.1546   1.9729   5.1491   0.5947  -0.6374  -3.5279   0.00    0.0
2085 302404.000   48.780707351    9.171598664   326.9378   5   7   4.1546   1.9729   5.1492   0.5943  -0.6365  -3.5281   0.00    0.0
2085 302405.000   48.780711950    9.171593470   326.8626   5   7   4.1546   1.9729   5.1493   0.5939  -0.6356  -3.5282   0.00    0.0
2085 302406.000   48.780708885    9.171596561   326.5985   5   7   4.1546   1.9730   5.1494   0.5935  -0.6346  -3.5284   0.00    0.0
2085 302407.000   48.780711226    9.171594445   325.9468   5   7   4.1546   1.9730   5.1495   0.5931  -0.6337  -3.5286   0.00    0.0
2085 302408.000   48.780708495    9.171593526   326.1306   5   7   4.1546   1.9731   5.1496   0.5927  -0.6328  -3.5287   0.00    0.0
2085 302409.000   48.780710854    9.171596623   326.0725   5   7   4.1546   1.9731   5.1497   0.5924  -0.6318  -3.5289   0.00    0.0
2085 302410.000   48.780706259    9.171594137   327.1618   5   7   4.1546   1.9731   5.1498   0.5920  -0.6309  -3.5291   0.00    0.0
2085 302411.000   48.780710049    9.171591083   326.3754   5   7   4.1546   1.9732   5.1499   0.5916  -0.6299  -3.5292   0.00    0.0
2085 302412.000   48.780717327    9.171593678   326.0402   5   7   4.1547   1.9732   5.1500   0.5912  -0.6290  -3.5294   0.00    0.0
2085 302413.000   48.780713265    9.171591929   326.4301   5   7   4.1547   1.9733   5.1501   0.5908  -0.6281  -3.5296   0.00    0.0
2085 302414.000   48.780710201    9.171591764   326.9725   5   7   4.1547   1.9733   5.1502   0.5904  -0.6271  -3.5297   0.00    0.0
2085 302415.000   48.780714451    9.171591605   326.7228   5   7   4.1547   1.9734   5.1504   0.5900  -0.6262  -3.5299   0.00    0.0
2085 302416.000   48.780714979    9.171594156   326.5151   5   7   4.1547   1.9734   5.1505   0.5896  -0.6252  -3.5300   0.00    0.0
2085 302417.000   48.780714833    9.171596149   326.2767   5   7   4.1547   1.9734   5.1506   0.5893  -0.6243  -3.5302   0.00    0.0
2085 302418.000   48.780713790    9.171591361   326.2676   5   7   4.1547   1.9735   5.1507   0.5889  -0.6233  -3.5304   0.00    0.0
2085 302419.000   48.780710753    9.171594875   326.0451   5   7   4.1547   1.9735   5.1508   0.5885  -0.6224  -3.5305   0.00    0.0
2085 302420.000   48.780710413    9.171597773   326.4604   5   7   4.1547   1.9736   5.1509   0.5881  -0.6214  -3.5307   0.00    0.0
2085 302421.000   48.780713163    9.171596720   326.3902   5   7   4.1547   1.9736   5.1510   0.5877  -0.6205  -3.5308   0.00    0.0
2085 302422.000   48.780709161    9.171600769   326.3674   5   7   4.1547   1.9736   5.1511   0.5873  -0.6195  -3.5310   0.00    0.0
2085 302423.000   48.780707774    9.171602389   326.6566   5   7   4.1547   1.9737   5.1512   0.5869  -0.6186  -3.5312   0.00    0.0
2085 302424.000   48.780707356    9.171596710   326.6242   5   7   4.1547   1.9737   5.1513   0.5865  -0.6176  -3.5313   0.00    0.0
2085 302425.000   48.780707071    9.171600734   326.9738   5   7   4.1547   1.9738   5.1514   0.5861  -0.6166  -3.5315   0.00    0.0
2085 302426.000   48.780702888    9.171597349   327.0283   5   7   4.1547   1.9738   5.1515   0.5857  -0.6157  -3.5316   0.00    0.0
2085 302427.000   48.780712500    9.171597438   326.2168   5   7   4.1547   1.9738   5.1516   0.5853  -0.6147  -3.5318   0.00    0.0
2085 302428.000   48.780704509    9.171592153   326.1215   5   7   4.1547   1.9739   5.1517   0.5849  -0.6138  -3.5319   0.00    0.0
2085 302429.000   48.780705911    9.171593169   326.1248   5   7   4.1547   1.9739   5.1518   0.5845  -0.6128  -3.5321   0.00    0.0
2085 302430.000   48.780710189    9.171595479   326.0881   5   7   4.1547   1.9740   5.1519   0.5841  -0.6118  -3.5322   0.00    0.0
2085 302431.000   48.780711028    9.171593696   326.0691   5   7   4.1547   1.9740   5.1520   0.5837  -0.6108  -3.5324   0.00    0.0
2085 302432.000   48.780703571    9.171594561   326.6999   5   7   4.1547   1.9741   5.1521   0.5833  -0.6099  -3.5325   0.00    0.0
2085 302433.000   48.780703043    9.171596607   326.5413   5   7   4.1547   1.9741   5.1522   0.5829  -0.6089  -3.5327   0.00    0.0
2085 302434.000   48.780703130    9.171597368   326.3313   5   7   4.1547   1.9741   5.1523   0.5826  -0.6079  -3.5328   0.00    0.0
2085 302435.000   48.780703952    9.171593480   327.3062   5   7   4.1547   1.9742   5.1524   0.5822  -0.6069  -3.5330   0.00    0.0
2085 302436.000   48.780705613    9.171596475   327.2417   5   7   4.1547   1.9742   5.1525   0.5818  -0.6060  -3.5332   0.00    0.0
2085 302437.000   48.780708909    9.171597188   326.7920   5   7   4.1547   1.9743   5.1526   0.5814  -0.6050  -3.5333   0.00    0.0
2085 302438.000   48.780702014    9.171595580   326.6396   5   7   4.1546   1.9743   5.1527   0.5810  -0.6040  -3.5335   0.00    0.0
2085 302439.000   48.780706446    9.171594009   326.6044   5   7   4.1546   1.9744   5.1528   0.5806  -0.6030  -3.5336   0.00    0.0
2085 302440.000   48.780702341    9.171595970   326.6532   5   7   4.1546   1.9744   5.1528   0.5802  -0.6020  -3.5338   0.00    0.0
2085 302441.000   48.780698835    9.171592528   327.0049   5   7   4.1546   1.9744   5.1529   0.5797  -0.6010  -3.5339   0.00    0.0
2085 302442.000   48.780703128    9.171591503   326.1474   5   7   4.1546   1.9745   5.1530   0.5793  -0.6001  -3.5340   0.00    0.0
2085 302443.000   48.780704673    9.171590242   326.1178   5   7   4.1546   1.9745   5.1531   0.5789  -0.5991  -3.5342   0.00    0.0
2085 302444.000   48.780703569    9.171592579   326.7846   5   7   4.1546   1.9746   5.1532   0.5785  -0.5981  -3.5343   0.00    0.0
2085 302445.000   48.780706483    9.171591155   326.5815   5   7   4.1546   1.9746   5.1533   0.5781  -0.5971  -3.5345   0.00    0.0
2085 302446.000   48.780708073    9.171594060   325.9706   5   7   4.1546   1.9747   5.1534   0.5777  -0.5961  -3.5346   0.00    0.0
2085 302447.000   48.780711104    9.171589997   326.0297   5   7   4.1546   1.9747   5.1535   0.5773  -0.5951  -3.5348   0.00    0.0
2085 302448.000   48.780707667    9.171595228   326.7195   5   7   4.1546   1.9747   5.1536   0.5769  -0.5941  -3.5349   0.00    0.0
2085 302449.000   48.780711306    9.171600269   326.5074   5   7   4.1546   1.9748   5.1537   0.5765  -0.5931  -3.5351   0.00    0.0
2085 302450.000   48.780712059    9.171594678   326.5472   5   7   4.1546   1.9748   5.1538   0.5761  -0.5921  -3.5352   0.00    0.0
2085 302451.000   48.780714395    9.171596515   325.7311   5   7   4.1546   1.9749   5.1539   0.5757  -0.5911  -3.5354   0.00    0.0
2085 302452.000   48.780717089    9.171595981   326.5629   5   7   4.1546   1.9749   5.1540   0.5753  -0.5901  -3.5355   0.00    0.0
2085 302453.000   48.780718442    9.171595181   325.8981   5   7   4.1545   1.9750   5.1541   0.5749  -0.5891  -3.5356   0.00    0.0
2085 302454.000   48.780720186    9.171595147   325.7728   5   7   4.1545   1.9750   5.1542   0.5745  -0.5880  -3.5358   0.00    0.0
2085 302455.000   48.780715444    9.171595653   326.2456   5   7   4.1545   1.9750   5.1543   0.5741  -0.5870  -3.5359   0.00    0.0
2085 302456.000   48.780717676    9.171597954   326.1255   5   7   4.1545   1.9751   5.1544   0.5737  -0.5860  -3.5361   0.00    0.0
2085 302457.000   48.780717167    9.171598897   326.0082   5   7   4.1545   1.9751   5.1545   0.5733  -0.5850  -3.5362   0.00    0.0
2085 302458.000   48.780716008    9.171597387   326.4478   5   7   4.1545   1.9752   5.1546   0.5728  -0.5840  -3.5364   0.00    0.0
2085 302459.000   48.780717896    9.171597088   325.9077   5   7   4.1545   1.9752   5.1547   0.5724  -0.5830  -3.5365   0.00    0.0
2085 302460.000   48.780715598    9.171596896   325.8167   5   7   4.1545   1.9753   5.1548   0.5720  -0.5819  -3.5366   0.00    0.0
2085 302461.000   48.780712703    9.171596569   326.2425   5   7   4.1545   1.9753   5.1549   0.5716  -0.5809  -3.5368   0.00    0.0
2085 302462.000   48.780711503    9.171596757   326.7737   5   7   4.1544   1.9753   5.1549   0.5712  -0.5799  -3.5369   0.00    0.0
2085 302463.000   48.780718196    9.171597684   325.9589   5   7   4.1544   1.9754   5.1550   0.5708  -0.5789  -3.5370   0.00    0.0
2085 302464.000   48.780714158    9.171600272   325.9412   5   7   4.1544   1.9754   5.1551   0.5704  -0.5778  -3.5372   0.00    0.0
2085 302465.000   48.780709796    9.171593850   326.2957   5   7   4.1544   1.9755   5.1552   0.5699  -0.5768  -3.5373   0.00    0.0
2085 302466.000   48.780706876    9.171597878   326.1749   5   7   4.1544   1.9755   5.1553   0.5695  -0.5758  -3.5375   0.00    0.0
2085 302467.000   48.780709984    9.171594478   326.5647   5   7   4.1544   1.9756   5.1554   0.5691  -0.5747  -3.5376   0.00    0.0
2085 302468.000   48.780709765    9.171594397   326.4826   5   7   4.1544   1.9756   5.1555   0.5687  -0.5737  -3.5377   0.00    0.0
2085 302469.000   48.780707481    9.171593930   327.0425   5   7   4.1543   1.9757   5.1556   0.5683  -0.5726  -3.5379   0.00    0.0
2085 302470.000   48.780704906    9.171593025   326.8388   5   7   4.1543   1.9757   5.1557   0.5679  -0.5716  -3.5380   0.00    0.0
2085 302471.000   48.780706844    9.171595162   326.3513   5   7   4.1543   1.9757   5.1558   0.5675  -0.5705  -3.5381   0.00    0.0
2085 302472.000   48.780710196    9.171594374   326.1392   5   7   4.1543   1.9758   5.1559   0.5670  -0.5695  -3.5383   0.00    0.0
2085 302473.000   48.780709331    9.171591997   326.0231   5   7   4.1543   1.9758   5.1560   0.5666  -0.5685  -3.5384   0.00    0.0
2085 302474.000   48.780710966    9.171596704   325.8020   5   7   4.1543   1.9759   5.1560   0.5662  -0.5674  -3.5385   0.00    0.0
2085 302475.000   48.780710711    9.171591535   325.3934   5   7   4.1543   1.9759   5.1561   0.5658  -0.5663  -3.5387   0.00    0.0
2085 302476.000   48.780709704    9.171591475   326.2520   5   7   4.1542   1.9760   5.1562   0.5654  -0.5653  -3.5388   0.00    0.0
2085 302477.000   48.780704902    9.171589767   326.6790   5   7   4.1542   1.9760   5.1563   0.5649  -0.5642  -3.5389   0.00    0.0
2085 302478.000   48.780709758    9.171591275   326.1653   5   7   4.1542   1.9761   5.1564   0.5645  -0.5632  -3.5391   0.00    0.0
2085 302479.000   48.780705573    9.171593066   326.1265   5   7   4.1542   1.9761   5.1565   0.5641  -0.5621  -3.5392   0.00    0.0
2085 302480.000   48.780702061    9.171594848   326.7454   5   7   4.1542   1.9762   5.1566   0.5637  -0.5610  -3.5393   0.00    0.0
2085 302481.000   48.780709148    9.171590206   325.6877   5   7   4.1541   1.9762   5.1567   0.5632  -0.5600  -3.5395   0.00    0.0
2085 302482.000   48.780700852    9.171588882   326.4986   5   7   4.1541   1.9762   5.1568   0.5628  -0.5589  -3.5396   0.00    0.0
2085 302483.000   48.780706086    9.171587706   326.3180   5   7   4.1541   1.9763   5.1569   0.5624  -0.5578  -3.5397   0.00    0.0
2085 302484.000   48.780712851    9.171593031   326.2408   5   7   4.1541   1.9763   5.1569   0.5620  -0.5568  -3.5398   0.00    0.0
2085 302485.000   48.780706244    9.171591044   326.5438   5   7   4.1541   1.9764   5.1570   0.5616  -0.5557  -3.5400   0.00    0.0
2085 302486.000   48.780710529    9.171594352   325.8871   5   7   4.1540   1.9764   5.1571   0.5611  -0.5546  -3.5401   0.00    0.0
2085 302487.000   48.780716007    9.171589884   325.8739   5   7   4.1540   1.9765   5.1572   0.5607  -0.5535  -3.5402   0.00    0.0
2085 302488.000   48.780708447    9.171591616   326.6895   5   7   4.1540   1.9765   5.1573   0.5603  -0.5525  -3.5403   0.00    0.0
2085 302489.000   48.780713001    9.171591538   326.0796   5   7   4.1540   1.9766   5.1574   0.5598  -0.5514  -3.5405   0.00    0.0
2085 302490.000   48.780713536    9.171593118   325.8202   5   7   4.1540   1.9766   5.1575   0.5594  -0.5503  -3.5406   0.00    0.0
2085 302491.000   48.780712235    9.171594022   326.5425   5   7   4.1539   1.9767   5.1576   0.5590  -0.5492  -3.5407   0.00    0.0
2085 302492.000   48.780709335    9.171590750   327.0296   5   7   4.1539   1.9767   5.1576   0.5586  -0.5481  -3.5408   0.00    0.0
2085 302493.000   48.780703130    9.171590885   327.2692   5   7   4.1539   1.9767   5.1577   0.5581  -0.5470  -3.5410   0.00    0.0
2085 302494.000   48.780705010    9.171590430   326.5865   5   7   4.1539   1.9768   5.1578   0.5577  -0.5459  -3.5411   0.00    0.0
2085 302495.000   48.780705928    9.171588241   327.2563   5   7   4.1538   1.9768   5.1579   0.5573  -0.5448  -3.5412   0.00    0.0
2085 302496.000   48.780706334    9.171591004   326.9221   5   7   4.1538   1.9769   5.1580   0.5568  -0.5437  -3.5413   0.00    0.0
2085 302497.000   48.780709459    9.171587437   326.4590   5   7   4.1538   1.9769   5.1581   0.5564  -0.5426  -3.5415   0.00    0.0
2085 302498.000   48.780704035    9.171594612   327.7875   5   7   4.1538   1.9770   5.1582   0.5560  -0.5415  -3.5416   0.00    0.0
2085 302499.000   48.780709142    9.171592765   326.9837   5   7   4.1537   1.9770   5.1583   0.5555  -0.5404  -3.5417   0.00    0.0
2085 302500.000   48.780706893    9.171591214   326.7283   5   7   4.1537   1.9771   5.1583   0.5551  -0.5393  -3.5418   0.00    0.0
2085 302501.000   48.780707111    9.171591130   326.1266   5   7   4.1537   1.9771   5.1584   0.5547  -0.5382  -3.5419   0.00    0.0
2085 302502.000   48.780704549    9.171591434   327.2414   5   7   4.1537   1.9772   5.1585   0.5542  -0.5371  -3.5421   0.00    0.0
2085 302503.000   48.780707683    9.171594364   326.1488   5   7   4.1536   1.9772   5.1586   0.5538  -0.5360  -3.5422   0.00    0.0
2085 302504.000   48.780713157    9.171591885   325.6722   5   7   4.1536   1.9773   5.1587   0.5534  -0.5348  -3.5423   0.00    0.0
2085 302505.000   48.780709760    9.171591527   325.5394   5   7   4.1536   1.9773   5.1588   0.5529  -0.5337  -3.5424   0.00    0.0
2085 302506.000   48.780710083    9.171591675   325.4066   5   7   4.1536   1.9773   5.1588   0.5525  -0.5326  -3.5425   0.00    0.0
2085 302507.000   48.780712682    9.171593022   325.5748   5   7   4.1535   1.9774   5.1589   0.5521  -0.5315  -3.5426   0.00    0.0
2085 302508.000   48.780713103    9.171589131   325.9116   5   7   4.1535   1.9774   5.1590   0.5516  -0.5303  -3.5428   0.00    0.0
2085 302509.000   48.780707448    9.171592050   326.1806   5   7   4.1535   1.9775   5.1591   0.5512  -0.5292  -3.5429   0.00    0.0
2085 302510.000   48.780713042    9.171590725   325.8670   5   7   4.1535   1.9775   5.1592   0.5507  -0.5281  -3.5430   0.00    0.0
2085 302511.000   48.780709215    9.171594071   326.3602   5   7   4.1534   1.9776   5.1593   0.5503  -0.5269  -3.5431   0.00    0.0
2085 302512.000   48.780715075    9.171593461   325.9611   5   7   4.1534   1.9776   5.1594   0.5499  -0.5258  -3.5432   0.00    0.0
2085 302513.000   48.780712400    9.171593542   325.6882   5   7   4.1534   1.9777   5.1594   0.5494  -0.5246  -3.5433   0.00    0.0
2085 302514.000   48.780710798    9.171591289   325.3526   5   7   4.1533   1.9777   5.1595   0.5490  -0.5235  -3.5435   0.00    0.0
2085 302515.000   48.780711688    9.171593803   325.7598   5   7   4.1533   1.9778   5.1596   0.5485  -0.5223  -3.5436   0.00    0.0
2085 302516.000   48.780709101    9.171591694   326.3913   5   7   4.1533   1.9778   5.1597   0.5481  -0.5212  -3.5437   0.00    0.0
2085 302517.000   48.780716186    9.171591175   326.0124   5   7   4.1532   1.9779   5.1598   0.5477  -0.5200  -3.5438   0.00    0.0
2085 302518.000   48.780716529    9.171593164   325.4270   5   7   4.1532   1.9779   5.1598   0.5472  -0.5189  -3.5439   0.00    0.0
2085 302519.000   48.780713462    9.171591424   326.3635   5   7   4.1532   1.9780   5.1599   0.5468  -0.5177  -3.5440   0.00    0.0
2085 302520.000   48.780709271    9.171593032   327.0625   5   7   4.1531   1.9780   5.1600   0.5463  -0.5166  -3.5441   0.00    0.0
2085 302521.000   48.780709643    9.171594012   327.2245   5   7   4.1531   1.9781   5.1601   0.5459  -0.5154  -3.5442   0.00    0.0
2085 302522.000   48.780708098    9.171593174   326.7774   5   7   4.1531   1.9781   5.1602   0.5454  -0.5142  -3.5443   0.00    0.0
2085 302523.000   48.780712752    9.171592818   325.8732   5   7   4.1530   1.9781   5.1603   0.5450  -0.5131  -3.5445   0.00    0.0
2085 302524.000   48.780708798    9.171594392   326.1114   5   7   4.1530   1.9782   5.1603   0.5445  -0.5119  -3.5446   0.00    0.0
2085 302525.000   48.780706000    9.171591873   326.1175   5   7   4.1530   1.9782   5.1604   0.5441  -0.5107  -3.5447   0.00    0.0
2085 302526.000   48.780708336    9.171596796   326.3129   5   7   4.1529   1.9783   5.1605   0.5436  -0.5095  -3.5448   0.00    0.0
2085 302527.000   48.780705206    9.171596052   326.3682   5   7   4.1529   1.9783   5.1606   0.5432  -0.5084  -3.5449   0.00    0.0
2085 302528.000   48.780711925    9.171597828   326.9895   5   7   4.1529   1.9784   5.1607   0.5427  -0.5072  -3.5450   0.00    0.0
2085 302529.000   48.780705162    9.171595055   327.4424   5   7   4.1528   1.9784   5.1607   0.5423  -0.5060  -3.5451   0.00    0.0
2085 302530.000   48.780705420    9.171592784   326.6723   5   7   4.1528   1.9785   5.1608   0.5418  -0.5048  -3.5452   0.00    0.0
2085 302531.000   48.780709802    9.171593300   326.2064   5   7   4.1528   1.9785   5.1609   0.5414  -0.5036  -3.5453   0.00    0.0
2085 302532.000   48.780705885    9.171593252   326.7374   5   7   4.1527   1.9786   5.1610   0.5409  -0.5024  -3.5454   0.00    0.0
2085 302533.000   48.780708362    9.171594008   326.2099   5   7   4.1527   1.9786   5.1611   0.5405  -0.5012  -3.5455   0.00    0.0
2085 302534.000   48.780703697    9.171597762   326.7546   5   7   4.1527   1.9787   5.1611   0.5400  -0.5000  -3.5456   0.00    0.0
2085 302535.000   48.780713696    9.171595081   325.4554   5   7   4.1526   1.9787   5.1612   0.5396  -0.4988  -3.5457   0.00    0.0
2085 302536.000   48.780704938    9.171597497   325.9446   5   7   4.1526   1.9788   5.1613   0.5391  -0.4976  -3.5458   0.00    0.0
2085 302537.000   48.780712460    9.171594686   325.8190   5   7   4.1526   1.9788   5.1614   0.5387  -0.4964  -3.5459   0.00    0.0
2085 302538.000   48.780705284    9.171594476   325.8111   5   7   4.1525   1.9789   5.1614   0.5382  -0.4952  -3.5460   0.00    0.0
2085 302539.000   48.780706378    9.171593416   326.6756   5   7   4.1525   1.9789   5.1615   0.5378  -0.4939  -3.5461   0.00    0.0
2085 302540.000   48.780712052    9.171594960   326.0725   5   7   4.1524   1.9790   5.1616   0.5373  -0.4927  -3.5462   0.00    0.0
2085 302541.000   48.780707331    9.171594880   325.9704   5   7   4.1524   1.9790   5.1617   0.5368  -0.4915  -3.5463   0.00    0.0
2085 302542.000   48.780711758    9.171592811   325.7629   5   7   4.1524   1.9791   5.1618   0.5364  -0.4903  -3.5464   0.00    0.0
2085 302543.000   48.780705659    9.171595759   326.1805   5   7   4.1523   1.9791   5.1618   0.5359  -0.4890  -3.5465   0.00    0.0
2085 302544.000   48.780709331    9.171593696   326.2060   5   7   4.1523   1.9792   5.1619   0.5355  -0.4878  -3.5466   0.00    0.0
2085 302545.000   48.780709823    9.171591096   325.8744   5   7   4.1522   1.9792   5.1620   0.5350  -0.4866  -3.5467   0.00    0.0
2085 302546.000   48.780713935    9.171595779   325.6704   5   7   4.1522   1.9793   5.1621   0.5345  -0.4853  -3.5468   0.00    0.0
2085 302547.000   48.780713827    9.171592979   326.0237   5   7   4.1522   1.9793   5.1621   0.5341  -0.4841  -3.5469   0.00    0.0
2085 302548.000   48.780715440    9.171589821   325.0923   5   7   4.1521   1.9794   5.1622   0.5336  -0.4828  -3.5470   0.00    0.0
2085 302549.000   48.780713365    9.171588267   325.7279   5   7   4.1521   1.9794   5.1623   0.5332  -0.4816  -3.5471   0.00    0.0
2085 302550.000   48.780714752    9.171590885   325.6930   5   7   4.1520   1.9795   5.1624   0.5327  -0.4803  -3.5472   0.00    0.0
2085 302551.000   48.780713156    9.171589497   325.7745   5   7   4.1520   1.9795   5.1624   0.5322  -0.4791  -3.5473   0.00    0.0
2085 302552.000   48.780705871    9.171590064   326.1445   5   7   4.1519   1.9796   5.1625   0.5318  -0.4778  -3.5474   0.00    0.0
2085 302553.000   48.780701634    9.171591461   326.9154   5   7   4.1519   1.9796   5.1626   0.5313  -0.4765  -3.5475   0.00    0.0
2085 302554.000   48.780706989    9.171590736   325.8903   5   7   4.1519   1.9797   5.1627   0.5308  -0.4753  -3.5476   0.00    0.0
2085 302555.000   48.780711030    9.171591371   326.1426   5   7   4.1518   1.9797   5.1627   0.5304  -0.4740  -3.5477   0.00    0.0
2085 302556.000   48.780705951    9.171591672   326.4040   5   7   4.1518   1.9798   5.1628   0.5299  -0.4727  -3.5478   0.00    0.0
2085 302557.000   48.780705526    9.171592427   326.5098   5   7   4.1517   1.9798   5.1629   0.5294  -0.4714  -3.5479   0.00    0.0
2085 302558.000   48.780707768    9.171592033   326.6621   5   7   4.1517   1.9799   5.1630   0.5290  -0.4702  -3.5480   0.00    0.0
2085 302559.000   48.780708072    9.171594320   326.6281   5   7   4.1516   1.9799   5.1630   0.5285  -0.4689  -3.5481   0.00    0.0
2085 302560.000   48.780716252    9.171591017   326.2226   5   7   4.1516   1.9800   5.1631   0.5280  -0.4676  -3.5482   0.00    0.0
2085 302561.000   48.780712890    9.171594463   326.4086   5   7   4.1516   1.9800   5.1632   0.5276  -0.4663  -3.5482   0.00    0.0
2085 302562.000   48.780713730    9.171593252   325.8185   5   7   4.1515   1.9801   5.1633   0.5271  -0.4650  -3.5483   0.00    0.0
2085 302563.000   48.780719929    9.171592170   326.2237   5   7   4.1515   1.9801   5.1633   0.5266  -0.4637  -3.5484   0.00    0.0
2085 302564.000   48.780716341    9.171591622   325.8415   5   7   4.1514   1.9802   5.1634   0.5262  -0.4624  -3.5485   0.00    0.0
2085 302565.000   48.780718028    9.171597093   325.5031   5   7   4.1514   1.9802   5.1635   0.5257  -0.4611  -3.5486   0.00    0.0
2085 302566.000   48.780710662    9.171593649   326.6934   5   7   4.1513   1.9803   5.1635   0.5252  -0.4598  -3.5487   0.00    0.0
2085 302567.000   48.780711547    9.171595481   325.9644   5   7   4.1513   1.9803   5.1636   0.5247  -0.4584  -3.5488   0.00    0.0
2085 302568.000   48.780712412    9.171596906   326.5259   5   7   4.1512   1.9804   5.1637   0.5243  -0.4571  -3.5489   0.00    0.0
2085 302569.000   48.780712951    9.171595654   326.4410   5   7   4.1512   1.9804   5.1638   0.5238  -0.4558  -3.5490   0.00    0.0
2085 302570.000   48.780708846    9.171594160   326.0873   5   7   4.1511   1.9805   5.1638   0.5233  -0.4545  -3.5490   0.00    0.0
2085 302571.000   48.780708062    9.171590862   325.3953   5   7   4.1511   1.9805   5.1639   0.5228  -0.4531  -3.5491   0.00    0.0
2085 302572.000   48.780710614    9.171594353   326.1850   5   7   4.1510   1.9806   5.1640   0.5224  -0.4518  -3.5492   0.00    0.0
2085 302573.000   48.780704867    9.171592888   325.6357   5   7   4.1510   1.9806   5.1640   0.5219  -0.4504  -3.5493   0.00    0.0
2085 302574.000   48.780701827    9.171595339   326.0289   5   7   4.1509   1.9807   5.1641   0.5214  -0.4491  -3.5494   0.00    0.0
2085 302575.000   48.780707571    9.171595234   326.3179   5   7   4.1509   1.9807   5.1642   0.5209  -0.4477  -3.5495   0.00    0.0
2085 302576.000   48.780710895    9.171593033   326.0040   5   7   4.1508   1.9808   5.1643   0.5204  -0.4464  -3.5496   0.00    0.0
2085 302577.000   48.780712647    9.171590039   325.6031   5   7   4.1508   1.9808   5.1643   0.5200  -0.4450  -3.5496   0.00    0.0
2085 302578.000   48.780710243    9.171593583   326.5218   5   7   4.1507   1.9809   5.1644   0.5195  -0.4437  -3.5497   0.00    0.0
2085 302579.000   48.780713841    9.171593617   326.4071   5   7   4.1507   1.9809   5.1645   0.5190  -0.4423  -3.5498   0.00    0.0
2085 302580.000   48.780713645    9.171592319   326.5953   5   7   4.1506   1.9810   5.1645   0.5185  -0.4409  -3.5499   0.00    0.0
2085 302581.000   48.780711441    9.171592042   326.1575   5   7   4.1506   1.9810   5.1646   0.5180  -0.4396  -3.5500   0.00    0.0
2085 302582.000   48.780715806    9.171589058   325.9531   5   7   4.1505   1.9811   5.1647   0.5175  -0.4382  -3.5500   0.00    0.0
2085 302583.000   48.780708422    9.171588666   325.9534   5   7   4.1505   1.9811   5.1647   0.5171  -0.4368  -3.5501   0.00    0.0
2085 302584.000   48.780710262    9.171591261   325.7562   5   7   4.1504   1.9812   5.1648   0.5166  -0.4354  -3.5502   0.00    0.0
2085 302585.000   48.780704310    9.171594782   326.1667   5   7   4.1504   1.9812   5.1649   0.5161  -0.4340  -3.5503   0.00    0.0
2085 302586.000   48.780707859    9.171594646   326.2282   5   7   4.1503   1.9813   5.1649   0.5156  -0.4326  -3.5504   0.00    0.0
2085 302587.000   48.780712389    9.171594868   325.6746   5   7   4.1502   1.9813   5.1650   0.5151  -0.4312  -3.5504   0.00    0.0
2085 302588.000   48.780707814    9.171588903   326.1340   5   7   4.1502   1.9814   5.1651   0.5146  -0.4298  -3.5505   0.00    0.0
2085 302589.000   48.780705208    9.171594337   326.9249   5   7   4.1501   1.9815   5.1651   0.5141  -0.4284  -3.5506   0.00    0.0
2085 302590.000   48.780715465    9.171590717   325.6272   5   7   4.1501   1.9815   5.1652   0.5136  -0.4270  -3.5507   0.00    0.0
2085 302591.000   48.780715159    9.171594359   326.2091   5   7   4.1500   1.9816   5.1653   0.5132  -0.4255  -3.5508   0.00    0.0
2085 302592.000   48.780714704    9.171590583   326.5561   5   7   4.1500   1.9816   5.1653   0.5127  -0.4241  -3.5508   0.00    0.0
2085 302593.000   48.780717909    9.171589503   325.9166   5   7   4.1499   1.9817   5.1654   0.5122  -0.4227  -3.5509   0.00    0.0
2085 302594.000   48.780720081    9.171590762   325.5400   5   7   4.1499   1.9817   5.1655   0.5117  -0.4212  -3.5510   0.00    0.0
2085 302595.000   48.780717590    9.171592933   325.4612   5   7   4.1498   1.9818   5.1655   0.5112  -0.4198  -3.5511   0.00    0.0
2085 302596.000   48.780716582    9.171596090   326.1863   5   7   4.1497   1.9818   5.1656   0.5107  -0.4183  -3.5511   0.00    0.0
2085 302597.000   48.780721367    9.171592701   325.7533   5   7   4.1497   1.9819   5.1657   0.5102  -0.4169  -3.5512   0.00    0.0
2085 302598.000   48.780718491    9.171594000   325.5822   5   7   4.1496   1.9819   5.1657   0.5097  -0.4154  -3.5513   0.00    0.0
2085 302599.000   48.780716321    9.171595315   325.8375   5   7   4.1496   1.9820   5.1658   0.5092  -0.4140  -3.5513   0.00    0.0
2085 302600.000   48.780709969    9.171599681   326.4627   5   7   4.1495   1.9820   5.1659   0.5087  -0.4125  -3.5514   0.00    0.0
2085 302601.000   48.780712099    9.171594788   325.9524   5   7   4.1495   1.9821   5.1659   0.5082  -0.4110  -3.5515   0.00    0.0
2085 302602.000   48.780715551    9.171599367   326.1205   5   7   4.1494   1.9821   5.1660   0.5077  -0.4095  -3.5516   0.00    0.0
2085 302603.000   48.780705160    9.171592747   325.7408   5   7   4.1493   1.9822   5.1661   0.5072  -0.4080  -3.5516   0.00    0.0
2085 302604.000   48.780709681    9.171592796   325.9306   5   7   4.1493   1.9822   5.1661   0.5067  -0.4065  -3.5517   0.00    0.0
2085 302605.000   48.780711766    9.171593330   325.6238   5   7   4.1492   1.9823   5.1662   0.5062  -0.4050  -3.5518   0.00    0.0
2085 302606.000   48.780711680    9.171594640   325.3167   5   7   4.1492   1.9823   5.1663   0.5057  -0.4035  -3.5518   0.00    0.0
2085 302607.000   48.780715992    9.171592899   325.9037   5   7   4.1491   1.9824   5.1663   0.5052  -0.4020  -3.5519   0.00    0.0
2085 302608.000   48.780711615    9.171593292   325.4652   5   7   4.1490   1.9825   5.1664   0.5047  -0.4005  -3.5520   0.00    0.0
2085 302609.000   48.780708277    9.171592722   325.8288   5   7   4.1490   1.9825   5.1665   0.5042  -0.3990  -3.5520   0.00    0.0
2085 302610.000   48.780712649    9.171593983   326.4808   5   7   4.1489   1.9826   5.1665   0.5037  -0.3975  -3.5521   0.00    0.0
2085 302611.000   48.780711588    9.171591068   326.3054   5   7   4.1488   1.9826   5.1666   0.5032  -0.3959  -3.5522   0.00    0.0
2085 302612.000   48.780714517    9.171588771   326.2979   5   7   4.1488   1.9827   5.1666   0.5027  -0.3944  -3.5523   0.00    0.0
2085 302613.000   48.780709922    9.171588740   326.6724   5   7   4.1487   1.9827   5.1667   0.5022  -0.3928  -3.5523   0.00    0.0
2085 302614.000   48.780707168    9.171590062   326.0442   5   7   4.1487   1.9828   5.1668   0.5017  -0.3913  -3.5524   0.00    0.0
2085 302615.000   48.780703420    9.171589521   326.1100   5   7   4.1486   1.9828   5.1668   0.5012  -0.3897  -3.5524   0.00    0.0
2085 302616.000   48.780707378    9.171594914   325.8469   5   7   4.1485   1.9829   5.1669   0.5007  -0.3882  -3.5525   0.00    0.0
2085 302617.000   48.780707294    9.171592738   326.3088   5   7   4.1485   1.9829   5.1670   0.5002  -0.3866  -3.5526   0.00    0.0
2085 302618.000   48.780715453    9.171598603   325.9136   5   7   4.1484   1.9830   5.1670   0.4997  -0.3850  -3.5526   0.00    0.0
2085 302619.000   48.780708224    9.171596594   325.9091   5   7   4.1483   1.9830   5.1671   0.4992  -0.3834  -3.5527   0.00    0.0
2085 302620.000   48.780704015    9.171595821   326.3283   5   7   4.1483   1.9831   5.1671   0.4986  -0.3818  -3.5528   0.00    0.0
2085 302621.000   48.780710320    9.171597218   326.0461   5   7   4.1482   1.9832   5.1672   0.4981  -0.3802  -3.5528   0.00    0.0
2085 302622.000   48.780716850    9.171594044   325.6031   5   7   4.1481   1.9832   5.1673   0.4976  -0.3786  -3.5529   0.00    0.0
2085 302623.000   48.780712933    9.171591748   325.7752   5   7   4.1481   1.9833   5.1673   0.4971  -0.3770  -3.5530   0.00    0.0
2085 302624.000   48.780711695    9.171593690   326.0794   5   7   4.1480   1.9833   5.1674   0.4966  -0.3754  -3.5530   0.00    0.0
2085 302625.000   48.780711379    9.171594479   326.1912   5   7   4.1479   1.9834   5.1674   0.4961  -0.3738  -3.5531   0.00    0.0
2085 302626.000   48.780714506    9.171593724   326.0157   5   7   4.1479   1.9834   5.1675   0.4956  -0.3721  -3.5531   0.00    0.0
2085 302627.000   48.780715129    9.171597826   325.8241   5   7   4.1478   1.9835   5.1676   0.4950  -0.3705  -3.5532   0.00    0.0
2085 302628.000   48.780714729    9.171590624   326.3436   5   7   4.1477   1.9835   5.1676   0.4945  -0.3688  -3.5533   0.00    0.0
2085 302629.000   48.780705966    9.171597159   326.6464   5   7   4.1477   1.9836   5.1677   0.4940  -0.3672  -3.5533   0.00    0.0
2085 302630.000   48.780712735    9.171598258   325.7854   5   7   4.1476   1.9836   5.1677   0.4935  -0.3655  -3.5534   0.00    0.0
2085 302631.000   48.780714910    9.171595876   325.9517   5   7   4.1475   1.9837   5.1678   0.4930  -0.3638  -3.5534   0.00    0.0
2085 302632.000   48.780710882    9.171598181   326.5333   5   7   4.1475   1.9838   5.1679   0.4925  -0.3622  -3.5535   0.00    0.0
2085 302633.000   48.780715470    9.171595506   326.4281   5   7   4.1474   1.9838   5.1679   0.4919  -0.3605  -3.5535   0.00    0.0
2085 302634.000   48.780718225    9.171592782   326.3690   5   7   4.1473   1.9839   5.1680   0.4914  -0.3588  -3.5536   0.00    0.0
2085 302635.000   48.780716411    9.171598091   326.2867   5   7   4.1473   1.9839   5.1680   0.4909  -0.3571  -3.5537   0.00    0.0
2085 302636.000   48.780712248    9.171595317   326.2507   5   7   4.1472   1.9840   5.1681   0.4904  -0.3554  -3.5537   0.00    0.0
2085 302637.000   48.780710044    9.171597018   326.1308   5   7   4.1471   1.9840   5.1681   0.4898  -0.3536  -3.5538   0.00    0.0
2085 302638.000   48.780721821    9.171591254   325.4749   5   7   4.1470   1.9841   5.1682   0.4893  -0.3519  -3.5538   0.00    0.0
2085 302639.000   48.780715344    9.171592239   326.0331   5   7   4.1470   1.9841   5.1683   0.4888  -0.3502  -3.5539   0.00    0.0
2085 302640.000   48.780716392    9.171590953   325.9011   5   7   4.1469   1.9842   5.1683   0.4883  -0.3484  -3.5539   0.00    0.0
2085 302641.000   48.780717439    9.171596469   326.4456   5   7   4.1468   1.9843   5.1684   0.4877  -0.3466  -3.5540   0.00    0.0
2085 302642.000   48.780712563    9.171597846   326.1572   5   7   4.1468   1.9843   5.1684   0.4872  -0.3449  -3.5540   0.00    0.0
2085 302643.000   48.780708330    9.171596720   326.5964   5   7   4.1467   1.9844   5.1685   0.4867  -0.3431  -3.5541   0.00    0.0
2085 302644.000   48.780709999    9.171595076   326.7627   5   7   4.1466   1.9844   5.1685   0.4862  -0.3413  -3.5541   0.00    0.0
2085 302645.000   48.780710224    9.171601042   326.4131   5   7   4.1465   1.9845   5.1686   0.4856  -0.3395  -3.5542   0.00    0.0
2085 302646.000   48.780716873    9.171599014   325.6350   5   7   4.1465   1.9845   5.1686   0.4851  -0.3377  -3.5542   0.00    0.0
2085 302647.000   48.780710582    9.171600121   326.1926   5   7   4.1464   1.9846   5.1687   0.4846  -0.3359  -3.5543   0.00    0.0
2085 302648.000   48.780713992    9.171599123   325.0028   5   7   4.1463   1.9846   5.1688   0.4840  -0.3341  -3.5543   0.00    0.0
2085 302649.000   48.780715779    9.171599117   325.4583   5   7   4.1462   1.9847   5.1688   0.4835  -0.3322  -3.5544   0.00    0.0
2085 302650.000   48.780713148    9.171597385   325.1346   5   7   4.1462   1.9848   5.1689   0.4830  -0.3304  -3.5544   0.00    0.0
2085 302651.000   48.780706982    9.171595733   325.2899   5   7   4.1461   1.9848   5.1689   0.4824  -0.3285  -3.5545   0.00    0.0
2085 302652.000   48.780709234    9.171593437   324.7569   5   7   4.1460   1.9849   5.1690   0.4819  -0.3267  -3.5545   0.00    0.0
2085 302653.000   48.780710967    9.171591579   326.2047   5   7   4.1459   1.9849   5.1690   0.4814  -0.3248  -3.5546   0.00    0.0
2085 302654.000   48.780713297    9.171591383   325.2943   5   7   4.1459   1.9850   5.1691   0.4808  -0.3229  -3.5546   0.00    0.0
2085 302655.000   48.780714706    9.171591462   325.7510   5   7   4.1458   1.9850   5.1691   0.4803  -0.3210  -3.5547   0.00    0.0
2085 302656.000   48.780711980    9.171592888   325.9590   5   7   4.1457   1.9851   5.1692   0.4797  -0.3191  -3.5547   0.00    0.0
2085 302657.000   48.780712995    9.171593836   325.1693   5   7   4.1456   1.9851   5.1692   0.4792  -0.3171  -3.5548   0.00    0.0
2085 302658.000   48.780712992    9.171600442   325.8222   5   7   4.1455   1.9852   5.1693   0.4787  -0.3152  -3.5548   0.00    0.0
2085 302659.000   48.780705035    9.171595057   326.5715   5   7   4.1455   1.9853   5.1694   0.4781  -0.3133  -3.5548   0.00    0.0
2085 302660.000   48.780710856    9.171591407   325.9763   5   7   4.1454   1.9853   5.1694   0.4776  -0.3113  -3.5549   0.00    0.0
2085 302661.000   48.780713157    9.171593910   325.7003   5   7   4.1453   1.9854   5.1695   0.4770  -0.3093  -3.5549   0.00    0.0
2085 302662.000   48.780716056    9.171591891   326.0050   5   7   4.1452   1.9854   5.1695   0.4765  -0.3073  -3.5550   0.00    0.0
2085 302663.000   48.780709940    9.171596039   326.2869   5   7   4.1452   1.9855   5.1696   0.4759  -0.3053  -3.5550   0.00    0.0
2085 302664.000   48.780713262    9.171596608   326.3524   5   7   4.1451   1.9855   5.1696   0.4754  -0.3033  -3.5551   0.00    0.0
2085 302665.000   48.780710336    9.171596704   326.2120   5   7   4.1450   1.9856   5.1697   0.4749  -0.3013  -3.5551   0.00    0.0
2085 302666.000   48.780711752    9.171592587   325.6175   5   7   4.1449   1.9857   5.1697   0.4743  -0.2992  -3.5551   0.00    0.0
2085 302667.000   48.780712980    9.171593053   325.6978   5   7   4.1448   1.9857   5.1698   0.4738  -0.2972  -3.5552   0.00    0.0
2085 302668.000   48.780716040    9.171593663   325.9943   5   7   4.1448   1.9858   5.1698   0.4732  -0.2951  -3.5552   0.00    0.0
2085 302669.000   48.780711733    9.171593966   324.9714   5   7   4.1447   1.9858   5.1699   0.4727  -0.2930  -3.5553   0.00    0.0
2085 302670.000   48.780712608    9.171595124   325.1890   5   7   4.1446   1.9859   5.1699   0.4721  -0.2909  -3.5553   0.00    0.0
2085 302671.000   48.780717658    9.171596042   325.0008   5   7   4.1445   1.9859   5.1700   0.4716  -0.2888  -3.5553   0.00    0.0
2085 302672.000   48.780715781    9.171594797   325.3197   5   7   4.1444   1.9860   5.1700   0.4710  -0.2867  -3.5554   0.00    0.0
2085 302673.000   48.780720120    9.171592798   325.0195   5   7   4.1443   1.9861   5.1701   0.4705  -0.2845  -3.5554   0.00    0.0
2085 302674.000   48.780719395    9.171593113   325.2459   5   7   4.1443   1.9861   5.1701   0.4699  -0.2824  -3.5555   0.00    0.0
2085 302675.000   48.780716285    9.171591798   325.9697   5   7   4.1442   1.9862   5.1702   0.4693  -0.2802  -3.5555   0.00    0.0
2085 302676.000   48.780708680    9.171592167   326.5431   5   7   4.1441   1.9862   5.1702   0.4688  -0.2780  -3.5555   0.00    0.0
2085 302677.000   48.780708801    9.171589100   326.3179   5   7   4.1440   1.9863   5.1703   0.4682  -0.2758  -3.5556   0.00    0.0
2085 302678.000   48.780717837    9.171590503   325.5398   5   7   4.1439   1.9864   5.1703   0.4677  -0.2735  -3.5556   0.00    0.0
2085 302679.000   48.780713412    9.171593114   326.1774   5   7   4.1438   1.9864   5.1704   0.4671  -0.2713  -3.5556   0.00    0.0
2085 302680.000   48.780718795    9.171591583   325.4104   5   7   4.1438   1.9865   5.1704   0.4666  -0.2690  -3.5557   0.00    0.0
2085 302681.000   48.780714771    9.171591328   325.4599   5   7   4.1437   1.9865   5.1705   0.4660  -0.2667  -3.5557   0.00    0.0
2085 302682.000   48.780721337    9.171593734   325.6644   5   7   4.1436   1.9866   5.1705   0.4654  -0.2644  -3.5557   0.00    0.0
2085 302683.000   48.780720548    9.171592373   325.3000   5   7   4.1435   1.9866   5.1706   0.4649  -0.2620  -3.5558   0.00    0.0
2085 302684.000   48.780717342    9.171594658   325.2260   5   7   4.1434   1.9867   5.1706   0.4643  -0.2597  -3.5558   0.00    0.0
2085 302685.000   48.780714722    9.171593338   326.1005   5   7   4.1433   1.9868   5.1707   0.4637  -0.2573  -3.5558   0.00    0.0
2085 302686.000   48.780715716    9.171595196   325.9350   5   7   4.1432   1.9868   5.1707   0.4632  -0.2549  -3.5559   0.00    0.0
2085 302687.000   48.780708347    9.171593900   325.9248   5   7   4.1431   1.9869   5.1708   0.4626  -0.2525  -3.5559   0.00    0.0
2085 302688.000   48.780709962    9.171595380   325.9825   5   7   4.1431   1.9869   5.1708   0.4620  -0.2500  -3.5559   0.00    0.0
2085 302689.000   48.780709376    9.171597417   326.2262   5   7   4.1430   1.9870   5.1708   0.4615  -0.2476  -3.5560   0.00    0.0
2085 302690.000   48.780718355    9.171594546   325.9542   5   7   4.1429   1.9871   5.1709   0.4609  -0.2451  -3.5560   0.00    0.0
2085 302691.000   48.780711897    9.171596062   326.2683   5   7   4.1428   1.9871   5.1709   0.4603  -0.2425  -3.5560   0.00    0.0
2085 302692.000   48.780705862    9.171602530   326.5861   5   7   4.1427   1.9872   5.1710   0.4598  -0.2400  -3.5560   0.00    0.0
2085 302693.000   48.780712327    9.171597700   326.7969   5   7   4.1426   1.9872   5.1710   0.4592  -0.2374  -3.5561   0.00    0.0
2085 302694.000   48.780708306    9.171600699   326.5802   5   7   4.1425   1.9873   5.1711   0.4586  -0.2348  -3.5561   0.00    0.0
2085 302695.000   48.780709750    9.171596611   325.8301   5   7   4.1424   1.9873   5.1711   0.4581  -0.2322  -3.5561   0.00    0.0
2085 302696.000   48.780716818    9.171597206   325.0974   5   7   4.1424   1.9874   5.1712   0.4575  -0.2295  -3.5562   0.00    0.0
2085 302697.000   48.780715100    9.171594280   325.3306   5   7   4.1423   1.9875   5.1712   0.4569  -0.2268  -3.5562   0.00    0.0
2085 302698.000   48.780707118    9.171598862   325.2918   5   7   4.1422   1.9875   5.1713   0.4563  -0.2241  -3.5562   0.00    0.0
2085 302699.000   48.780709790    9.171593671   325.6280   5   7   4.1421   1.9876   5.1713   0.4558  -0.2213  -3.5562   0.00    0.0
2085 302700.000   48.780703670    9.171595487   326.1502   5   7   4.1420   1.9876   5.1713   0.4552  -0.2185  -3.5563   0.00    0.0
2085 302701.000   48.780711125    9.171597168   326.0452   5   7   4.1419   1.9877   5.1714   0.4546  -0.2157  -3.5563   0.00    0.0
2085 302702.000   48.780710755    9.171596679   325.8003   5   7   4.1418   1.9878   5.1714   0.4540  -0.2128  -3.5563   0.00    0.0
2085 302703.000   48.780712074    9.171597222   325.9822   5   7   4.1417   1.9878   5.1715   0.4534  -0.2099  -3.5563   0.00    0.0
2085 302704.000   48.780713083    9.171592487   326.0979   5   7   4.1416   1.9879   5.1715   0.4529  -0.2069  -3.5564   0.00    0.0
2085 302705.000   48.780714377    9.171593393   326.0311   5   7   4.1415   1.9879   5.1716   0.4523  -0.2039  -3.5564   0.00    0.0
2085 302706.000   48.780711564    9.171595417   326.1296   5   7   4.1414   1.9880   5.1716   0.4517  -0.2008  -3.5564   0.00    0.0
2085 302707.000   48.780714444    9.171596447   325.4464   5   7   4.1413   1.9881   5.1717   0.4511  -0.1978  -3.5564   0.00    0.0
2085 302708.000   48.780718810    9.171598000   325.5422   5   7   4.1412   1.9881   5.1717   0.4505  -0.1946  -3.5564   0.00    0.0
2085 302709.000   48.780719904    9.171598587   325.3624   5   7   4.1412   1.9882   5.1717   0.4499  -0.1914  -3.5565   0.00    0.0
2085 302710.000   48.780717101    9.171591352   325.5218   5   7   4.1411   1.9882   5.1718   0.4493  -0.1882  -3.5565   0.00    0.0
2085 302711.000   48.780712502    9.171596895   325.7720   5   7   4.1410   1.9883   5.1718   0.4488  -0.1849  -3.5565   0.00    0.0
2085 302712.000   48.780712717    9.171594673   325.7276   5   7   4.1409   1.9884   5.1719   0.4482  -0.1815  -3.5565   0.00    0.0
2085 302713.000   48.780713178    9.171592490   325.5948   5   7   4.1408   1.9884   5.1719   0.4476  -0.1780  -3.5565   0.00    0.0
2085 302714.000   48.780710708    9.171592892   326.0190   5   7   4.1407   1.9885   5.1719   0.4470  -0.1745  -3.5566   0.00    0.0
2085 302715.000   48.780718636    9.171596248   325.0651   5   7   4.1406   1.9885   5.1720   0.4464  -0.1710  -3.5566   0.00    0.0
2085 302716.000   48.780713605    9.171595185   325.3883   5   7   4.1405   1.9886   5.1720   0.4458  -0.1673  -3.5566   0.00    0.0
2085 302717.000   48.780714246    9.171595458   325.1663   5   7   4.1404   1.9887   5.1721   0.4452  -0.1636  -3.5566   0.00    0.0
2085 302718.000   48.780710127    9.171592738   325.6646   5   7   4.1403   1.9887   5.1721   0.4446  -0.1598  -3.5566   0.00    0.0
2085 302719.000   48.780714661    9.171593541   325.6662   5   7   4.1402   1.9888   5.1722   0.4440  -0.1558  -3.5566   0.00    0.0
2085 302720.000   48.780714830    9.171592074   325.6616   5   7   4.1401   1.9888   5.1722   0.4434  -0.1518  -3.5567   0.00    0.0
2085 302721.000   48.780713473    9.171593450   325.0561   5   7   4.1400   1.9889   5.1722   0.4428  -0.1477  -3.5567   0.00    0.0
2085 302722.000   48.780712227    9.171594192   324.5809   5   7   4.1399   1.9890   5.1723   0.4422  -0.1435  -3.5567   0.00    0.0
2085 302723.000   48.780711118    9.171592175   325.5745   5   7   4.1398   1.9890   5.1723   0.4416  -0.1391  -3.5567   0.00    0.0
2085 302724.000   48.780715314    9.171593097   324.9809   5   7   4.1397   1.9891   5.1724   0.4410  -0.1346  -3.5567   0.00    0.0
2085 302725.000   48.780718054    9.171593903   324.3564   5   7   4.1396   1.9892   5.1724   0.4404  -0.1299  -3.5567   0.00    0.0
2085 302726.000   48.780705144    9.171593807   325.4153   5   7   4.1395   1.9892   5.1724   0.4398  -0.1250  -3.5568   0.00    0.0
2085 302727.000   48.780711977    9.171597115   324.8411   5   7   4.1394   1.9893   5.1725   0.4392  -0.1200  -3.5568   0.00    0.0
2085 302728.000   48.780710971    9.171599138   325.2853   5   7   4.1393   1.9893   5.1725   0.4386  -0.1147  -3.5568   0.00    0.0
2085 302729.000   48.780706664    9.171598593   325.7578   5   7   4.1392   1.9894   5.1725   0.4380  -0.1092  -3.5568   0.00    0.0
2085 302730.000   48.780712055    9.171598549   326.1169   5   7   4.1391   1.9895   5.1726   0.4374  -0.1034  -3.5568   0.00    0.0
2085 302731.000   48.780712250    9.171596642   325.8215   5   7   4.1390   1.9895   5.1726   0.4368  -0.0972  -3.5568   0.00    0.0
2085 302732.000   48.780714937    9.171596872   325.3502   5   7   4.1389   1.9896   5.1727   0.4362  -0.0906  -3.5568   0.00    0.0
2085 302733.000   48.780707376    9.171598847   326.0033   5   7   4.1388   1.9896   5.1727   0.4355  -0.0835  -3.5568   0.00    0.0
2085 302734.000   48.780710895    9.171596721   325.6413   5   7   4.1387   1.9897   5.1727   0.4349  -0.0757  -3.5568   0.00    0.0
2085 302735.000   48.780710411    9.171598235   326.1937   5   7   4.1386   1.9898   5.1728   0.4343  -0.0671  -3.5568   0.00    0.0
2085 302736.000   48.780714073    9.171601036   325.6424   5   7   4.1385   1.9898   5.1728   0.4337  -0.0571  -3.5569   0.00    0.0
2085 302737.000   48.780716041    9.171596708   325.4361   5   7   4.1384   1.9899   5.1728   0.4331  -0.0449  -3.5569   0.00    0.0
2085 302738.000   48.780718690    9.171597549   325.0956   5   7   4.1383   1.9899   5.1729   0.4325  -0.0279  -3.5569   0.00    0.0
2085 302739.000   48.780716225    9.171597403   325.7716   5   7   4.1382   1.9900   5.1729   0.4319   0.0214  -3.5569   0.00    0.0
2085 302740.000   48.780716533    9.171596830   325.4610   5   7   4.1381   1.9901   5.1730   0.4312   0.0412  -3.5569   0.00    0.0
2085 302741.000   48.780712549    9.171598812   324.9974   5   7   4.1380   1.9901   5.1730   0.4306   0.0542  -3.5569   0.00    0.0
2085 302742.000   48.780719141    9.171599255   324.7917   5   7   4.1379   1.9902   5.1730   0.4300   0.0646  -3.5569   0.00    0.0
2085 302743.000   48.780714473    9.171596993   324.9006   5   7   4.1378   1.9903   5.1731   0.4294   0.0736  -3.5569   0.00    0.0
2085 302744.000   48.780715840    9.171595253   324.3381   5   7   4.1376   1.9903   5.1731   0.4288   0.0816  -3.5569   0.00    0.0
2085 302745.000   48.780714467    9.171599311   325.3116   5   7   4.1375   1.9904   5.1731   0.4281   0.0889  -3.5569   0.00    0.0
2085 302746.000   48.780715427    9.171597853   325.3652   5   7   4.1374   1.9904   5.1732   0.4275   0.0956  -3.5569   0.00    0.0
2085 302747.000   48.780719809    9.171599354   324.5316   5   7   4.1373   1.9905   5.1732   0.4269   0.1019  -3.5569   0.00    0.0
2085 302748.000   48.780713460    9.171597157   325.2478   5   7   4.1372   1.9906   5.1732   0.4262   0.1078  -3.5569   0.00    0.0
2085 302749.000   48.780705804    9.171600085   326.1704   5   7   4.1371   1.9906   5.1733   0.4256   0.1134  -3.5569   0.00    0.0
2085 302750.000   48.780712412    9.171595900   325.2232   5   7   4.1370   1.9907   5.1733   0.4250   0.1187  -3.5569   0.00    0.0
2085 302751.000   48.780717074    9.171596076   325.2598   5   7   4.1369   1.9908   5.1733   0.4244   0.1239  -3.5569   0.00    0.0
2085 302752.000   48.780709771    9.171593625   325.1465   5   7   4.1368   1.9908   5.1734   0.4237   0.1288  -3.5569   0.00    0.0
2085 302753.000   48.780714566    9.171595699   325.0016   5   7   4.1367   1.9909   5.1734   0.4231   0.1335  -3.5569   0.00    0.0
2085 302754.000   48.780715254    9.171596829   324.6111   5   7   4.1366   1.9909   5.1734   0.4225   0.1381  -3.5569   0.00    0.0
2085 302755.000   48.780710287    9.171594649   325.3098   5   7   4.1365   1.9910   5.1735   0.4218   0.1425  -3.5569   0.00    0.0
2085 302756.000   48.780712823    9.171593466   324.9014   5   7   4.1364   1.9911   5.1735   0.4212   0.1468  -3.5569   0.00    0.0
2085 302757.000   48.780714888    9.171595863   325.3950   5   7   4.1362   1.9911   5.1735   0.4205   0.1510  -3.5569   0.00    0.0
2085 302758.000   48.780715757    9.171597759   324.8886   5   7   4.1361   1.9912   5.1736   0.4199   0.1550  -3.5569   0.00    0.0
2085 302759.000   48.780710155    9.171597627   325.4376   5   7   4.1360   1.9913   5.1736   0.4193   0.1590  -3.5569   0.00    0.0
2085 302760.000   48.780715863    9.171592340   325.4565   5   7   4.1359   1.9913   5.1736   0.4186   0.1629  -3.5569   0.00    0.0
2085 302761.000   48.780713270    9.171600375   325.2178   5   7   4.1358   1.9914   5.1737   0.4180   0.1666  -3.5569   0.00    0.0
2085 302762.000   48.780708977    9.171594679   325.6521   5   7   4.1357   1.9915   5.1737   0.4173   0.1703  -3.5569   0.00    0.0
2085 302763.000   48.780714621    9.171595437   325.1049   5   7   4.1356   1.9915   5.1737   0.4167   0.1739  -3.5569   0.00    0.0
2085 302764.000   48.780711659    9.171596717   326.1181   5   7   4.1355   1.9916   5.1738   0.4160   0.1775  -3.5569   0.00    0.0
2085 302765.000   48.780710447    9.171597282   326.7548   5   7   4.1354   1.9916   5.1738   0.4154   0.1809  -3.5569   0.00    0.0
2085 302766.000   48.780707686    9.171597881   326.2412   5   7   4.1352   1.9917   5.1738   0.4147   0.1843  -3.5569   0.00    0.0
2085 302767.000   48.780710919    9.171595447   325.8808   5   7   4.1351   1.9918   5.1739   0.4141   0.1877  -3.5569   0.00    0.0
2085 302768.000   48.780710279    9.171593815   326.1416   5   7   4.1350   1.9918   5.1739   0.4134   0.1910  -3.5569   0.00    0.0
2085 302769.000   48.780709964    9.171594509   326.0893   5   7   4.1349   1.9919   5.1739   0.4128   0.1942  -3.5569   0.00    0.0
2085 302770.000   48.780711261    9.171599156   325.7021   5   7   4.1348   1.9920   5.1739   0.4121   0.1974  -3.5569   0.00    0.0
2085 302771.000   48.780711210    9.171598116   325.8372   5   7   4.1347   1.9920   5.1740   0.4115   0.2005  -3.5569   0.00    0.0
2085 302772.000   48.780711717    9.171599542   325.6446   5   7   4.1346   1.9921   5.1740   0.4108   0.2036  -3.5568   0.00    0.0
2085 302773.000   48.780716133    9.171593452   325.4098   5   7   4.1344   1.9922   5.1740   0.4102   0.2066  -3.5568   0.00    0.0
2085 302774.000   48.780712996    9.171593751   326.1604   5   7   4.1343   1.9922   5.1741   0.4095   0.2096  -3.5568   0.00    0.0
2085 302775.000   48.780715393    9.171595346   325.1434   5   7   4.1342   1.9923   5.1741   0.4088   0.2126  -3.5568   0.00    0.0
2085 302776.000   48.780714365    9.171592967   325.7603   5   7   4.1341   1.9924   5.1741   0.4082   0.2155  -3.5568   0.00    0.0
2085 302777.000   48.780710293    9.171593905   325.6860   5   7   4.1340   1.9924   5.1742   0.4075   0.2183  -3.5568   0.00    0.0
2085 302778.000   48.780715869    9.171592263   324.9327   5   7   4.1339   1.9925   5.1742   0.4069   0.2212  -3.5568   0.00    0.0
2085 302779.000   48.780713382    9.171591196   325.4011   5   7   4.1338   1.9925   5.1742   0.4062   0.2240  -3.5568   0.00    0.0
2085 302780.000   48.780715714    9.171595208   324.5679   5   7   4.1336   1.9926   5.1742   0.4055   0.2267  -3.5568   0.00    0.0
2085 302781.000   48.780712875    9.171594999   324.9800   5   7   4.1335   1.9927   5.1743   0.4049   0.2295  -3.5568   0.00    0.0
2085 302782.000   48.780710281    9.171595544   325.8152   5   7   4.1334   1.9927   5.1743   0.4042   0.2322  -3.5567   0.00    0.0
2085 302783.000   48.780705248    9.171599237   325.8842   5   7   4.1333   1.9928   5.1743   0.4035   0.2348  -3.5567   0.00    0.0
2085 302784.000   48.780711837    9.171594064   325.3214   5   7   4.1332   1.9929   5.1743   0.4028   0.2375  -3.5567   0.00    0.0
2085 302785.000   48.780705881    9.171598251   326.2910   5   7   4.1330   1.9929   5.1744   0.4022   0.2401  -3.5567   0.00    0.0
2085 302786.000   48.780716009    9.171595219   325.3362   5   7   4.1329   1.9930   5.1744   0.4015   0.2427  -3.5567   0.00    0.0
2085 302787.000   48.780711285    9.171594906   325.8969   5   7   4.1328   1.9931   5.1744   0.4008   0.2452  -3.5567   0.00    0.0
2085 302788.000   48.780708705    9.171595387   325.7220   5   7   4.1327   1.9931   5.1745   0.4001   0.2478  -3.5567   0.00    0.0
2085 302789.000   48.780712547    9.171593907   325.1904   5   7   4.1326   1.9932   5.1745   0.3995   0.2503  -3.5566   0.00    0.0
2085 302790.000   48.780711691    9.171592513   324.6301   5   7   4.1325   1.9933   5.1745   0.3988   0.2527  -3.5566   0.00    0.0
2085 302791.000   48.780716549    9.171594103   325.3427   5   7   4.1323   1.9933   5.1745   0.3981   0.2552  -3.5566   0.00    0.0
2085 302792.000   48.780725370    9.171593903   324.6045   5   7   4.1322   1.9934   5.1746   0.3974   0.2576  -3.5566   0.00    0.0
2085 302793.000   48.780716158    9.171595212   324.7557   5   7   4.1321   1.9935   5.1746   0.3967   0.2600  -3.5566   0.00    0.0
2085 302794.000   48.780714898    9.171598466   324.6319   5   7   4.1320   1.9935   5.1746   0.3960   0.2624  -3.5566   0.00    0.0
2085 302795.000   48.780713554    9.171595070   325.6863   5   7   4.1318   1.9936   5.1746   0.3953   0.2648  -3.5565   0.00    0.0
2085 302796.000   48.780716340    9.171596099   325.0294   5   7   4.1317   1.9937   5.1747   0.3947   0.2671  -3.5565   0.00    0.0
2085 302797.000   48.780713028    9.171589754   324.6693   5   7   4.1316   1.9937   5.1747   0.3940   0.2695  -3.5565   0.00    0.0
2085 302798.000   48.780721631    9.171596168   324.8671   5   7   4.1315   1.9938   5.1747   0.3933   0.2718  -3.5565   0.00    0.0
2085 302799.000   48.780713905    9.171597737   325.3054   5   7   4.1314   1.9939   5.1747   0.3926   0.2741  -3.5565   0.00    0.0
2085 302800.000   48.780719319    9.171595771   324.1571   5   7   4.1312   1.9939   5.1748   0.3919   0.2763  -3.5564   0.00    0.0
2085 302801.000   48.780716553    9.171598391   324.7886   5   7   4.1311   1.9940   5.1748   0.3912   0.2786  -3.5564   0.00    0.0
2085 302802.000   48.780720789    9.171598867   324.5959   5   7   4.1310   1.9940   5.1748   0.3905   0.2808  -3.5564   0.00    0.0
2085 302803.000   48.780716368    9.171599344   326.0402   5   7   4.1309   1.9941   5.1748   0.3898   0.2830  -3.5564   0.00    0.0
2085 302804.000   48.780721011    9.171597256   325.4142   5   7   4.1307   1.9942   5.1749   0.3891   0.2852  -3.5563   0.00    0.0
2085 302805.000   48.780718030    9.171597921   324.9839   5   7   4.1306   1.9942   5.1749   0.3884   0.2874  -3.5563   0.00    0.0
2085 302806.000   48.780721286    9.171602947   325.2245   5   7   4.1305   1.9943   5.1749   0.3877   0.2896  -3.5563   0.00    0.0
2085 302807.000   48.780724187    9.171598705   324.9589   5   7   4.1304   1.9944   5.1749   0.3870   0.2917  -3.5563   0.00    0.0
2085 302808.000   48.780717576    9.171600021   325.0061   5   7   4.1302   1.9944   5.1749   0.3863   0.2939  -3.5562   0.00    0.0
2085 302809.000   48.780723054    9.171598950   324.8438   5   7   4.1301   1.9945   5.1750   0.3856   0.2960  -3.5562   0.00    0.0
2085 302810.000   48.780719134    9.171599835   325.2641   5   7   4.1300   1.9946   5.1750   0.3849   0.2981  -3.5562   0.00    0.0
2085 302811.000   48.780718333    9.171601839   325.3467   5   7   4.1299   1.9946   5.1750   0.3842   0.3002  -3.5562   0.00    0.0
2085 302812.000   48.780722581    9.171602319   325.2878   5   7   4.1297   1.9947   5.1750   0.3834   0.3023  -3.5561   0.00    0.0
2085 302813.000   48.780719458    9.171597985   325.8102   5   7   4.1296   1.9948   5.1751   0.3827   0.3043  -3.5561   0.00    0.0
2085 302814.000   48.780721089    9.171598989   324.7485   5   7   4.1295   1.9948   5.1751   0.3820   0.3064  -3.5561   0.00    0.0
2085 302815.000   48.780721507    9.171600163   325.0169   5   7   4.1294   1.9949   5.1751   0.3813   0.3084  -3.5561   0.00    0.0
2085 302816.000   48.780721827    9.171597488   324.8280   5   7   4.1292   1.9950   5.1751   0.3806   0.3104  -3.5560   0.00    0.0
2085 302817.000   48.780720407    9.171595938   325.8758   5   7   4.1291   1.9950   5.1751   0.3798   0.3125  -3.5560   0.00    0.0
2085 302818.000   48.780720547    9.171595475   324.8298   5   7   4.1290   1.9951   5.1752   0.3791   0.3144  -3.5560   0.00    0.0
2085 302819.000   48.780713741    9.171593070   325.4485   5   7   4.1288   1.9952   5.1752   0.3784   0.3164  -3.5559   0.00    0.0
2085 302820.000   48.780717716    9.171596087   325.5236   5   7   4.1287   1.9953   5.1752   0.3777   0.3184  -3.5559   0.00    0.0
2085 302821.000   48.780715276    9.171597352   325.4254   5   7   4.1286   1.9953   5.1752   0.3769   0.3204  -3.5559   0.00    0.0
2085 302822.000   48.780715531    9.171597320   326.0583   5   7   4.1284   1.9954   5.1752   0.3762   0.3223  -3.5559   0.00    0.0
2085 302823.000   48.780716095    9.171599818   325.4488   5   7   4.1283   1.9955   5.1753   0.3755   0.3243  -3.5558   0.00    0.0
2085 302824.000   48.780714496    9.171599096   324.9633   5   7   4.1282   1.9955   5.1753   0.3748   0.3262  -3.5558   0.00    0.0
2085 302825.000   48.780722079    9.171597949   324.5233   5   7   4.1281   1.9956   5.1753   0.3740   0.3281  -3.5558   0.00    0.0
2085 302826.000   48.780718415    9.171594633   325.4664   5   7   4.1279   1.9957   5.1753   0.3733   0.3300  -3.5557   0.00    0.0
2085 302827.000   48.780718387    9.171591157   325.2437   5   7   4.1278   1.9957   5.1753   0.3725   0.3319  -3.5557   0.00    0.0
2085 302828.000   48.780711852    9.171589722   324.9922   5   7   4.1277   1.9958   5.1753   0.3718   0.3338  -3.5557   0.00    0.0
2085 302829.000   48.780717196    9.171595588   325.0924   5   7   4.1275   1.9959   5.1754   0.3711   0.3357  -3.5556   0.00    0.0
2085 302830.000   48.780717207    9.171593711   325.1838   5   7   4.1274   1.9959   5.1754   0.3703   0.3375  -3.5556   0.00    0.0
2085 302831.000   48.780712370    9.171588961   325.7716   5   7   4.1273   1.9960   5.1754   0.3696   0.3394  -3.5556   0.00    0.0
2085 302832.000   48.780713681    9.171588014   324.7717   5   7   4.1271   1.9961   5.1754   0.3688   0.3412  -3.5555   0.00    0.0
2085 302833.000   48.780710846    9.171589983   325.6395   5   7   4.1270   1.9961   5.1754   0.3681   0.3431  -3.5555   0.00    0.0
2085 302834.000   48.780717624    9.171594916   325.2289   5   7   4.1269   1.9962   5.1755   0.3673   0.3449  -3.5555   0.00    0.0
2085 302835.000   48.780711479    9.171592688   325.7582   5   7   4.1267   1.9963   5.1755   0.3666   0.3467  -3.5554   0.00    0.0
2085 302836.000   48.780712641    9.171595341   325.5634   5   7   4.1266   1.9963   5.1755   0.3658   0.3485  -3.5554   0.00    0.0
2085 302837.000   48.780708143    9.171596298   325.6397   5   7   4.1265   1.9964   5.1755   0.3651   0.3503  -3.5553   0.00    0.0
2085 302838.000   48.780713503    9.171594834   325.4038   5   7   4.1263   1.9965   5.1755   0.3643   0.3521  -3.5553   0.00    0.0
2085 302839.000   48.780711689    9.171595975   325.2593   5   7   4.1262   1.9965   5.1755   0.3636   0.3539  -3.5553   0.00    0.0
2085 302840.000   48.780715076    9.171594210   325.3700   5   7   4.1261   1.9966   5.1756   0.3628   0.3556  -3.5552   0.00    0.0
2085 302841.000   48.780719191    9.171596397   324.8455   5   7   4.1259   1.9967   5.1756   0.3621   0.3574  -3.5552   0.00    0.0
2085 302842.000   48.780716792    9.171597860   325.0194   5   7   4.1258   1.9967   5.1756   0.3613   0.3591  -3.5551   0.00    0.0
2085 302843.000   48.780719378    9.171596777   324.9619   5   7   4.1256   1.9968   5.1756   0.3605   0.3609  -3.5551   0.00    0.0
2085 302844.000   48.780713582    9.171596653   325.5203   5   7   4.1255   1.9969   5.1756   0.3598   0.3626  -3.5551   0.00    0.0
