% program   : RTKPOST ver.2.4.3 b33
% inp file  : E:\Study\master\semester 3\Satellite Navigation\lab5\data_sets\INSA00DEU_R_20193591200_01H_01S_MO.rnx
% inp file  : E:\Study\master\semester 3\Satellite Navigation\lab5\data_sets\INSA00DEU_R_20193591200_01H_01S_MN.rnx
% obs start : 2019/12/25 12:00:00.0 GPST (week2085 302400.0s)
% obs end   : 2019/12/25 12:59:59.0 GPST (week2085 305999.0s)
% pos mode  : single
% elev mask : 5.0 deg
% ionos opt : broadcast
% tropo opt : saastamoinen
% ephemeris : broadcast
% navi sys  : galileo
%
% (lat/lon/height=WGS84/ellipsoidal,Q=1:fix,2:float,3:sbas,4:dgps,5:single,6:ppp,ns=# of satellites)
%  GPST          latitude(deg) longitude(deg)  height(m)   Q  ns   sdn(m)   sde(m)   sdu(m)  sdne(m)  sdeu(m)  sdun(m) age(s)  ratio
2085 302400.000   48.780716430    9.171584368   324.9561   5   7   3.4640   2.4008   5.6516  -1.0779  -2.3341   2.7132   0.00    0.0
2085 302401.000   48.780715784    9.171584503   325.0304   5   7   3.4641   2.4009   5.6512  -1.0779  -2.3339   2.7132   0.00    0.0
2085 302402.000   48.780716066    9.171583777   324.8006   5   7   3.4642   2.4009   5.6509  -1.0779  -2.3337   2.7132   0.00    0.0
2085 302403.000   48.780716277    9.171585887   324.9228   5   7   3.4642   2.4009   5.6506  -1.0779  -2.3336   2.7132   0.00    0.0
2085 302404.000   48.780717631    9.171585984   324.8675   5   7   3.4643   2.4010   5.6502  -1.0779  -2.3334   2.7133   0.00    0.0
2085 302405.000   48.780715561    9.171586198   324.5262   5   7   3.4644   2.4010   5.6499  -1.0779  -2.3332   2.7133   0.00    0.0
2085 302406.000   48.780716562    9.171585247   324.8086   5   7   3.4644   2.4011   5.6496  -1.0779  -2.3330   2.7133   0.00    0.0
2085 302407.000   48.780716892    9.171585177   324.9932   5   7   3.4645   2.4011   5.6492  -1.0779  -2.3329   2.7133   0.00    0.0
2085 302408.000   48.780716135    9.171587154   324.7928   5   7   3.4646   2.4011   5.6489  -1.0778  -2.3327   2.7133   0.00    0.0
2085 302409.000   48.780719021    9.171585635   325.1023   5   7   3.4647   2.4012   5.6486  -1.0778  -2.3325   2.7133   0.00    0.0
2085 302410.000   48.780710951    9.171588510   323.8880   5   8   2.7084   2.3759   4.7593  -0.6405  -2.0933   0.8887   0.00    0.0
2085 302411.000   48.780710459    9.171587583   324.0201   5   8   2.7084   2.3760   4.7591  -0.6407  -2.0932   0.8889   0.00    0.0
2085 302412.000   48.780711263    9.171588175   324.1305   5   8   2.7083   2.3760   4.7589  -0.6408  -2.0932   0.8890   0.00    0.0
2085 302413.000   48.780710141    9.171590160   324.1407   5   8   2.7083   2.3761   4.7587  -0.6410  -2.0931   0.8891   0.00    0.0
2085 302414.000   48.780710076    9.171590791   324.1429   5   8   2.7082   2.3761   4.7586  -0.6411  -2.0930   0.8893   0.00    0.0
2085 302415.000   48.780709459    9.171588552   323.9807   5   8   2.7081   2.3762   4.7584  -0.6412  -2.0929   0.8894   0.00    0.0
2085 302416.000   48.780709367    9.171590020   323.5603   5   8   2.7081   2.3763   4.7582  -0.6414  -2.0928   0.8896   0.00    0.0
2085 302417.000   48.780710446    9.171590251   323.7518   5   8   2.7080   2.3763   4.7580  -0.6415  -2.0928   0.8897   0.00    0.0
2085 302418.000   48.780708644    9.171588734   323.4715   5   8   2.7080   2.3764   4.7579  -0.6417  -2.0927   0.8899   0.00    0.0
2085 302419.000   48.780708916    9.171589656   323.6346   5   8   2.7079   2.3764   4.7577  -0.6418  -2.0926   0.8900   0.00    0.0
2085 302420.000   48.780709084    9.171591194   323.5559   5   8   2.7079   2.3765   4.7575  -0.6419  -2.0925   0.8901   0.00    0.0
2085 302421.000   48.780710325    9.171590151   323.6301   5   8   2.7078   2.3766   4.7573  -0.6421  -2.0924   0.8903   0.00    0.0
2085 302422.000   48.780709682    9.171589964   323.6686   5   8   2.7078   2.3766   4.7572  -0.6422  -2.0924   0.8904   0.00    0.0
2085 302423.000   48.780710106    9.171588828   323.4432   5   8   2.7077   2.3767   4.7570  -0.6424  -2.0923   0.8906   0.00    0.0
2085 302424.000   48.780710633    9.171587735   323.5518   5   8   2.7077   2.3767   4.7568  -0.6425  -2.0922   0.8907   0.00    0.0
2085 302425.000   48.780711371    9.171587676   323.5649   5   8   2.7076   2.3768   4.7566  -0.6426  -2.0921   0.8908   0.00    0.0
2085 302426.000   48.780711756    9.171590642   323.6379   5   8   2.7075   2.3769   4.7565  -0.6428  -2.0921   0.8910   0.00    0.0
2085 302427.000   48.780710948    9.171591071   323.5252   5   8   2.7075   2.3769   4.7563  -0.6429  -2.0920   0.8911   0.00    0.0
2085 302428.000   48.780711751    9.171588223   323.6117   5   8   2.7074   2.3770   4.7561  -0.6431  -2.0919   0.8913   0.00    0.0
2085 302429.000   48.780711035    9.171590342   323.8135   5   8   2.7074   2.3770   4.7559  -0.6432  -2.0918   0.8914   0.00    0.0
2085 302430.000   48.780712344    9.171586730   323.9639   5   8   2.7073   2.3771   4.7558  -0.6433  -2.0917   0.8915   0.00    0.0
2085 302431.000   48.780712104    9.171587310   323.8012   5   8   2.7073   2.3772   4.7556  -0.6435  -2.0917   0.8917   0.00    0.0
2085 302432.000   48.780710174    9.171586994   323.7913   5   8   2.7072   2.3772   4.7554  -0.6436  -2.0916   0.8918   0.00    0.0
2085 302433.000   48.780710115    9.171586163   323.8103   5   8   2.7072   2.3773   4.7552  -0.6437  -2.0915   0.8920   0.00    0.0
2085 302434.000   48.780708712    9.171588473   323.7639   5   8   2.7071   2.3773   4.7551  -0.6439  -2.0914   0.8921   0.00    0.0
2085 302435.000   48.780709571    9.171586468   323.8392   5   8   2.7071   2.3774   4.7549  -0.6440  -2.0913   0.8922   0.00    0.0
2085 302436.000   48.780711299    9.171584101   324.2434   5   8   2.7070   2.3775   4.7547  -0.6442  -2.0913   0.8924   0.00    0.0
2085 302437.000   48.780709408    9.171585944   323.9906   5   8   2.7070   2.3775   4.7545  -0.6443  -2.0912   0.8925   0.00    0.0
2085 302438.000   48.780708462    9.171586567   324.0190   5   8   2.7069   2.3776   4.7544  -0.6444  -2.0911   0.8927   0.00    0.0
2085 302439.000   48.780709569    9.171587717   324.0483   5   8   2.7069   2.3776   4.7542  -0.6446  -2.0910   0.8928   0.00    0.0
2085 302440.000   48.780709598    9.171587486   324.2495   5   8   2.7068   2.3777   4.7540  -0.6447  -2.0909   0.8929   0.00    0.0
2085 302441.000   48.780709588    9.171587920   323.9092   5   8   2.7067   2.3777   4.7538  -0.6448  -2.0909   0.8931   0.00    0.0
2085 302442.000   48.780710046    9.171588155   323.8194   5   8   2.7067   2.3778   4.7537  -0.6450  -2.0908   0.8932   0.00    0.0
2085 302443.000   48.780710425    9.171587701   323.8665   5   8   2.7066   2.3779   4.7535  -0.6451  -2.0907   0.8933   0.00    0.0
2085 302444.000   48.780709333    9.171587577   324.0338   5   8   2.7066   2.3779   4.7533  -0.6453  -2.0906   0.8935   0.00    0.0
2085 302445.000   48.780709014    9.171587882   324.0157   5   8   2.7065   2.3780   4.7532  -0.6454  -2.0905   0.8936   0.00    0.0
2085 302446.000   48.780708400    9.171585790   324.0006   5   8   2.7065   2.3780   4.7530  -0.6455  -2.0905   0.8938   0.00    0.0
2085 302447.000   48.780710125    9.171588073   324.2187   5   8   2.7064   2.3781   4.7528  -0.6457  -2.0904   0.8939   0.00    0.0
2085 302448.000   48.780709474    9.171586728   324.2840   5   8   2.7064   2.3782   4.7526  -0.6458  -2.0903   0.8940   0.00    0.0
2085 302449.000   48.780710200    9.171586701   324.2398   5   8   2.7063   2.3782   4.7525  -0.6459  -2.0902   0.8942   0.00    0.0
2085 302450.000   48.780710523    9.171587965   324.1114   5   8   2.7063   2.3783   4.7523  -0.6461  -2.0901   0.8943   0.00    0.0
2085 302451.000   48.780710444    9.171586169   323.9887   5   8   2.7062   2.3783   4.7521  -0.6462  -2.0901   0.8945   0.00    0.0
2085 302452.000   48.780711627    9.171585287   324.5014   5   8   2.7062   2.3784   4.7519  -0.6464  -2.0900   0.8946   0.00    0.0
2085 302453.000   48.780711270    9.171588831   324.3973   5   8   2.7061   2.3785   4.7518  -0.6465  -2.0899   0.8947   0.00    0.0
2085 302454.000   48.780711432    9.171587312   324.1782   5   8   2.7061   2.3785   4.7516  -0.6466  -2.0898   0.8949   0.00    0.0
2085 302455.000   48.780712997    9.171585236   324.0384   5   8   2.7060   2.3786   4.7514  -0.6468  -2.0897   0.8950   0.00    0.0
2085 302456.000   48.780712440    9.171584715   324.0797   5   8   2.7060   2.3786   4.7512  -0.6469  -2.0897   0.8951   0.00    0.0
2085 302457.000   48.780712794    9.171586562   323.9991   5   8   2.7059   2.3787   4.7511  -0.6470  -2.0896   0.8953   0.00    0.0
2085 302458.000   48.780711564    9.171589267   323.9760   5   8   2.7059   2.3788   4.7509  -0.6472  -2.0895   0.8954   0.00    0.0
2085 302459.000   48.780711277    9.171589565   324.0543   5   8   2.7058   2.3788   4.7507  -0.6473  -2.0894   0.8955   0.00    0.0
2085 302460.000   48.780710763    9.171591696   323.8519   5   8   2.7058   2.3789   4.7505  -0.6474  -2.0893   0.8957   0.00    0.0
2085 302461.000   48.780711553    9.171590723   323.7912   5   8   2.7057   2.3789   4.7504  -0.6476  -2.0893   0.8958   0.00    0.0
2085 302462.000   48.780712539    9.171589656   323.7747   5   8   2.7057   2.3790   4.7502  -0.6477  -2.0892   0.8960   0.00    0.0
2085 302463.000   48.780710854    9.171590403   323.7399   5   8   2.7056   2.3791   4.7500  -0.6478  -2.0891   0.8961   0.00    0.0
2085 302464.000   48.780710105    9.171591750   324.0512   5   8   2.7056   2.3791   4.7499  -0.6480  -2.0890   0.8962   0.00    0.0
2085 302465.000   48.780711034    9.171589702   323.8581   5   8   2.7055   2.3792   4.7497  -0.6481  -2.0889   0.8964   0.00    0.0
2085 302466.000   48.780711246    9.171590928   323.9950   5   8   2.7055   2.3792   4.7495  -0.6482  -2.0889   0.8965   0.00    0.0
2085 302467.000   48.780713172    9.171591663   324.0965   5   8   2.7054   2.3793   4.7493  -0.6484  -2.0888   0.8966   0.00    0.0
2085 302468.000   48.780711477    9.171588585   324.0185   5   8   2.7053   2.3794   4.7492  -0.6485  -2.0887   0.8968   0.00    0.0
2085 302469.000   48.780711604    9.171588404   324.3424   5   8   2.7053   2.3794   4.7490  -0.6486  -2.0886   0.8969   0.00    0.0
2085 302470.000   48.780711149    9.171589142   323.8494   5   8   2.7052   2.3795   4.7488  -0.6488  -2.0885   0.8970   0.00    0.0
2085 302471.000   48.780712493    9.171590023   323.7438   5   8   2.7052   2.3795   4.7486  -0.6489  -2.0885   0.8972   0.00    0.0
2085 302472.000   48.780709428    9.171588581   324.2649   5   8   2.7051   2.3796   4.7485  -0.6490  -2.0884   0.8973   0.00    0.0
2085 302473.000   48.780710749    9.171586284   323.9733   5   8   2.7051   2.3797   4.7483  -0.6492  -2.0883   0.8974   0.00    0.0
2085 302474.000   48.780709975    9.171588183   323.8514   5   8   2.7050   2.3797   4.7481  -0.6493  -2.0882   0.8976   0.00    0.0
2085 302475.000   48.780712398    9.171588079   323.6033   5   8   2.7050   2.3798   4.7479  -0.6494  -2.0881   0.8977   0.00    0.0
2085 302476.000   48.780710061    9.171586605   323.8389   5   8   2.7049   2.3798   4.7478  -0.6496  -2.0880   0.8978   0.00    0.0
2085 302477.000   48.780710079    9.171588257   323.9658   5   8   2.7049   2.3799   4.7476  -0.6497  -2.0880   0.8980   0.00    0.0
2085 302478.000   48.780710514    9.171585637   324.1292   5   8   2.7048   2.3800   4.7474  -0.6498  -2.0879   0.8981   0.00    0.0
2085 302479.000   48.780710212    9.171589050   323.6515   5   8   2.7048   2.3800   4.7473  -0.6500  -2.0878   0.8982   0.00    0.0
2085 302480.000   48.780710015    9.171589778   324.1209   5   8   2.7047   2.3801   4.7471  -0.6501  -2.0877   0.8984   0.00    0.0
2085 302481.000   48.780708605    9.171590179   323.8918   5   8   2.7047   2.3801   4.7469  -0.6502  -2.0876   0.8985   0.00    0.0
2085 302482.000   48.780710135    9.171590876   324.3304   5   8   2.7046   2.3802   4.7467  -0.6504  -2.0876   0.8986   0.00    0.0
2085 302483.000   48.780710842    9.171592900   324.1970   5   8   2.7046   2.3803   4.7466  -0.6505  -2.0875   0.8988   0.00    0.0
2085 302484.000   48.780709104    9.171591684   324.4675   5   8   2.7045   2.3803   4.7464  -0.6506  -2.0874   0.8989   0.00    0.0
2085 302485.000   48.780710153    9.171592549   324.1274   5   8   2.7045   2.3804   4.7462  -0.6508  -2.0873   0.8990   0.00    0.0
2085 302486.000   48.780708801    9.171591910   323.9891   5   8   2.7044   2.3804   4.7460  -0.6509  -2.0872   0.8992   0.00    0.0
2085 302487.000   48.780708853    9.171591112   324.1012   5   8   2.7044   2.3805   4.7459  -0.6510  -2.0871   0.8993   0.00    0.0
2085 302488.000   48.780709480    9.171589516   324.0316   5   8   2.7043   2.3806   4.7457  -0.6512  -2.0871   0.8994   0.00    0.0
2085 302489.000   48.780709771    9.171589131   323.8384   5   8   2.7043   2.3806   4.7455  -0.6513  -2.0870   0.8996   0.00    0.0
2085 302490.000   48.780710404    9.171588202   323.9060   5   8   2.7042   2.3807   4.7454  -0.6514  -2.0869   0.8997   0.00    0.0
2085 302491.000   48.780709832    9.171589411   323.7807   5   8   2.7042   2.3807   4.7452  -0.6516  -2.0868   0.8998   0.00    0.0
2085 302492.000   48.780710414    9.171589832   323.8394   5   8   2.7041   2.3808   4.7450  -0.6517  -2.0867   0.9000   0.00    0.0
2085 302493.000   48.780710237    9.171587401   324.0430   5   8   2.7041   2.3809   4.7448  -0.6518  -2.0867   0.9001   0.00    0.0
2085 302494.000   48.780710438    9.171589491   323.7673   5   8   2.7041   2.3809   4.7447  -0.6519  -2.0866   0.9002   0.00    0.0
2085 302495.000   48.780710998    9.171588262   323.8884   5   8   2.7040   2.3810   4.7445  -0.6521  -2.0865   0.9004   0.00    0.0
2085 302496.000   48.780712885    9.171588030   323.7573   5   8   2.7040   2.3810   4.7443  -0.6522  -2.0864   0.9005   0.00    0.0
2085 302497.000   48.780713503    9.171590392   323.6617   5   8   2.7039   2.3811   4.7442  -0.6523  -2.0863   0.9006   0.00    0.0
2085 302498.000   48.780711555    9.171590473   323.5274   5   8   2.7039   2.3812   4.7440  -0.6525  -2.0862   0.9008   0.00    0.0
2085 302499.000   48.780711760    9.171591720   323.5504   5   8   2.7038   2.3812   4.7438  -0.6526  -2.0862   0.9009   0.00    0.0
2085 302500.000   48.780711418    9.171591946   323.7641   5   8   2.7038   2.3813   4.7436  -0.6527  -2.0861   0.9010   0.00    0.0
2085 302501.000   48.780712150    9.171590274   323.8123   5   8   2.7037   2.3813   4.7435  -0.6529  -2.0860   0.9011   0.00    0.0
2085 302502.000   48.780713294    9.171589549   323.5314   5   8   2.7037   2.3814   4.7433  -0.6530  -2.0859   0.9013   0.00    0.0
2085 302503.000   48.780712477    9.171589654   323.9350   5   8   2.7036   2.3815   4.7431  -0.6531  -2.0858   0.9014   0.00    0.0
2085 302504.000   48.780711932    9.171590314   323.6812   5   8   2.7036   2.3815   4.7430  -0.6532  -2.0857   0.9015   0.00    0.0
2085 302505.000   48.780711759    9.171589508   323.8617   5   8   2.7035   2.3816   4.7428  -0.6534  -2.0857   0.9017   0.00    0.0
2085 302506.000   48.780711831    9.171590805   323.9075   5   8   2.7035   2.3816   4.7426  -0.6535  -2.0856   0.9018   0.00    0.0
2085 302507.000   48.780711054    9.171589181   323.7763   5   8   2.7034   2.3817   4.7424  -0.6536  -2.0855   0.9019   0.00    0.0
2085 302508.000   48.780710718    9.171588870   323.8651   5   8   2.7034   2.3818   4.7423  -0.6538  -2.0854   0.9021   0.00    0.0
2085 302509.000   48.780710494    9.171591824   323.8294   5   8   2.7033   2.3818   4.7421  -0.6539  -2.0853   0.9022   0.00    0.0
2085 302510.000   48.780711469    9.171591666   323.9390   5   8   2.7033   2.3819   4.7419  -0.6540  -2.0852   0.9023   0.00    0.0
2085 302511.000   48.780711104    9.171590561   324.0639   5   8   2.7032   2.3819   4.7418  -0.6542  -2.0852   0.9024   0.00    0.0
2085 302512.000   48.780710320    9.171591621   323.9355   5   8   2.7032   2.3820   4.7416  -0.6543  -2.0851   0.9026   0.00    0.0
2085 302513.000   48.780710061    9.171592353   324.1886   5   8   2.7031   2.3821   4.7414  -0.6544  -2.0850   0.9027   0.00    0.0
2085 302514.000   48.780710619    9.171594006   324.2820   5   8   2.7031   2.3821   4.7412  -0.6545  -2.0849   0.9028   0.00    0.0
2085 302515.000   48.780710586    9.171593284   324.1060   5   8   2.7030   2.3822   4.7411  -0.6547  -2.0848   0.9030   0.00    0.0
2085 302516.000   48.780711261    9.171592600   324.2390   5   8   2.7030   2.3822   4.7409  -0.6548  -2.0847   0.9031   0.00    0.0
2085 302517.000   48.780708958    9.171590970   324.2799   5   8   2.7029   2.3823   4.7407  -0.6549  -2.0847   0.9032   0.00    0.0
2085 302518.000   48.780711014    9.171591570   324.3611   5   8   2.7029   2.3824   4.7406  -0.6550  -2.0846   0.9033   0.00    0.0
2085 302519.000   48.780709301    9.171592728   323.7213   5   8   2.7028   2.3824   4.7404  -0.6552  -2.0845   0.9035   0.00    0.0
2085 302520.000   48.780710549    9.171590769   323.8107   5   8   2.7028   2.3825   4.7402  -0.6553  -2.0844   0.9036   0.00    0.0
2085 302521.000   48.780711169    9.171589986   323.6854   5   8   2.7028   2.3825   4.7400  -0.6554  -2.0843   0.9037   0.00    0.0
2085 302522.000   48.780711232    9.171589124   323.6949   5   8   2.7027   2.3826   4.7399  -0.6556  -2.0842   0.9039   0.00    0.0
2085 302523.000   48.780711775    9.171588330   324.0738   5   8   2.7027   2.3827   4.7397  -0.6557  -2.0842   0.9040   0.00    0.0
2085 302524.000   48.780710898    9.171591121   323.7753   5   8   2.7026   2.3827   4.7395  -0.6558  -2.0841   0.9041   0.00    0.0
2085 302525.000   48.780711150    9.171589522   323.9166   5   8   2.7026   2.3828   4.7394  -0.6559  -2.0840   0.9042   0.00    0.0
2085 302526.000   48.780711089    9.171589544   323.5442   5   8   2.7025   2.3828   4.7392  -0.6561  -2.0839   0.9044   0.00    0.0
2085 302527.000   48.780711868    9.171589080   324.1201   5   8   2.7025   2.3829   4.7390  -0.6562  -2.0838   0.9045   0.00    0.0
2085 302528.000   48.780712124    9.171588616   324.0038   5   8   2.7024   2.3830   4.7388  -0.6563  -2.0837   0.9046   0.00    0.0
2085 302529.000   48.780710582    9.171589449   324.2351   5   8   2.7024   2.3830   4.7387  -0.6564  -2.0837   0.9047   0.00    0.0
2085 302530.000   48.780711892    9.171590011   324.0636   5   8   2.7023   2.3831   4.7385  -0.6566  -2.0836   0.9049   0.00    0.0
2085 302531.000   48.780711612    9.171588749   324.0786   5   8   2.7023   2.3831   4.7383  -0.6567  -2.0835   0.9050   0.00    0.0
2085 302532.000   48.780710104    9.171591556   323.8811   5   8   2.7022   2.3832   4.7382  -0.6568  -2.0834   0.9051   0.00    0.0
2085 302533.000   48.780711300    9.171592439   324.0234   5   8   2.7022   2.3833   4.7380  -0.6569  -2.0833   0.9052   0.00    0.0
2085 302534.000   48.780711301    9.171590277   323.7458   5   8   2.7021   2.3833   4.7378  -0.6571  -2.0832   0.9054   0.00    0.0
2085 302535.000   48.780711103    9.171590994   323.7142   5   8   2.7021   2.3834   4.7377  -0.6572  -2.0832   0.9055   0.00    0.0
2085 302536.000   48.780710514    9.171594802   323.8296   5   8   2.7021   2.3834   4.7375  -0.6573  -2.0831   0.9056   0.00    0.0
2085 302537.000   48.780711716    9.171592949   323.8077   5   8   2.7020   2.3835   4.7373  -0.6574  -2.0830   0.9057   0.00    0.0
2085 302538.000   48.780710124    9.171591930   323.5845   5   8   2.7020   2.3836   4.7371  -0.6576  -2.0829   0.9059   0.00    0.0
2085 302539.000   48.780710397    9.171590905   323.7029   5   8   2.7019   2.3836   4.7370  -0.6577  -2.0828   0.9060   0.00    0.0
2085 302540.000   48.780709963    9.171592410   323.7835   5   8   2.7019   2.3837   4.7368  -0.6578  -2.0827   0.9061   0.00    0.0
2085 302541.000   48.780710713    9.171592133   323.5162   5   8   2.7018   2.3838   4.7366  -0.6579  -2.0826   0.9062   0.00    0.0
2085 302542.000   48.780709892    9.171590196   323.7076   5   8   2.7018   2.3838   4.7365  -0.6581  -2.0826   0.9064   0.00    0.0
2085 302543.000   48.780710204    9.171591863   323.8491   5   8   2.7017   2.3839   4.7363  -0.6582  -2.0825   0.9065   0.00    0.0
2085 302544.000   48.780710046    9.171591437   323.5358   5   8   2.7017   2.3839   4.7361  -0.6583  -2.0824   0.9066   0.00    0.0
2085 302545.000   48.780710391    9.171590385   323.4362   5   8   2.7016   2.3840   4.7360  -0.6584  -2.0823   0.9067   0.00    0.0
2085 302546.000   48.780710682    9.171589821   323.3311   5   8   2.7016   2.3841   4.7358  -0.6586  -2.0822   0.9069   0.00    0.0
2085 302547.000   48.780709988    9.171591506   323.2692   5   8   2.7015   2.3841   4.7356  -0.6587  -2.0821   0.9070   0.00    0.0
2085 302548.000   48.780711000    9.171591778   323.4080   5   8   2.7015   2.3842   4.7354  -0.6588  -2.0821   0.9071   0.00    0.0
2085 302549.000   48.780711096    9.171590182   323.2417   5   8   2.7015   2.3842   4.7353  -0.6589  -2.0820   0.9072   0.00    0.0
2085 302550.000   48.780710706    9.171591804   323.1818   5   8   2.7014   2.3843   4.7351  -0.6591  -2.0819   0.9074   0.00    0.0
2085 302551.000   48.780711891    9.171591822   323.7108   5   8   2.7014   2.3844   4.7349  -0.6592  -2.0818   0.9075   0.00    0.0
2085 302552.000   48.780712136    9.171592945   323.8013   5   8   2.7013   2.3844   4.7348  -0.6593  -2.0817   0.9076   0.00    0.0
2085 302553.000   48.780712039    9.171589752   323.6222   5   8   2.7013   2.3845   4.7346  -0.6594  -2.0816   0.9077   0.00    0.0
2085 302554.000   48.780710338    9.171589607   323.3763   5   8   2.7012   2.3845   4.7344  -0.6596  -2.0815   0.9079   0.00    0.0
2085 302555.000   48.780710347    9.171590389   323.4973   5   8   2.7012   2.3846   4.7343  -0.6597  -2.0815   0.9080   0.00    0.0
2085 302556.000   48.780710488    9.171589518   323.5599   5   8   2.7011   2.3847   4.7341  -0.6598  -2.0814   0.9081   0.00    0.0
2085 302557.000   48.780712258    9.171589530   323.5428   5   8   2.7011   2.3847   4.7339  -0.6599  -2.0813   0.9082   0.00    0.0
2085 302558.000   48.780711390    9.171589843   323.6851   5   8   2.7011   2.3848   4.7337  -0.6600  -2.0812   0.9083   0.00    0.0
2085 302559.000   48.780713307    9.171589156   323.8512   5   8   2.7010   2.3848   4.7336  -0.6602  -2.0811   0.9085   0.00    0.0
2085 302560.000   48.780712867    9.171589303   323.6840   5   8   2.7010   2.3849   4.7334  -0.6603  -2.0810   0.9086   0.00    0.0
2085 302561.000   48.780712393    9.171589552   323.5959   5   8   2.7009   2.3850   4.7332  -0.6604  -2.0809   0.9087   0.00    0.0
2085 302562.000   48.780710019    9.171589019   323.8028   5   8   2.7009   2.3850   4.7331  -0.6605  -2.0809   0.9088   0.00    0.0
2085 302563.000   48.780710387    9.171590908   323.8378   5   8   2.7008   2.3851   4.7329  -0.6607  -2.0808   0.9090   0.00    0.0
2085 302564.000   48.780710874    9.171589091   323.7392   5   8   2.7008   2.3851   4.7327  -0.6608  -2.0807   0.9091   0.00    0.0
2085 302565.000   48.780709808    9.171589782   323.4763   5   8   2.7007   2.3852   4.7326  -0.6609  -2.0806   0.9092   0.00    0.0
2085 302566.000   48.780709340    9.171590676   323.6736   5   8   2.7007   2.3853   4.7324  -0.6610  -2.0805   0.9093   0.00    0.0
2085 302567.000   48.780710304    9.171590636   324.0199   5   8   2.7007   2.3853   4.7322  -0.6611  -2.0804   0.9094   0.00    0.0
2085 302568.000   48.780709039    9.171589517   323.7487   5   8   2.7006   2.3854   4.7321  -0.6613  -2.0803   0.9096   0.00    0.0
2085 302569.000   48.780710684    9.171589265   323.9242   5   8   2.7006   2.3854   4.7319  -0.6614  -2.0803   0.9097   0.00    0.0
2085 302570.000   48.780709830    9.171590631   324.0312   5   8   2.7005   2.3855   4.7317  -0.6615  -2.0802   0.9098   0.00    0.0
2085 302571.000   48.780710194    9.171591005   324.0863   5   8   2.7005   2.3856   4.7315  -0.6616  -2.0801   0.9099   0.00    0.0
2085 302572.000   48.780710311    9.171588983   324.2115   5   8   2.7004   2.3856   4.7314  -0.6617  -2.0800   0.9100   0.00    0.0
2085 302573.000   48.780710999    9.171590533   324.1253   5   8   2.7004   2.3857   4.7312  -0.6619  -2.0799   0.9102   0.00    0.0
2085 302574.000   48.780710880    9.171589505   324.0267   5   8   2.7003   2.3858   4.7310  -0.6620  -2.0798   0.9103   0.00    0.0
2085 302575.000   48.780711330    9.171590248   323.8945   5   8   2.7003   2.3858   4.7309  -0.6621  -2.0797   0.9104   0.00    0.0
2085 302576.000   48.780711437    9.171590687   323.8381   5   8   2.7003   2.3859   4.7307  -0.6622  -2.0797   0.9105   0.00    0.0
2085 302577.000   48.780711159    9.171588251   323.5487   5   8   2.7002   2.3859   4.7305  -0.6623  -2.0796   0.9106   0.00    0.0
2085 302578.000   48.780710851    9.171588637   323.6088   5   8   2.7002   2.3860   4.7304  -0.6625  -2.0795   0.9108   0.00    0.0
2085 302579.000   48.780710796    9.171589548   323.9430   5   8   2.7001   2.3861   4.7302  -0.6626  -2.0794   0.9109   0.00    0.0
2085 302580.000   48.780710658    9.171589589   323.9369   5   8   2.7001   2.3861   4.7300  -0.6627  -2.0793   0.9110   0.00    0.0
2085 302581.000   48.780709841    9.171588914   323.8694   5   8   2.7000   2.3862   4.7299  -0.6628  -2.0792   0.9111   0.00    0.0
2085 302582.000   48.780709453    9.171591352   323.6292   5   8   2.7000   2.3862   4.7297  -0.6629  -2.0791   0.9112   0.00    0.0
2085 302583.000   48.780708984    9.171591487   323.4998   5   8   2.7000   2.3863   4.7295  -0.6631  -2.0790   0.9113   0.00    0.0
2085 302584.000   48.780709084    9.171592945   323.7961   5   8   2.6999   2.3864   4.7294  -0.6632  -2.0790   0.9115   0.00    0.0
2085 302585.000   48.780708743    9.171593397   323.5269   5   8   2.6999   2.3864   4.7292  -0.6633  -2.0789   0.9116   0.00    0.0
2085 302586.000   48.780710520    9.171594415   323.4748   5   8   2.6998   2.3865   4.7290  -0.6634  -2.0788   0.9117   0.00    0.0
2085 302587.000   48.780710525    9.171594081   323.7035   5   8   2.6998   2.3865   4.7289  -0.6635  -2.0787   0.9118   0.00    0.0
2085 302588.000   48.780711591    9.171594985   323.9355   5   8   2.6997   2.3866   4.7287  -0.6637  -2.0786   0.9119   0.00    0.0
2085 302589.000   48.780709646    9.171593536   323.9180   5   8   2.6997   2.3867   4.7285  -0.6638  -2.0785   0.9120   0.00    0.0
2085 302590.000   48.780711253    9.171591454   323.8679   5   8   2.6997   2.3867   4.7284  -0.6639  -2.0784   0.9122   0.00    0.0
2085 302591.000   48.780712138    9.171591042   323.6344   5   8   2.6996   2.3868   4.7282  -0.6640  -2.0784   0.9123   0.00    0.0
2085 302592.000   48.780710753    9.171592914   323.6556   5   8   2.6996   2.3869   4.7280  -0.6641  -2.0783   0.9124   0.00    0.0
2085 302593.000   48.780710979    9.171592306   323.6451   5   8   2.6995   2.3869   4.7278  -0.6642  -2.0782   0.9125   0.00    0.0
2085 302594.000   48.780710560    9.171592475   323.9043   5   8   2.6995   2.3870   4.7277  -0.6644  -2.0781   0.9126   0.00    0.0
2085 302595.000   48.780711461    9.171595258   324.0306   5   8   2.6994   2.3870   4.7275  -0.6645  -2.0780   0.9127   0.00    0.0
2085 302596.000   48.780709877    9.171594596   323.9357   5   8   2.6994   2.3871   4.7273  -0.6646  -2.0779   0.9129   0.00    0.0
2085 302597.000   48.780711863    9.171596386   323.9969   5   8   2.6994   2.3872   4.7272  -0.6647  -2.0778   0.9130   0.00    0.0
2085 302598.000   48.780712678    9.171595479   323.8627   5   8   2.6993   2.3872   4.7270  -0.6648  -2.0777   0.9131   0.00    0.0
2085 302599.000   48.780712283    9.171595023   323.8168   5   8   2.6993   2.3873   4.7268  -0.6649  -2.0777   0.9132   0.00    0.0
2085 302600.000   48.780712756    9.171593081   323.7836   5   8   2.6992   2.3873   4.7267  -0.6651  -2.0776   0.9133   0.00    0.0
2085 302601.000   48.780711132    9.171592121   323.6523   5   8   2.6992   2.3874   4.7265  -0.6652  -2.0775   0.9134   0.00    0.0
2085 302602.000   48.780711172    9.171593009   323.7953   5   8   2.6992   2.3875   4.7263  -0.6653  -2.0774   0.9136   0.00    0.0
2085 302603.000   48.780710769    9.171591963   323.4810   5   8   2.6991   2.3875   4.7262  -0.6654  -2.0773   0.9137   0.00    0.0
2085 302604.000   48.780709734    9.171587086   323.2279   5   8   2.6991   2.3876   4.7260  -0.6655  -2.0772   0.9138   0.00    0.0
2085 302605.000   48.780708930    9.171585935   322.9897   5   8   2.6990   2.3876   4.7258  -0.6656  -2.0771   0.9139   0.00    0.0
2085 302606.000   48.780708791    9.171588536   323.0275   5   8   2.6990   2.3877   4.7257  -0.6658  -2.0770   0.9140   0.00    0.0
2085 302607.000   48.780708145    9.171588553   322.8563   5   8   2.6989   2.3878   4.7255  -0.6659  -2.0770   0.9141   0.00    0.0
2085 302608.000   48.780709266    9.171589415   323.2184   5   8   2.6989   2.3878   4.7253  -0.6660  -2.0769   0.9142   0.00    0.0
2085 302609.000   48.780709751    9.171590261   323.1263   5   8   2.6989   2.3879   4.7252  -0.6661  -2.0768   0.9143   0.00    0.0
2085 302610.000   48.780709174    9.171589147   323.0265   5   8   2.6988   2.3880   4.7250  -0.6662  -2.0767   0.9145   0.00    0.0
2085 302611.000   48.780711549    9.171587274   323.2987   5   8   2.6988   2.3880   4.7248  -0.6663  -2.0766   0.9146   0.00    0.0
2085 302612.000   48.780710966    9.171587919   323.3150   5   8   2.6987   2.3881   4.7247  -0.6665  -2.0765   0.9147   0.00    0.0
2085 302613.000   48.780710783    9.171585991   323.4782   5   8   2.6987   2.3881   4.7245  -0.6666  -2.0764   0.9148   0.00    0.0
2085 302614.000   48.780710512    9.171587845   323.3261   5   8   2.6987   2.3882   4.7243  -0.6667  -2.0763   0.9149   0.00    0.0
2085 302615.000   48.780709717    9.171589192   323.4533   5   8   2.6986   2.3883   4.7242  -0.6668  -2.0763   0.9150   0.00    0.0
2085 302616.000   48.780711169    9.171590009   323.7598   5   8   2.6986   2.3883   4.7240  -0.6669  -2.0762   0.9151   0.00    0.0
2085 302617.000   48.780710079    9.171589161   323.8949   5   8   2.6985   2.3884   4.7238  -0.6670  -2.0761   0.9153   0.00    0.0
2085 302618.000   48.780710806    9.171589594   324.0066   5   8   2.6985   2.3884   4.7237  -0.6671  -2.0760   0.9154   0.00    0.0
2085 302619.000   48.780711483    9.171589006   323.7992   5   8   2.6985   2.3885   4.7235  -0.6673  -2.0759   0.9155   0.00    0.0
2085 302620.000   48.780710967    9.171588399   324.0097   5   8   2.6984   2.3886   4.7233  -0.6674  -2.0758   0.9156   0.00    0.0
2085 302621.000   48.780711312    9.171588566   323.7260   5   8   2.6984   2.3886   4.7232  -0.6675  -2.0757   0.9157   0.00    0.0
2085 302622.000   48.780710367    9.171588901   323.4481   5   8   2.6983   2.3887   4.7230  -0.6676  -2.0756   0.9158   0.00    0.0
2085 302623.000   48.780712531    9.171585959   323.6978   5   8   2.6983   2.3887   4.7228  -0.6677  -2.0755   0.9159   0.00    0.0
2085 302624.000   48.780711983    9.171587174   323.9357   5   8   2.6983   2.3888   4.7227  -0.6678  -2.0755   0.9160   0.00    0.0
2085 302625.000   48.780711556    9.171589460   323.7731   5   8   2.6982   2.3889   4.7225  -0.6679  -2.0754   0.9161   0.00    0.0
2085 302626.000   48.780712131    9.171588794   323.7670   5   8   2.6982   2.3889   4.7223  -0.6681  -2.0753   0.9163   0.00    0.0
2085 302627.000   48.780710357    9.171590216   323.8352   5   8   2.6981   2.3890   4.7222  -0.6682  -2.0752   0.9164   0.00    0.0
2085 302628.000   48.780708863    9.171589693   323.5657   5   8   2.6981   2.3891   4.7220  -0.6683  -2.0751   0.9165   0.00    0.0
2085 302629.000   48.780710798    9.171588304   323.7162   5   8   2.6981   2.3891   4.7218  -0.6684  -2.0750   0.9166   0.00    0.0
2085 302630.000   48.780710658    9.171587936   323.8075   5   8   2.6980   2.3892   4.7217  -0.6685  -2.0749   0.9167   0.00    0.0
2085 302631.000   48.780711347    9.171589839   323.9719   5   8   2.6980   2.3892   4.7215  -0.6686  -2.0748   0.9168   0.00    0.0
2085 302632.000   48.780711565    9.171587801   323.8257   5   8   2.6979   2.3893   4.7213  -0.6687  -2.0747   0.9169   0.00    0.0
2085 302633.000   48.780709727    9.171588702   323.7405   5   8   2.6979   2.3894   4.7212  -0.6688  -2.0747   0.9170   0.00    0.0
2085 302634.000   48.780710723    9.171589061   323.7471   5   8   2.6979   2.3894   4.7210  -0.6690  -2.0746   0.9171   0.00    0.0
2085 302635.000   48.780712122    9.171590908   323.5622   5   8   2.6978   2.3895   4.7208  -0.6691  -2.0745   0.9172   0.00    0.0
2085 302636.000   48.780711482    9.171590914   323.7501   5   8   2.6978   2.3895   4.7207  -0.6692  -2.0744   0.9174   0.00    0.0
2085 302637.000   48.780712468    9.171591343   323.5946   5   8   2.6977   2.3896   4.7205  -0.6693  -2.0743   0.9175   0.00    0.0
2085 302638.000   48.780713098    9.171592236   323.2501   5   8   2.6977   2.3897   4.7203  -0.6694  -2.0742   0.9176   0.00    0.0
2085 302639.000   48.780713540    9.171589596   323.4765   5   8   2.6977   2.3897   4.7202  -0.6695  -2.0741   0.9177   0.00    0.0
2085 302640.000   48.780712893    9.171589481   323.5090   5   8   2.6976   2.3898   4.7200  -0.6696  -2.0740   0.9178   0.00    0.0
2085 302641.000   48.780713571    9.171588489   323.5818   5   8   2.6976   2.3899   4.7198  -0.6697  -2.0739   0.9179   0.00    0.0
2085 302642.000   48.780713688    9.171589722   323.7041   5   8   2.6975   2.3899   4.7197  -0.6698  -2.0739   0.9180   0.00    0.0
2085 302643.000   48.780713715    9.171589096   323.8134   5   8   2.6975   2.3900   4.7195  -0.6700  -2.0738   0.9181   0.00    0.0
2085 302644.000   48.780713413    9.171590960   323.6507   5   8   2.6975   2.3900   4.7194  -0.6701  -2.0737   0.9182   0.00    0.0
2085 302645.000   48.780713983    9.171592564   323.7357   5   8   2.6974   2.3901   4.7192  -0.6702  -2.0736   0.9183   0.00    0.0
2085 302646.000   48.780712617    9.171593981   323.8163   5   8   2.6974   2.3902   4.7190  -0.6703  -2.0735   0.9184   0.00    0.0
2085 302647.000   48.780714131    9.171591489   323.8729   5   8   2.6973   2.3902   4.7189  -0.6704  -2.0734   0.9185   0.00    0.0
2085 302648.000   48.780712747    9.171591349   323.9260   5   8   2.6973   2.3903   4.7187  -0.6705  -2.0733   0.9186   0.00    0.0
2085 302649.000   48.780713324    9.171592403   323.4753   5   8   2.6973   2.3904   4.7185  -0.6706  -2.0732   0.9188   0.00    0.0
2085 302650.000   48.780714450    9.171589245   323.6881   5   8   2.6972   2.3904   4.7184  -0.6707  -2.0731   0.9189   0.00    0.0
2085 302651.000   48.780713337    9.171591259   323.4357   5   8   2.6972   2.3905   4.7182  -0.6708  -2.0730   0.9190   0.00    0.0
2085 302652.000   48.780713500    9.171590508   323.7097   5   8   2.6972   2.3905   4.7180  -0.6710  -2.0730   0.9191   0.00    0.0
2085 302653.000   48.780714215    9.171588030   323.5805   5   8   2.6971   2.3906   4.7179  -0.6711  -2.0729   0.9192   0.00    0.0
2085 302654.000   48.780713698    9.171587181   323.4907   5   8   2.6971   2.3907   4.7177  -0.6712  -2.0728   0.9193   0.00    0.0
2085 302655.000   48.780714773    9.171587873   323.6513   5   8   2.6970   2.3907   4.7175  -0.6713  -2.0727   0.9194   0.00    0.0
2085 302656.000   48.780715387    9.171588231   323.8611   5   8   2.6970   2.3908   4.7174  -0.6714  -2.0726   0.9195   0.00    0.0
2085 302657.000   48.780715520    9.171589005   323.7171   5   8   2.6970   2.3908   4.7172  -0.6715  -2.0725   0.9196   0.00    0.0
2085 302658.000   48.780715901    9.171587798   323.9578   5   8   2.6969   2.3909   4.7170  -0.6716  -2.0724   0.9197   0.00    0.0
2085 302659.000   48.780713974    9.171586290   323.8701   5   8   2.6969   2.3910   4.7169  -0.6717  -2.0723   0.9198   0.00    0.0
2085 302660.000   48.780716842    9.171587377   323.7869   5   8   2.6968   2.3910   4.7167  -0.6718  -2.0722   0.9199   0.00    0.0
2085 302661.000   48.780714142    9.171585439   323.7556   5   8   2.6968   2.3911   4.7166  -0.6719  -2.0721   0.9200   0.00    0.0
2085 302662.000   48.780712325    9.171587818   323.4345   5   8   2.6968   2.3912   4.7164  -0.6720  -2.0721   0.9201   0.00    0.0
2085 302663.000   48.780712822    9.171587757   323.6599   5   8   2.6967   2.3912   4.7162  -0.6722  -2.0720   0.9202   0.00    0.0
2085 302664.000   48.780711059    9.171588582   323.4632   5   8   2.6967   2.3913   4.7161  -0.6723  -2.0719   0.9203   0.00    0.0
2085 302665.000   48.780713710    9.171589035   323.8067   5   8   2.6967   2.3913   4.7159  -0.6724  -2.0718   0.9204   0.00    0.0
2085 302666.000   48.780712410    9.171591490   323.6722   5   8   2.6966   2.3914   4.7157  -0.6725  -2.0717   0.9205   0.00    0.0
2085 302667.000   48.780713484    9.171591892   323.4824   5   8   2.6966   2.3915   4.7156  -0.6726  -2.0716   0.9206   0.00    0.0
2085 302668.000   48.780712771    9.171587644   323.4943   5   8   2.6965   2.3915   4.7154  -0.6727  -2.0715   0.9207   0.00    0.0
2085 302669.000   48.780712177    9.171588757   323.4731   5   8   2.6965   2.3916   4.7152  -0.6728  -2.0714   0.9208   0.00    0.0
2085 302670.000   48.780712533    9.171589105   323.4783   5   8   2.6965   2.3917   4.7151  -0.6729  -2.0713   0.9209   0.00    0.0
2085 302671.000   48.780713511    9.171588610   323.9837   5   8   2.6964   2.3917   4.7149  -0.6730  -2.0712   0.9210   0.00    0.0
2085 302672.000   48.780712477    9.171588214   323.8626   5   8   2.6964   2.3918   4.7147  -0.6731  -2.0712   0.9211   0.00    0.0
2085 302673.000   48.780710686    9.171587408   323.4648   5   8   2.6964   2.3918   4.7146  -0.6732  -2.0711   0.9213   0.00    0.0
2085 302674.000   48.780710009    9.171590541   323.8855   5   8   2.6963   2.3919   4.7144  -0.6733  -2.0710   0.9214   0.00    0.0
2085 302675.000   48.780711282    9.171590391   323.8543   5   8   2.6963   2.3920   4.7143  -0.6734  -2.0709   0.9215   0.00    0.0
2085 302676.000   48.780710770    9.171592117   324.0711   5   8   2.6963   2.3920   4.7141  -0.6735  -2.0708   0.9216   0.00    0.0
2085 302677.000   48.780710864    9.171590886   323.6769   5   8   2.6962   2.3921   4.7139  -0.6737  -2.0707   0.9217   0.00    0.0
2085 302678.000   48.780710966    9.171590587   323.4386   5   8   2.6962   2.3921   4.7138  -0.6738  -2.0706   0.9218   0.00    0.0
2085 302679.000   48.780711395    9.171592761   323.4253   5   8   2.6961   2.3922   4.7136  -0.6739  -2.0705   0.9219   0.00    0.0
2085 302680.000   48.780711086    9.171592352   323.4451   5   8   2.6961   2.3923   4.7134  -0.6740  -2.0704   0.9220   0.00    0.0
2085 302681.000   48.780712332    9.171592981   323.8089   5   8   2.6961   2.3923   4.7133  -0.6741  -2.0703   0.9221   0.00    0.0
2085 302682.000   48.780712444    9.171593266   323.6468   5   8   2.6960   2.3924   4.7131  -0.6742  -2.0702   0.9222   0.00    0.0
2085 302683.000   48.780712812    9.171593159   323.5487   5   8   2.6960   2.3925   4.7129  -0.6743  -2.0702   0.9223   0.00    0.0
2085 302684.000   48.780713192    9.171596807   323.6438   5   8   2.6960   2.3925   4.7128  -0.6744  -2.0701   0.9224   0.00    0.0
2085 302685.000   48.780713816    9.171595855   323.8166   5   8   2.6959   2.3926   4.7126  -0.6745  -2.0700   0.9225   0.00    0.0
2085 302686.000   48.780711513    9.171593910   323.7794   5   8   2.6959   2.3926   4.7125  -0.6746  -2.0699   0.9226   0.00    0.0
2085 302687.000   48.780712718    9.171595607   323.3025   5   8   2.6959   2.3927   4.7123  -0.6747  -2.0698   0.9227   0.00    0.0
2085 302688.000   48.780713185    9.171596753   323.6801   5   8   2.6958   2.3928   4.7121  -0.6748  -2.0697   0.9228   0.00    0.0
2085 302689.000   48.780713424    9.171595923   323.6629   5   8   2.6958   2.3928   4.7120  -0.6749  -2.0696   0.9229   0.00    0.0
2085 302690.000   48.780712156    9.171594346   323.4567   5   8   2.6957   2.3929   4.7118  -0.6750  -2.0695   0.9230   0.00    0.0
2085 302691.000   48.780710738    9.171594802   323.2957   5   8   2.6957   2.3930   4.7116  -0.6751  -2.0694   0.9231   0.00    0.0
2085 302692.000   48.780713150    9.171593690   323.7563   5   8   2.6957   2.3930   4.7115  -0.6752  -2.0693   0.9232   0.00    0.0
2085 302693.000   48.780712670    9.171593572   323.3894   5   8   2.6956   2.3931   4.7113  -0.6753  -2.0692   0.9233   0.00    0.0
2085 302694.000   48.780710113    9.171594178   323.5407   5   8   2.6956   2.3931   4.7112  -0.6754  -2.0691   0.9234   0.00    0.0
2085 302695.000   48.780711344    9.171592824   323.7589   5   8   2.6956   2.3932   4.7110  -0.6755  -2.0691   0.9234   0.00    0.0
2085 302696.000   48.780712734    9.171593430   323.7911   5   8   2.6955   2.3933   4.7108  -0.6756  -2.0690   0.9235   0.00    0.0
2085 302697.000   48.780713713    9.171594858   323.8111   5   8   2.6955   2.3933   4.7107  -0.6758  -2.0689   0.9236   0.00    0.0
2085 302698.000   48.780714519    9.171593298   323.5398   5   8   2.6955   2.3934   4.7105  -0.6759  -2.0688   0.9237   0.00    0.0
2085 302699.000   48.780713370    9.171592153   323.3951   5   8   2.6954   2.3935   4.7103  -0.6760  -2.0687   0.9238   0.00    0.0
2085 302700.000   48.780714293    9.171593685   323.2251   5   8   2.6954   2.3935   4.7102  -0.6761  -2.0686   0.9239   0.00    0.0
2085 302701.000   48.780712521    9.171593541   323.6528   5   8   2.6954   2.3936   4.7100  -0.6762  -2.0685   0.9240   0.00    0.0
2085 302702.000   48.780712684    9.171592926   323.2345   5   8   2.6953   2.3936   4.7099  -0.6763  -2.0684   0.9241   0.00    0.0
2085 302703.000   48.780713032    9.171593647   323.2675   5   8   2.6953   2.3937   4.7097  -0.6764  -2.0683   0.9242   0.00    0.0
2085 302704.000   48.780713468    9.171593695   323.6890   5   8   2.6953   2.3938   4.7095  -0.6765  -2.0682   0.9243   0.00    0.0
2085 302705.000   48.780714582    9.171592885   323.5396   5   8   2.6952   2.3938   4.7094  -0.6766  -2.0681   0.9244   0.00    0.0
2085 302706.000   48.780713593    9.171591495   323.2173   5   8   2.6952   2.3939   4.7092  -0.6767  -2.0680   0.9245   0.00    0.0
2085 302707.000   48.780713315    9.171590304   323.3151   5   8   2.6951   2.3940   4.7090  -0.6768  -2.0680   0.9246   0.00    0.0
2085 302708.000   48.780713817    9.171590242   323.1197   5   8   2.6951   2.3940   4.7089  -0.6769  -2.0679   0.9247   0.00    0.0
2085 302709.000   48.780714945    9.171590285   323.3214   5   8   2.6951   2.3941   4.7087  -0.6770  -2.0678   0.9248   0.00    0.0
2085 302710.000   48.780715451    9.171589371   323.3936   5   8   2.6950   2.3941   4.7086  -0.6771  -2.0677   0.9249   0.00    0.0
2085 302711.000   48.780715889    9.171590339   323.7283   5   8   2.6950   2.3942   4.7084  -0.6772  -2.0676   0.9250   0.00    0.0
2085 302712.000   48.780715484    9.171591381   323.8047   5   8   2.6950   2.3943   4.7082  -0.6773  -2.0675   0.9251   0.00    0.0
2085 302713.000   48.780715603    9.171591798   323.8996   5   8   2.6949   2.3943   4.7081  -0.6774  -2.0674   0.9252   0.00    0.0
2085 302714.000   48.780714513    9.171593890   323.8624   5   8   2.6949   2.3944   4.7079  -0.6775  -2.0673   0.9253   0.00    0.0
2085 302715.000   48.780714006    9.171591949   323.3565   5   8   2.6949   2.3945   4.7078  -0.6776  -2.0672   0.9254   0.00    0.0
2085 302716.000   48.780713597    9.171591764   323.4797   5   8   2.6948   2.3945   4.7076  -0.6777  -2.0671   0.9255   0.00    0.0
2085 302717.000   48.780713487    9.171593501   323.3893   5   8   2.6948   2.3946   4.7074  -0.6778  -2.0670   0.9256   0.00    0.0
2085 302718.000   48.780712662    9.171592528   323.5860   5   8   2.6948   2.3946   4.7073  -0.6779  -2.0669   0.9256   0.00    0.0
2085 302719.000   48.780710931    9.171592188   323.3342   5   8   2.6947   2.3947   4.7071  -0.6780  -2.0668   0.9257   0.00    0.0
2085 302720.000   48.780712242    9.171591035   323.3904   5   8   2.6947   2.3948   4.7069  -0.6781  -2.0667   0.9258   0.00    0.0
2085 302721.000   48.780713131    9.171591724   323.4940   5   8   2.6947   2.3948   4.7068  -0.6782  -2.0667   0.9259   0.00    0.0
2085 302722.000   48.780712614    9.171591769   323.5568   5   8   2.6946   2.3949   4.7066  -0.6783  -2.0666   0.9260   0.00    0.0
2085 302723.000   48.780712784    9.171592059   323.6940   5   8   2.6946   2.3950   4.7065  -0.6784  -2.0665   0.9261   0.00    0.0
2085 302724.000   48.780714282    9.171591769   323.6911   5   8   2.6946   2.3950   4.7063  -0.6785  -2.0664   0.9262   0.00    0.0
2085 302725.000   48.780712759    9.171590430   323.7771   5   8   2.6945   2.3951   4.7061  -0.6786  -2.0663   0.9263   0.00    0.0
2085 302726.000   48.780712357    9.171593017   323.9271   5   8   2.6945   2.3951   4.7060  -0.6787  -2.0662   0.9264   0.00    0.0
2085 302727.000   48.780714124    9.171593238   323.7615   5   8   2.6945   2.3952   4.7058  -0.6788  -2.0661   0.9265   0.00    0.0
2085 302728.000   48.780713414    9.171591629   324.1225   5   8   2.6944   2.3953   4.7057  -0.6789  -2.0660   0.9266   0.00    0.0
2085 302729.000   48.780712633    9.171592508   323.9258   5   8   2.6944   2.3953   4.7055  -0.6790  -2.0659   0.9267   0.00    0.0
2085 302730.000   48.780712771    9.171593335   323.9402   5   8   2.6944   2.3954   4.7053  -0.6791  -2.0658   0.9268   0.00    0.0
2085 302731.000   48.780713572    9.171595203   323.8771   5   8   2.6943   2.3955   4.7052  -0.6792  -2.0657   0.9268   0.00    0.0
2085 302732.000   48.780713193    9.171598347   323.7771   5   8   2.6943   2.3955   4.7050  -0.6793  -2.0656   0.9269   0.00    0.0
2085 302733.000   48.780714144    9.171596596   323.9621   5   8   2.6943   2.3956   4.7049  -0.6794  -2.0655   0.9270   0.00    0.0
2085 302734.000   48.780714616    9.171594460   323.6913   5   8   2.6942   2.3957   4.7047  -0.6795  -2.0654   0.9271   0.00    0.0
2085 302735.000   48.780713850    9.171595660   323.5975   5   8   2.6942   2.3957   4.7045  -0.6796  -2.0654   0.9272   0.00    0.0
2085 302736.000   48.780713028    9.171596125   323.4177   5   8   2.6942   2.3958   4.7044  -0.6797  -2.0653   0.9273   0.00    0.0
2085 302737.000   48.780712400    9.171590830   323.6657   5   8   2.6941   2.3958   4.7042  -0.6798  -2.0652   0.9274   0.00    0.0
2085 302738.000   48.780712295    9.171591360   323.5014   5   8   2.6941   2.3959   4.7041  -0.6799  -2.0651   0.9275   0.00    0.0
2085 302739.000   48.780712331    9.171591658   323.3208   5   8   2.6941   2.3960   4.7039  -0.6800  -2.0650   0.9276   0.00    0.0
2085 302740.000   48.780712065    9.171593306   323.6081   5   8   2.6940   2.3960   4.7037  -0.6801  -2.0649   0.9277   0.00    0.0
2085 302741.000   48.780713098    9.171593270   323.4567   5   8   2.6940   2.3961   4.7036  -0.6802  -2.0648   0.9277   0.00    0.0
2085 302742.000   48.780713644    9.171593020   323.8184   5   8   2.6940   2.3962   4.7034  -0.6803  -2.0647   0.9278   0.00    0.0
2085 302743.000   48.780714475    9.171591644   323.7714   5   8   2.6939   2.3962   4.7033  -0.6804  -2.0646   0.9279   0.00    0.0
2085 302744.000   48.780715381    9.171590821   324.2306   5   8   2.6939   2.3963   4.7031  -0.6805  -2.0645   0.9280   0.00    0.0
2085 302745.000   48.780714428    9.171592745   323.9113   5   8   2.6939   2.3963   4.7029  -0.6806  -2.0644   0.9281   0.00    0.0
2085 302746.000   48.780713519    9.171595041   324.1142   5   8   2.6938   2.3964   4.7028  -0.6807  -2.0643   0.9282   0.00    0.0
2085 302747.000   48.780713443    9.171595770   323.9062   5   8   2.6938   2.3965   4.7026  -0.6808  -2.0642   0.9283   0.00    0.0
2085 302748.000   48.780714220    9.171594562   323.6378   5   8   2.6938   2.3965   4.7025  -0.6808  -2.0641   0.9284   0.00    0.0
2085 302749.000   48.780715808    9.171594831   323.7460   5   8   2.6938   2.3966   4.7023  -0.6809  -2.0640   0.9284   0.00    0.0
2085 302750.000   48.780715282    9.171595142   323.6956   5   8   2.6937   2.3967   4.7021  -0.6810  -2.0639   0.9285   0.00    0.0
2085 302751.000   48.780713918    9.171592863   323.7362   5   8   2.6937   2.3967   4.7020  -0.6811  -2.0639   0.9286   0.00    0.0
2085 302752.000   48.780715171    9.171592455   323.6182   5   8   2.6937   2.3968   4.7018  -0.6812  -2.0638   0.9287   0.00    0.0
2085 302753.000   48.780714588    9.171592747   323.5072   5   8   2.6936   2.3969   4.7017  -0.6813  -2.0637   0.9288   0.00    0.0
2085 302754.000   48.780714173    9.171593229   323.4422   5   8   2.6936   2.3969   4.7015  -0.6814  -2.0636   0.9289   0.00    0.0
2085 302755.000   48.780715109    9.171593410   323.6211   5   8   2.6936   2.3970   4.7013  -0.6815  -2.0635   0.9290   0.00    0.0
2085 302756.000   48.780716028    9.171594845   323.3829   5   8   2.6935   2.3970   4.7012  -0.6816  -2.0634   0.9290   0.00    0.0
2085 302757.000   48.780715595    9.171595031   323.5451   5   8   2.6935   2.3971   4.7010  -0.6817  -2.0633   0.9291   0.00    0.0
2085 302758.000   48.780714621    9.171594699   323.4953   5   8   2.6935   2.3972   4.7009  -0.6818  -2.0632   0.9292   0.00    0.0
2085 302759.000   48.780715795    9.171595042   323.2911   5   8   2.6934   2.3972   4.7007  -0.6819  -2.0631   0.9293   0.00    0.0
2085 302760.000   48.780715429    9.171594600   323.2906   5   8   2.6934   2.3973   4.7005  -0.6820  -2.0630   0.9294   0.00    0.0
2085 302761.000   48.780714996    9.171592605   323.8046   5   8   2.6934   2.3974   4.7004  -0.6821  -2.0629   0.9295   0.00    0.0
2085 302762.000   48.780715215    9.171591960   323.5616   5   8   2.6933   2.3974   4.7002  -0.6822  -2.0628   0.9296   0.00    0.0
2085 302763.000   48.780715244    9.171591949   323.5571   5   8   2.6933   2.3975   4.7001  -0.6823  -2.0627   0.9296   0.00    0.0
2085 302764.000   48.780714270    9.171594819   323.4830   5   8   2.6933   2.3975   4.6999  -0.6824  -2.0626   0.9297   0.00    0.0
2085 302765.000   48.780715428    9.171593716   323.4320   5   8   2.6933   2.3976   4.6998  -0.6825  -2.0625   0.9298   0.00    0.0
2085 302766.000   48.780715041    9.171593475   323.4011   5   8   2.6932   2.3977   4.6996  -0.6826  -2.0624   0.9299   0.00    0.0
2085 302767.000   48.780713976    9.171595143   323.4511   5   8   2.6932   2.3977   4.6994  -0.6827  -2.0623   0.9300   0.00    0.0
2085 302768.000   48.780713955    9.171596908   323.4976   5   8   2.6932   2.3978   4.6993  -0.6827  -2.0623   0.9301   0.00    0.0
2085 302769.000   48.780713587    9.171597473   323.5281   5   8   2.6931   2.3979   4.6991  -0.6828  -2.0622   0.9301   0.00    0.0
2085 302770.000   48.780714079    9.171592857   323.6282   5   8   2.6931   2.3979   4.6990  -0.6829  -2.0621   0.9302   0.00    0.0
2085 302771.000   48.780713913    9.171594607   323.6220   5   8   2.6931   2.3980   4.6988  -0.6830  -2.0620   0.9303   0.00    0.0
2085 302772.000   48.780714054    9.171593454   323.6819   5   8   2.6930   2.3981   4.6986  -0.6831  -2.0619   0.9304   0.00    0.0
2085 302773.000   48.780712314    9.171593729   323.6032   5   8   2.6930   2.3981   4.6985  -0.6832  -2.0618   0.9305   0.00    0.0
2085 302774.000   48.780714056    9.171595812   323.4789   5   8   2.6930   2.3982   4.6983  -0.6833  -2.0617   0.9305   0.00    0.0
2085 302775.000   48.780713540    9.171595817   323.2668   5   8   2.6930   2.3982   4.6982  -0.6834  -2.0616   0.9306   0.00    0.0
2085 302776.000   48.780712860    9.171593509   323.5038   5   8   2.6929   2.3983   4.6980  -0.6835  -2.0615   0.9307   0.00    0.0
2085 302777.000   48.780713434    9.171592671   323.4500   5   8   2.6929   2.3984   4.6979  -0.6836  -2.0614   0.9308   0.00    0.0
2085 302778.000   48.780713693    9.171594935   323.1744   5   8   2.6929   2.3984   4.6977  -0.6837  -2.0613   0.9309   0.00    0.0
2085 302779.000   48.780712489    9.171594744   323.2237   5   8   2.6928   2.3985   4.6975  -0.6838  -2.0612   0.9310   0.00    0.0
2085 302780.000   48.780714107    9.171593260   323.2921   5   8   2.6928   2.3986   4.6974  -0.6839  -2.0611   0.9310   0.00    0.0
2085 302781.000   48.780713584    9.171592352   323.1841   5   8   2.6928   2.3986   4.6972  -0.6839  -2.0610   0.9311   0.00    0.0
2085 302782.000   48.780712940    9.171592075   323.2798   5   8   2.6927   2.3987   4.6971  -0.6840  -2.0609   0.9312   0.00    0.0
2085 302783.000   48.780713474    9.171591829   323.3508   5   8   2.6927   2.3988   4.6969  -0.6841  -2.0608   0.9313   0.00    0.0
2085 302784.000   48.780713359    9.171593242   322.9675   5   8   2.6927   2.3988   4.6968  -0.6842  -2.0607   0.9314   0.00    0.0
2085 302785.000   48.780713983    9.171594477   323.0230   5   8   2.6927   2.3989   4.6966  -0.6843  -2.0606   0.9314   0.00    0.0
2085 302786.000   48.780713419    9.171596578   323.1831   5   8   2.6926   2.3990   4.6964  -0.6844  -2.0605   0.9315   0.00    0.0
2085 302787.000   48.780714686    9.171598019   323.1563   5   8   2.6926   2.3990   4.6963  -0.6845  -2.0604   0.9316   0.00    0.0
2085 302788.000   48.780714356    9.171598387   323.0376   5   8   2.6926   2.3991   4.6961  -0.6846  -2.0604   0.9317   0.00    0.0
2085 302789.000   48.780714420    9.171599080   323.0946   5   8   2.6925   2.3991   4.6960  -0.6847  -2.0603   0.9317   0.00    0.0
2085 302790.000   48.780713801    9.171598451   323.1104   5   8   2.6925   2.3992   4.6958  -0.6848  -2.0602   0.9318   0.00    0.0
2085 302791.000   48.780714216    9.171598769   323.0689   5   8   2.6925   2.3993   4.6957  -0.6849  -2.0601   0.9319   0.00    0.0
2085 302792.000   48.780714357    9.171596711   323.1538   5   8   2.6925   2.3993   4.6955  -0.6849  -2.0600   0.9320   0.00    0.0
2085 302793.000   48.780712098    9.171595963   323.0033   5   8   2.6924   2.3994   4.6953  -0.6850  -2.0599   0.9321   0.00    0.0
2085 302794.000   48.780712631    9.171595337   323.2108   5   8   2.6924   2.3995   4.6952  -0.6851  -2.0598   0.9321   0.00    0.0
2085 302795.000   48.780713430    9.171596073   323.1709   5   8   2.6924   2.3995   4.6950  -0.6852  -2.0597   0.9322   0.00    0.0
2085 302796.000   48.780712610    9.171595171   323.3061   5   8   2.6923   2.3996   4.6949  -0.6853  -2.0596   0.9323   0.00    0.0
2085 302797.000   48.780713817    9.171595624   323.2463   5   8   2.6923   2.3997   4.6947  -0.6854  -2.0595   0.9324   0.00    0.0
2085 302798.000   48.780714659    9.171596177   323.1643   5   8   2.6923   2.3997   4.6946  -0.6855  -2.0594   0.9324   0.00    0.0
2085 302799.000   48.780716460    9.171595077   323.3556   5   8   2.6923   2.3998   4.6944  -0.6856  -2.0593   0.9325   0.00    0.0
2085 302800.000   48.780714297    9.171595877   323.4838   5   8   2.6922   2.3998   4.6942  -0.6857  -2.0592   0.9326   0.00    0.0
2085 302801.000   48.780714234    9.171593531   323.3961   5   8   2.6922   2.3999   4.6941  -0.6858  -2.0591   0.9327   0.00    0.0
2085 302802.000   48.780712334    9.171594718   323.5203   5   8   2.6922   2.4000   4.6939  -0.6858  -2.0590   0.9327   0.00    0.0
2085 302803.000   48.780714055    9.171592283   323.3721   5   8   2.6921   2.4000   4.6938  -0.6859  -2.0589   0.9328   0.00    0.0
2085 302804.000   48.780714462    9.171594322   323.5530   5   8   2.6921   2.4001   4.6936  -0.6860  -2.0588   0.9329   0.00    0.0
2085 302805.000   48.780715331    9.171593247   323.7307   5   8   2.6921   2.4002   4.6935  -0.6861  -2.0587   0.9330   0.00    0.0
2085 302806.000   48.780714574    9.171593354   323.6960   5   8   2.6921   2.4002   4.6933  -0.6862  -2.0586   0.9330   0.00    0.0
2085 302807.000   48.780713803    9.171596083   323.5666   5   8   2.6920   2.4003   4.6932  -0.6863  -2.0585   0.9331   0.00    0.0
2085 302808.000   48.780714544    9.171596385   323.6813   5   8   2.6920   2.4004   4.6930  -0.6864  -2.0584   0.9332   0.00    0.0
2085 302809.000   48.780714034    9.171597272   323.7637   5   8   2.6920   2.4004   4.6928  -0.6865  -2.0583   0.9333   0.00    0.0
2085 302810.000   48.780714286    9.171599558   323.8302   5   8   2.6919   2.4005   4.6927  -0.6865  -2.0582   0.9333   0.00    0.0
2085 302811.000   48.780713919    9.171596401   323.5904   5   8   2.6919   2.4006   4.6925  -0.6866  -2.0581   0.9334   0.00    0.0
2085 302812.000   48.780714658    9.171597145   323.6094   5   8   2.6919   2.4006   4.6924  -0.6867  -2.0581   0.9335   0.00    0.0
2085 302813.000   48.780713697    9.171595930   323.6012   5   8   2.6919   2.4007   4.6922  -0.6868  -2.0580   0.9336   0.00    0.0
2085 302814.000   48.780714230    9.171596757   323.2795   5   8   2.6918   2.4007   4.6921  -0.6869  -2.0579   0.9336   0.00    0.0
2085 302815.000   48.780712643    9.171598808   323.3600   5   8   2.6918   2.4008   4.6919  -0.6870  -2.0578   0.9337   0.00    0.0
2085 302816.000   48.780714200    9.171598270   323.4523   5   8   2.6918   2.4009   4.6918  -0.6871  -2.0577   0.9338   0.00    0.0
2085 302817.000   48.780714643    9.171597451   323.4228   5   8   2.6918   2.4009   4.6916  -0.6871  -2.0576   0.9339   0.00    0.0
2085 302818.000   48.780714154    9.171599116   323.3050   5   8   2.6917   2.4010   4.6914  -0.6872  -2.0575   0.9339   0.00    0.0
2085 302819.000   48.780712823    9.171598236   323.4366   5   8   2.6917   2.4011   4.6913  -0.6873  -2.0574   0.9340   0.00    0.0
2085 302820.000   48.780712008    9.171599024   323.4542   5   8   2.6917   2.4011   4.6911  -0.6874  -2.0573   0.9341   0.00    0.0
2085 302821.000   48.780712548    9.171595443   323.2210   5   8   2.6916   2.4012   4.6910  -0.6875  -2.0572   0.9341   0.00    0.0
2085 302822.000   48.780711966    9.171595034   323.3848   5   8   2.6916   2.4013   4.6908  -0.6876  -2.0571   0.9342   0.00    0.0
2085 302823.000   48.780711670    9.171596978   323.1685   5   8   2.6916   2.4013   4.6907  -0.6877  -2.0570   0.9343   0.00    0.0
2085 302824.000   48.780711573    9.171596891   323.0139   5   8   2.6916   2.4014   4.6905  -0.6877  -2.0569   0.9344   0.00    0.0
2085 302825.000   48.780713615    9.171595435   322.9504   5   8   2.6915   2.4015   4.6904  -0.6878  -2.0568   0.9344   0.00    0.0
2085 302826.000   48.780713230    9.171593395   323.2738   5   8   2.6915   2.4015   4.6902  -0.6879  -2.0567   0.9345   0.00    0.0
2085 302827.000   48.780712164    9.171593789   322.9787   5   8   2.6915   2.4016   4.6901  -0.6880  -2.0566   0.9346   0.00    0.0
2085 302828.000   48.780712099    9.171593608   323.1645   5   8   2.6915   2.4016   4.6899  -0.6881  -2.0565   0.9346   0.00    0.0
2085 302829.000   48.780712907    9.171591417   323.0825   5   8   2.6914   2.4017   4.6897  -0.6882  -2.0564   0.9347   0.00    0.0
2085 302830.000   48.780712931    9.171590835   323.0673   5   8   2.6914   2.4018   4.6896  -0.6883  -2.0563   0.9348   0.00    0.0
2085 302831.000   48.780712180    9.171590142   322.7198   5   8   2.6914   2.4018   4.6894  -0.6883  -2.0562   0.9348   0.00    0.0
2085 302832.000   48.780711902    9.171590384   322.6720   5   8   2.6914   2.4019   4.6893  -0.6884  -2.0561   0.9349   0.00    0.0
2085 302833.000   48.780712041    9.171589501   322.9141   5   8   2.6913   2.4020   4.6891  -0.6885  -2.0560   0.9350   0.00    0.0
2085 302834.000   48.780711676    9.171590200   322.9714   5   8   2.6913   2.4020   4.6890  -0.6886  -2.0559   0.9350   0.00    0.0
2085 302835.000   48.780712920    9.171592916   322.9765   5   8   2.6913   2.4021   4.6888  -0.6887  -2.0558   0.9351   0.00    0.0
2085 302836.000   48.780713827    9.171593886   322.9069   5   8   2.6913   2.4022   4.6887  -0.6888  -2.0557   0.9352   0.00    0.0
2085 302837.000   48.780711635    9.171595593   323.1658   5   8   2.6912   2.4022   4.6885  -0.6888  -2.0556   0.9353   0.00    0.0
2085 302838.000   48.780713019    9.171594782   323.3382   5   8   2.6912   2.4023   4.6884  -0.6889  -2.0555   0.9353   0.00    0.0
2085 302839.000   48.780713564    9.171593223   323.0789   5   8   2.6912   2.4024   4.6882  -0.6890  -2.0554   0.9354   0.00    0.0
2085 302840.000   48.780713439    9.171597050   322.8989   5   8   2.6911   2.4024   4.6881  -0.6891  -2.0553   0.9355   0.00    0.0
2085 302841.000   48.780714056    9.171595569   322.9322   5   8   2.6911   2.4025   4.6879  -0.6892  -2.0552   0.9355   0.00    0.0
2085 302842.000   48.780713279    9.171594619   322.6551   5   8   2.6911   2.4026   4.6878  -0.6893  -2.0551   0.9356   0.00    0.0
2085 302843.000   48.780714737    9.171594353   323.0231   5   8   2.6911   2.4026   4.6876  -0.6893  -2.0551   0.9357   0.00    0.0
2085 302844.000   48.780714116    9.171596334   322.6130   5   8   2.6910   2.4027   4.6874  -0.6894  -2.0550   0.9357   0.00    0.0
