% program   : RTKPOST ver.2.4.3 b33
% inp file  : E:\Study\master\semester 3\Satellite Navigation\lab5\data_sets\110902_092045.obs
% inp file  : E:\Study\master\semester 3\Satellite Navigation\lab5\data_sets\INSA245gA.NAV
% obs start : 2011/09/02 09:21:01.0 GPST (week1651 465661.0s)
% obs end   : 2011/09/02 10:27:55.5 GPST (week1651 469675.5s)
% pos mode  : single
% elev mask : 5.0 deg
% ionos opt : broadcast
% tropo opt : saastamoinen
% ephemeris : broadcast
%
% (x/y/z-ecef=WGS84,Q=1:fix,2:float,3:sbas,4:dgps,5:single,6:ppp,ns=# of satellites)
%  GPST              x-ecef(m)      y-ecef(m)      z-ecef(m)   Q  ns   sdx(m)   sdy(m)   sdz(m)  sdxy(m)  sdyz(m)  sdzx(m) age(s)  ratio
1651 465661.000   4160213.5612    652805.9005   4774909.1143   5   9   3.8097   2.2664   4.1509   0.7516  -0.6976   2.2560   0.00    0.0
1651 465661.500   4160213.5613    652805.8993   4774909.1101   5   9   3.8098   2.2664   4.1510   0.7518  -0.6974   2.2559   0.00    0.0
1651 465662.000   4160213.1999    652806.4182   4774907.7518   5  10   3.7801   2.1627   3.7498   0.9420   0.8489   2.0598   0.00    0.0
1651 465662.500   4160213.2173    652806.3919   4774907.8197   5  10   3.7802   2.1626   3.7499   0.9421   0.8491   2.0597   0.00    0.0
1651 465663.000   4160213.2460    652806.3482   4774907.9435   5  10   3.7803   2.1626   3.7499   0.9423   0.8492   2.0595   0.00    0.0
1651 465663.500   4160213.2399    652806.3457   4774907.9322   5  10   3.7804   2.1626   3.7500   0.9424   0.8494   2.0594   0.00    0.0
1651 465664.000   4160213.2195    652806.3736   4774907.8701   5  10   3.7805   2.1626   3.7500   0.9425   0.8496   2.0593   0.00    0.0
1651 465664.500   4160213.2295    652806.3501   4774907.9213   5  10   3.7805   2.1626   3.7501   0.9426   0.8498   2.0592   0.00    0.0
1651 465665.000   4160213.2473    652806.3279   4774907.9818   5  10   3.7806   2.1626   3.7501   0.9427   0.8499   2.0591   0.00    0.0
1651 465665.500   4160213.2433    652806.3364   4774907.9720   5  10   3.7807   2.1626   3.7502   0.9429   0.8501   2.0590   0.00    0.0
1651 465666.000   4160213.2445    652806.3220   4774907.9985   5  10   3.7808   2.1626   3.7502   0.9430   0.8503   2.0589   0.00    0.0
1651 465666.500   4160213.2396    652806.3208   4774908.0014   5  10   3.7809   2.1626   3.7503   0.9431   0.8505   2.0588   0.00    0.0
1651 465667.000   4160213.2593    652806.3011   4774908.0588   5  10   3.7809   2.1625   3.7503   0.9432   0.8507   2.0586   0.00    0.0
1651 465667.500   4160213.2533    652806.3017   4774908.0454   5  10   3.7810   2.1625   3.7504   0.9433   0.8508   2.0585   0.00    0.0
1651 465668.000   4160213.2482    652806.3007   4774908.0557   5  10   3.7811   2.1625   3.7505   0.9434   0.8510   2.0584   0.00    0.0
1651 465668.500   4160213.2402    652806.3144   4774908.0152   5  10   3.7812   2.1625   3.7505   0.9436   0.8512   2.0583   0.00    0.0
1651 465669.000   4160213.2362    652806.3209   4774907.9906   5  10   3.7813   2.1625   3.7506   0.9437   0.8514   2.0582   0.00    0.0
1651 465669.500   4160213.2211    652806.3410   4774907.9452   5  10   3.7813   2.1625   3.7506   0.9438   0.8515   2.0581   0.00    0.0
1651 465670.000   4160213.2058    652806.3608   4774907.9025   5  10   3.7814   2.1625   3.7507   0.9439   0.8517   2.0580   0.00    0.0
1651 465670.500   4160213.1916    652806.3692   4774907.8759   5  10   3.7815   2.1625   3.7507   0.9440   0.8519   2.0579   0.00    0.0
1651 465671.000   4160213.1982    652806.3695   4774907.8887   5  10   3.7816   2.1624   3.7508   0.9442   0.8521   2.0577   0.00    0.0
1651 465671.500   4160213.2026    652806.3621   4774907.8979   5  10   3.7817   2.1624   3.7508   0.9443   0.8523   2.0576   0.00    0.0
1651 465672.000   4160213.2051    652806.3655   4774907.9038   5  10   3.7818   2.1624   3.7509   0.9444   0.8524   2.0575   0.00    0.0
1651 465672.500   4160213.2002    652806.3552   4774907.9138   5  10   3.7818   2.1624   3.7509   0.9445   0.8526   2.0574   0.00    0.0
1651 465673.000   4160213.1996    652806.3696   4774907.8842   5  10   3.7819   2.1624   3.7510   0.9446   0.8528   2.0573   0.00    0.0
1651 465673.500   4160213.1988    652806.3737   4774907.8802   5  10   3.7820   2.1624   3.7510   0.9447   0.8530   2.0572   0.00    0.0
1651 465674.000   4160213.1929    652806.3742   4774907.8601   5  10   3.7821   2.1624   3.7511   0.9449   0.8531   2.0571   0.00    0.0
1651 465674.500   4160213.1905    652806.3768   4774907.8649   5  10   3.7822   2.1624   3.7511   0.9450   0.8533   2.0570   0.00    0.0
1651 465675.000   4160213.1903    652806.3736   4774907.8732   5  10   3.7822   2.1624   3.7512   0.9451   0.8535   2.0568   0.00    0.0
1651 465675.500   4160213.1958    652806.3742   4774907.8749   5  10   3.7823   2.1623   3.7512   0.9452   0.8537   2.0567   0.00    0.0
1651 465676.000   4160213.1899    652806.3727   4774907.8716   5  10   3.7824   2.1623   3.7513   0.9453   0.8538   2.0566   0.00    0.0
1651 465676.500   4160213.1893    652806.3751   4774907.8639   5  10   3.7825   2.1623   3.7514   0.9455   0.8540   2.0565   0.00    0.0
1651 465677.000   4160213.1873    652806.3797   4774907.8517   5  10   3.7826   2.1623   3.7514   0.9456   0.8542   2.0564   0.00    0.0
1651 465677.500   4160213.1816    652806.3744   4774907.8573   5  10   3.7826   2.1623   3.7515   0.9457   0.8544   2.0563   0.00    0.0
1651 465678.000   4160213.1803    652806.3745   4774907.8684   5  10   3.7827   2.1623   3.7515   0.9458   0.8546   2.0562   0.00    0.0
1651 465678.500   4160213.1855    652806.3657   4774907.8798   5  10   3.7828   2.1623   3.7516   0.9459   0.8547   2.0561   0.00    0.0
1651 465679.000   4160213.1807    652806.3593   4774907.8897   5  10   3.7829   2.1623   3.7516   0.9460   0.8549   2.0559   0.00    0.0
1651 465679.500   4160213.1895    652806.3602   4774907.9018   5  10   3.7830   2.1623   3.7517   0.9462   0.8551   2.0558   0.00    0.0
1651 465680.000   4160213.1859    652806.3599   4774907.8958   5  10   3.7830   2.1622   3.7517   0.9463   0.8553   2.0557   0.00    0.0
1651 465680.500   4160213.1876    652806.3625   4774907.9000   5  10   3.7831   2.1622   3.7518   0.9464   0.8554   2.0556   0.00    0.0
1651 465681.000   4160213.1826    652806.3633   4774907.8949   5  10   3.7832   2.1622   3.7518   0.9465   0.8556   2.0555   0.00    0.0
1651 465681.500   4160213.1841    652806.3614   4774907.9056   5  10   3.7833   2.1622   3.7519   0.9466   0.8558   2.0554   0.00    0.0
1651 465682.000   4160213.1795    652806.3557   4774907.9018   5  10   3.7834   2.1622   3.7519   0.9467   0.8560   2.0553   0.00    0.0
1651 465682.500   4160213.1755    652806.3572   4774907.9077   5  10   3.7835   2.1622   3.7520   0.9469   0.8561   2.0552   0.00    0.0
1651 465683.000   4160213.1820    652806.3498   4774907.9080   5  10   3.7835   2.1622   3.7521   0.9470   0.8563   2.0550   0.00    0.0
1651 465683.500   4160213.1870    652806.3542   4774907.9065   5  10   3.7836   2.1622   3.7521   0.9471   0.8565   2.0549   0.00    0.0
1651 465684.000   4160213.1803    652806.3561   4774907.9059   5  10   3.7837   2.1622   3.7522   0.9472   0.8567   2.0548   0.00    0.0
1651 465684.500   4160213.1782    652806.3546   4774907.9023   5  10   3.7838   2.1621   3.7522   0.9473   0.8568   2.0547   0.00    0.0
1651 465685.000   4160213.1843    652806.3557   4774907.9149   5  10   3.7839   2.1621   3.7523   0.9474   0.8570   2.0546   0.00    0.0
1651 465685.500   4160213.1810    652806.3510   4774907.9134   5  10   3.7839   2.1621   3.7523   0.9476   0.8572   2.0545   0.00    0.0
1651 465686.000   4160213.1891    652806.3509   4774907.9237   5  10   3.7840   2.1621   3.7524   0.9477   0.8574   2.0544   0.00    0.0
1651 465686.500   4160213.1959    652806.3526   4774907.9292   5  10   3.7841   2.1621   3.7524   0.9478   0.8575   2.0543   0.00    0.0
1651 465687.000   4160213.1867    652806.3468   4774907.9306   5  10   3.7842   2.1621   3.7525   0.9479   0.8577   2.0541   0.00    0.0
1651 465687.500   4160213.1911    652806.3446   4774907.9519   5  10   3.7843   2.1621   3.7525   0.9480   0.8579   2.0540   0.00    0.0
1651 465688.000   4160213.1840    652806.3392   4774907.9412   5  10   3.7843   2.1621   3.7526   0.9481   0.8581   2.0539   0.00    0.0
1651 465688.500   4160213.1895    652806.3320   4774907.9490   5  10   3.7844   2.1621   3.7526   0.9483   0.8582   2.0538   0.00    0.0
1651 465689.000   4160213.1919    652806.3363   4774907.9646   5  10   3.7845   2.1621   3.7527   0.9484   0.8584   2.0537   0.00    0.0
1651 465689.500   4160213.1908    652806.3304   4774907.9609   5  10   3.7846   2.1620   3.7528   0.9485   0.8586   2.0536   0.00    0.0
1651 465690.000   4160213.1969    652806.3274   4774907.9715   5  10   3.7847   2.1620   3.7528   0.9486   0.8588   2.0535   0.00    0.0
1651 465690.500   4160213.1976    652806.3279   4774907.9747   5  10   3.7847   2.1620   3.7529   0.9487   0.8590   2.0534   0.00    0.0
1651 465691.000   4160213.1925    652806.3249   4774907.9838   5  10   3.7848   2.1620   3.7529   0.9488   0.8591   2.0532   0.00    0.0
1651 465691.500   4160213.1948    652806.3238   4774907.9894   5  10   3.7849   2.1620   3.7530   0.9490   0.8593   2.0531   0.00    0.0
1651 465692.000   4160213.1869    652806.3204   4774907.9897   5  10   3.7850   2.1620   3.7530   0.9491   0.8595   2.0530   0.00    0.0
1651 465692.500   4160213.1890    652806.3226   4774907.9981   5  10   3.7851   2.1620   3.7531   0.9492   0.8597   2.0529   0.00    0.0
1651 465693.000   4160213.1860    652806.3239   4774907.9957   5  10   3.7852   2.1620   3.7531   0.9493   0.8598   2.0528   0.00    0.0
1651 465693.500   4160213.1844    652806.3205   4774907.9996   5  10   3.7852   2.1620   3.7532   0.9494   0.8600   2.0527   0.00    0.0
1651 465694.000   4160213.1826    652806.3214   4774908.0020   5  10   3.7853   2.1619   3.7532   0.9495   0.8602   2.0526   0.00    0.0
1651 465694.500   4160213.1792    652806.3178   4774908.0004   5  10   3.7854   2.1619   3.7533   0.9497   0.8604   2.0525   0.00    0.0
1651 465695.000   4160213.1745    652806.3240   4774907.9905   5  10   3.7855   2.1619   3.7534   0.9498   0.8605   2.0523   0.00    0.0
1651 465695.500   4160213.1717    652806.3184   4774907.9913   5  10   3.7856   2.1619   3.7534   0.9499   0.8607   2.0522   0.00    0.0
1651 465696.000   4160213.1681    652806.3226   4774907.9953   5  10   3.7856   2.1619   3.7535   0.9500   0.8609   2.0521   0.00    0.0
1651 465696.500   4160213.1649    652806.3163   4774908.0051   5  10   3.7857   2.1619   3.7535   0.9501   0.8611   2.0520   0.00    0.0
1651 465697.000   4160213.1686    652806.3231   4774908.0104   5  10   3.7858   2.1619   3.7536   0.9502   0.8612   2.0519   0.00    0.0
1651 465697.500   4160213.1635    652806.3236   4774908.0095   5  10   3.7859   2.1619   3.7536   0.9504   0.8614   2.0518   0.00    0.0
1651 465698.000   4160213.1651    652806.3227   4774908.0124   5  10   3.7860   2.1619   3.7537   0.9505   0.8616   2.0517   0.00    0.0
1651 465698.500   4160213.1676    652806.3263   4774908.0150   5  10   3.7860   2.1618   3.7537   0.9506   0.8618   2.0516   0.00    0.0
1651 465699.000   4160213.1606    652806.3217   4774908.0181   5  10   3.7861   2.1618   3.7538   0.9507   0.8619   2.0514   0.00    0.0
1651 465699.500   4160213.1517    652806.3196   4774908.0119   5  10   3.7862   2.1618   3.7538   0.9508   0.8621   2.0513   0.00    0.0
1651 465700.000   4160213.1559    652806.3182   4774908.0126   5  10   3.7863   2.1618   3.7539   0.9509   0.8623   2.0512   0.00    0.0
1651 465700.500   4160213.1520    652806.3167   4774908.0132   5  10   3.7864   2.1618   3.7540   0.9511   0.8625   2.0511   0.00    0.0
1651 465701.000   4160213.1528    652806.3185   4774908.0186   5  10   3.7865   2.1618   3.7540   0.9512   0.8626   2.0510   0.00    0.0
1651 465701.500   4160213.1539    652806.3191   4774908.0238   5  10   3.7865   2.1618   3.7541   0.9513   0.8628   2.0509   0.00    0.0
1651 465702.000   4160213.1534    652806.3147   4774908.0250   5  10   3.7866   2.1618   3.7541   0.9514   0.8630   2.0508   0.00    0.0
1651 465702.500   4160213.1634    652806.3183   4774908.0327   5  10   3.7867   2.1618   3.7542   0.9515   0.8632   2.0506   0.00    0.0
1651 465703.000   4160213.1607    652806.3145   4774908.0294   5  10   3.7868   2.1618   3.7542   0.9516   0.8633   2.0505   0.00    0.0
1651 465703.500   4160213.1644    652806.3167   4774908.0350   5  10   3.7869   2.1617   3.7543   0.9517   0.8635   2.0504   0.00    0.0
1651 465704.000   4160213.1493    652806.3169   4774908.0264   5  10   3.7869   2.1617   3.7543   0.9519   0.8637   2.0503   0.00    0.0
1651 465704.500   4160213.1466    652806.3172   4774908.0274   5  10   3.7870   2.1617   3.7544   0.9520   0.8638   2.0502   0.00    0.0
1651 465705.000   4160213.1404    652806.3174   4774908.0162   5  10   3.7871   2.1617   3.7544   0.9521   0.8640   2.0501   0.00    0.0
1651 465705.500   4160213.1398    652806.3156   4774908.0225   5  10   3.7872   2.1617   3.7545   0.9522   0.8642   2.0500   0.00    0.0
1651 465706.000   4160213.1487    652806.3212   4774908.0235   5  10   3.7873   2.1617   3.7546   0.9523   0.8644   2.0499   0.00    0.0
1651 465706.500   4160213.1473    652806.3164   4774908.0295   5  10   3.7873   2.1617   3.7546   0.9524   0.8645   2.0497   0.00    0.0
1651 465707.000   4160213.1436    652806.3119   4774908.0305   5  10   3.7874   2.1617   3.7547   0.9526   0.8647   2.0496   0.00    0.0
1651 465707.500   4160213.1446    652806.3163   4774908.0281   5  10   3.7875   2.1617   3.7547   0.9527   0.8649   2.0495   0.00    0.0
1651 465708.000   4160213.1471    652806.3151   4774908.0346   5  10   3.7876   2.1616   3.7548   0.9528   0.8651   2.0494   0.00    0.0
1651 465708.500   4160213.1427    652806.3156   4774908.0294   5  10   3.7877   2.1616   3.7548   0.9529   0.8652   2.0493   0.00    0.0
1651 465709.000   4160213.1395    652806.3140   4774908.0290   5  10   3.7878   2.1616   3.7549   0.9530   0.8654   2.0492   0.00    0.0
1651 465709.500   4160213.1284    652806.3097   4774908.0250   5  10   3.7878   2.1616   3.7549   0.9531   0.8656   2.0491   0.00    0.0
1651 465710.000   4160213.1310    652806.3059   4774908.0284   5  10   3.7879   2.1616   3.7550   0.9532   0.8658   2.0490   0.00    0.0
1651 465710.500   4160213.1267    652806.3063   4774908.0247   5  10   3.7880   2.1616   3.7551   0.9534   0.8659   2.0488   0.00    0.0
1651 465711.000   4160213.1314    652806.3121   4774908.0310   5  10   3.7881   2.1616   3.7551   0.9535   0.8661   2.0487   0.00    0.0
1651 465711.500   4160213.1316    652806.3071   4774908.0354   5  10   3.7882   2.1616   3.7552   0.9536   0.8663   2.0486   0.00    0.0
1651 465712.000   4160213.1377    652806.3122   4774908.0410   5  10   3.7882   2.1616   3.7552   0.9537   0.8665   2.0485   0.00    0.0
1651 465712.500   4160213.1480    652806.3112   4774908.0507   5  10   3.7883   2.1616   3.7553   0.9538   0.8666   2.0484   0.00    0.0
1651 465713.000   4160213.1414    652806.3129   4774908.0598   5  10   3.7884   2.1615   3.7553   0.9539   0.8668   2.0483   0.00    0.0
1651 465713.500   4160213.1442    652806.3145   4774908.0577   5  10   3.7885   2.1615   3.7554   0.9541   0.8670   2.0482   0.00    0.0
1651 465714.000   4160213.1402    652806.3148   4774908.0593   5  10   3.7886   2.1615   3.7554   0.9542   0.8672   2.0480   0.00    0.0
1651 465714.500   4160213.1387    652806.3166   4774908.0641   5  10   3.7886   2.1615   3.7555   0.9543   0.8673   2.0479   0.00    0.0
1651 465715.000   4160213.1420    652806.3153   4774908.0706   5  10   3.7887   2.1615   3.7555   0.9544   0.8675   2.0478   0.00    0.0
1651 465715.500   4160213.1390    652806.3142   4774908.0760   5  10   3.7888   2.1615   3.7556   0.9545   0.8677   2.0477   0.00    0.0
1651 465716.000   4160213.1392    652806.3196   4774908.0721   5  10   3.7889   2.1615   3.7557   0.9546   0.8678   2.0476   0.00    0.0
1651 465716.500   4160213.1467    652806.3209   4774908.0774   5  10   3.7890   2.1615   3.7557   0.9547   0.8680   2.0475   0.00    0.0
1651 465717.000   4160213.1523    652806.3183   4774908.0844   5  10   3.7891   2.1615   3.7558   0.9549   0.8682   2.0474   0.00    0.0
1651 465717.500   4160213.1512    652806.3154   4774908.0839   5  10   3.7891   2.1615   3.7558   0.9550   0.8684   2.0473   0.00    0.0
1651 465718.000   4160213.1484    652806.3170   4774908.0833   5  10   3.7892   2.1614   3.7559   0.9551   0.8685   2.0471   0.00    0.0
1651 465718.500   4160213.1431    652806.3123   4774908.0828   5  10   3.7893   2.1614   3.7559   0.9552   0.8687   2.0470   0.00    0.0
1651 465719.000   4160213.1421    652806.3100   4774908.0855   5  10   3.7894   2.1614   3.7560   0.9553   0.8689   2.0469   0.00    0.0
1651 465719.500   4160213.1344    652806.3086   4774908.0842   5  10   3.7895   2.1614   3.7560   0.9554   0.8691   2.0468   0.00    0.0
1651 465720.000   4160213.1322    652806.3066   4774908.0845   5  10   3.7895   2.1614   3.7561   0.9555   0.8692   2.0467   0.00    0.0
1651 465720.500   4160213.1286    652806.3059   4774908.0890   5  10   3.7896   2.1614   3.7562   0.9557   0.8694   2.0466   0.00    0.0
1651 465721.000   4160213.1265    652806.3019   4774908.0843   5  10   3.7897   2.1614   3.7562   0.9558   0.8696   2.0465   0.00    0.0
1651 465721.500   4160213.1165    652806.3043   4774908.0857   5  10   3.7898   2.1614   3.7563   0.9559   0.8698   2.0463   0.00    0.0
1651 465722.000   4160213.1097    652806.3033   4774908.0813   5  10   3.7899   2.1614   3.7563   0.9560   0.8699   2.0462   0.00    0.0
1651 465722.500   4160213.1137    652806.3089   4774908.0893   5  10   3.7899   2.1614   3.7564   0.9561   0.8701   2.0461   0.00    0.0
1651 465723.000   4160213.1158    652806.3050   4774908.0915   5  10   3.7900   2.1613   3.7564   0.9562   0.8703   2.0460   0.00    0.0
1651 465723.500   4160213.1098    652806.3074   4774908.0934   5  10   3.7901   2.1613   3.7565   0.9563   0.8704   2.0459   0.00    0.0
1651 465724.000   4160213.1110    652806.3009   4774908.0919   5  10   3.7902   2.1613   3.7566   0.9565   0.8706   2.0458   0.00    0.0
1651 465724.500   4160213.1054    652806.3007   4774908.0934   5  10   3.7903   2.1613   3.7566   0.9566   0.8708   2.0457   0.00    0.0
1651 465725.000   4160213.1039    652806.2986   4774908.0942   5  10   3.7904   2.1613   3.7567   0.9567   0.8710   2.0455   0.00    0.0
1651 465725.500   4160213.1111    652806.2974   4774908.0998   5  10   3.7904   2.1613   3.7567   0.9568   0.8711   2.0454   0.00    0.0
1651 465726.000   4160213.1047    652806.2983   4774908.0962   5  10   3.7905   2.1613   3.7568   0.9569   0.8713   2.0453   0.00    0.0
1651 465726.500   4160213.1013    652806.2984   4774908.0977   5  10   3.7906   2.1613   3.7568   0.9570   0.8715   2.0452   0.00    0.0
1651 465727.000   4160213.1002    652806.2946   4774908.1013   5  10   3.7907   2.1613   3.7569   0.9571   0.8717   2.0451   0.00    0.0
1651 465727.500   4160213.0967    652806.2913   4774908.1061   5  10   3.7908   2.1613   3.7569   0.9573   0.8718   2.0450   0.00    0.0
1651 465728.000   4160213.0960    652806.2904   4774908.1069   5  10   3.7908   2.1612   3.7570   0.9574   0.8720   2.0449   0.00    0.0
1651 465728.500   4160213.0894    652806.2855   4774908.1064   5  10   3.7909   2.1612   3.7571   0.9575   0.8722   2.0448   0.00    0.0
1651 465729.000   4160213.0841    652806.2871   4774908.1061   5  10   3.7910   2.1612   3.7571   0.9576   0.8723   2.0446   0.00    0.0
1651 465729.500   4160213.0871    652806.2862   4774908.1125   5  10   3.7911   2.1612   3.7572   0.9577   0.8725   2.0445   0.00    0.0
1651 465730.000   4160213.0924    652806.2895   4774908.1157   5  10   3.7912   2.1612   3.7572   0.9578   0.8727   2.0444   0.00    0.0
1651 465730.500   4160213.0865    652806.2855   4774908.1098   5  10   3.7913   2.1612   3.7573   0.9579   0.8729   2.0443   0.00    0.0
1651 465731.000   4160213.0898    652806.2845   4774908.1131   5  10   3.7913   2.1612   3.7573   0.9581   0.8730   2.0442   0.00    0.0
1651 465731.500   4160213.1012    652806.2855   4774908.1161   5  10   3.7914   2.1612   3.7574   0.9582   0.8732   2.0441   0.00    0.0
1651 465732.000   4160213.0947    652806.2859   4774908.1154   5  10   3.7915   2.1612   3.7574   0.9583   0.8734   2.0440   0.00    0.0
1651 465732.500   4160213.1027    652806.2840   4774908.1197   5  10   3.7916   2.1612   3.7575   0.9584   0.8736   2.0438   0.00    0.0
1651 465733.000   4160213.0873    652806.2836   4774908.1241   5  10   3.7917   2.1611   3.7576   0.9585   0.8737   2.0437   0.00    0.0
1651 465733.500   4160213.0909    652806.2849   4774908.1308   5  10   3.7917   2.1611   3.7576   0.9586   0.8739   2.0436   0.00    0.0
1651 465734.000   4160213.0844    652806.2846   4774908.1335   5  10   3.7918   2.1611   3.7577   0.9587   0.8741   2.0435   0.00    0.0
1651 465734.500   4160213.0841    652806.2855   4774908.1363   5  10   3.7919   2.1611   3.7577   0.9589   0.8742   2.0434   0.00    0.0
1651 465735.000   4160213.0828    652806.2827   4774908.1418   5  10   3.7920   2.1611   3.7578   0.9590   0.8744   2.0433   0.00    0.0
1651 465735.500   4160213.0745    652806.2835   4774908.1458   5  10   3.7921   2.1611   3.7578   0.9591   0.8746   2.0432   0.00    0.0
1651 465736.000   4160213.0801    652806.2812   4774908.1510   5  10   3.7921   2.1611   3.7579   0.9592   0.8748   2.0430   0.00    0.0
1651 465736.500   4160213.0841    652806.2833   4774908.1619   5  10   3.7922   2.1611   3.7580   0.9593   0.8749   2.0429   0.00    0.0
1651 465737.000   4160213.0901    652806.2871   4774908.1635   5  10   3.7923   2.1611   3.7580   0.9594   0.8751   2.0428   0.00    0.0
1651 465737.500   4160213.0797    652806.2869   4774908.1612   5  10   3.7924   2.1611   3.7581   0.9595   0.8753   2.0427   0.00    0.0
1651 465738.000   4160213.0802    652806.2905   4774908.1599   5  10   3.7925   2.1611   3.7581   0.9596   0.8754   2.0426   0.00    0.0
1651 465738.500   4160213.0788    652806.2882   4774908.1585   5  10   3.7926   2.1610   3.7582   0.9598   0.8756   2.0425   0.00    0.0
1651 465739.000   4160213.0800    652806.2893   4774908.1640   5  10   3.7926   2.1610   3.7582   0.9599   0.8758   2.0424   0.00    0.0
1651 465739.500   4160213.0793    652806.2881   4774908.1679   5  10   3.7927   2.1610   3.7583   0.9600   0.8760   2.0422   0.00    0.0
1651 465740.000   4160213.0719    652806.2871   4774908.1620   5  10   3.7928   2.1610   3.7584   0.9601   0.8761   2.0421   0.00    0.0
1651 465740.500   4160213.0677    652806.2867   4774908.1649   5  10   3.7929   2.1610   3.7584   0.9602   0.8763   2.0420   0.00    0.0
1651 465741.000   4160213.0610    652806.2845   4774908.1638   5  10   3.7930   2.1610   3.7585   0.9603   0.8765   2.0419   0.00    0.0
1651 465741.500   4160213.0583    652806.2861   4774908.1664   5  10   3.7930   2.1610   3.7585   0.9604   0.8766   2.0418   0.00    0.0
1651 465742.000   4160213.0596    652806.2867   4774908.1654   5  10   3.7931   2.1610   3.7586   0.9606   0.8768   2.0417   0.00    0.0
1651 465742.500   4160213.0623    652806.2845   4774908.1765   5  10   3.7932   2.1610   3.7586   0.9607   0.8770   2.0416   0.00    0.0
1651 465743.000   4160213.0594    652806.2885   4774908.1764   5  10   3.7933   2.1610   3.7587   0.9608   0.8772   2.0415   0.00    0.0
1651 465743.500   4160213.0654    652806.2890   4774908.1793   5  10   3.7934   2.1609   3.7587   0.9609   0.8773   2.0413   0.00    0.0
1651 465744.000   4160213.0533    652806.2865   4774908.1793   5  10   3.7935   2.1609   3.7588   0.9610   0.8775   2.0412   0.00    0.0
1651 465744.500   4160213.0605    652806.2946   4774908.1811   5  10   3.7935   2.1609   3.7589   0.9611   0.8777   2.0411   0.00    0.0
1651 465745.000   4160213.0647    652806.2927   4774908.1842   5  10   3.7936   2.1609   3.7589   0.9612   0.8778   2.0410   0.00    0.0
1651 465745.500   4160213.0593    652806.2912   4774908.1869   5  10   3.7937   2.1609   3.7590   0.9613   0.8780   2.0409   0.00    0.0
1651 465746.000   4160213.0673    652806.2946   4774908.1945   5  10   3.7938   2.1609   3.7590   0.9615   0.8782   2.0408   0.00    0.0
1651 465746.500   4160213.0715    652806.2979   4774908.2003   5  10   3.7939   2.1609   3.7591   0.9616   0.8784   2.0407   0.00    0.0
1651 465747.000   4160213.0667    652806.2983   4774908.1968   5  10   3.7939   2.1609   3.7591   0.9617   0.8785   2.0405   0.00    0.0
1651 465747.500   4160213.0617    652806.2942   4774908.1983   5  10   3.7940   2.1609   3.7592   0.9618   0.8787   2.0404   0.00    0.0
1651 465748.000   4160213.0554    652806.2957   4774908.1968   5  10   3.7941   2.1609   3.7593   0.9619   0.8789   2.0403   0.00    0.0
1651 465748.500   4160213.0646    652806.2951   4774908.2017   5  10   3.7942   2.1609   3.7593   0.9620   0.8790   2.0402   0.00    0.0
1651 465749.000   4160213.0645    652806.2984   4774908.2015   5  10   3.7943   2.1608   3.7594   0.9621   0.8792   2.0401   0.00    0.0
1651 465749.500   4160213.0543    652806.2990   4774908.1973   5  10   3.7943   2.1608   3.7594   0.9622   0.8794   2.0400   0.00    0.0
1651 465750.000   4160213.0578    652806.2997   4774908.2012   5  10   3.7944   2.1608   3.7595   0.9624   0.8796   2.0399   0.00    0.0
1651 465750.500   4160213.0633    652806.2992   4774908.2057   5  10   3.7945   2.1608   3.7595   0.9625   0.8797   2.0397   0.00    0.0
1651 465751.000   4160213.0572    652806.3002   4774908.2037   5  10   3.7946   2.1608   3.7596   0.9626   0.8799   2.0396   0.00    0.0
1651 465751.500   4160213.0666    652806.3002   4774908.2080   5  10   3.7947   2.1608   3.7597   0.9627   0.8801   2.0395   0.00    0.0
1651 465752.000   4160213.0643    652806.2987   4774908.2060   5  10   3.7948   2.1608   3.7597   0.9628   0.8802   2.0394   0.00    0.0
1651 465752.500   4160213.0646    652806.2978   4774908.2073   5  10   3.7948   2.1608   3.7598   0.9629   0.8804   2.0393   0.00    0.0
1651 465753.000   4160213.0606    652806.2998   4774908.2069   5  10   3.7949   2.1608   3.7598   0.9630   0.8806   2.0392   0.00    0.0
1651 465753.500   4160213.0631    652806.2952   4774908.2112   5  10   3.7950   2.1608   3.7599   0.9631   0.8808   2.0391   0.00    0.0
1651 465754.000   4160213.0611    652806.2952   4774908.2129   5  10   3.7951   2.1608   3.7599   0.9633   0.8809   2.0389   0.00    0.0
1651 465754.500   4160213.0508    652806.2924   4774908.2058   5  10   3.7952   2.1607   3.7600   0.9634   0.8811   2.0388   0.00    0.0
1651 465755.000   4160213.0565    652806.2904   4774908.2115   5  10   3.7952   2.1607   3.7601   0.9635   0.8813   2.0387   0.00    0.0
1651 465755.500   4160213.0597    652806.2903   4774908.2188   5  10   3.7953   2.1607   3.7601   0.9636   0.8814   2.0386   0.00    0.0
1651 465756.000   4160213.0550    652806.2878   4774908.2173   5  10   3.7954   2.1607   3.7602   0.9637   0.8816   2.0385   0.00    0.0
1651 465756.500   4160213.0616    652806.2862   4774908.2153   5  10   3.7955   2.1607   3.7602   0.9638   0.8818   2.0384   0.00    0.0
1651 465757.000   4160213.0569    652806.2806   4774908.2178   5  10   3.7956   2.1607   3.7603   0.9639   0.8820   2.0383   0.00    0.0
1651 465757.500   4160213.0512    652806.2746   4774908.2164   5  10   3.7957   2.1607   3.7604   0.9640   0.8821   2.0381   0.00    0.0
1651 465758.000   4160213.0474    652806.2675   4774908.2136   5  10   3.7957   2.1607   3.7604   0.9642   0.8823   2.0380   0.00    0.0
1651 465758.500   4160213.0548    652806.2694   4774908.2213   5  10   3.7958   2.1607   3.7605   0.9643   0.8825   2.0379   0.00    0.0
1651 465759.000   4160213.0558    652806.2710   4774908.2280   5  10   3.7959   2.1607   3.7605   0.9644   0.8826   2.0378   0.00    0.0
1651 465759.500   4160213.0675    652806.2731   4774908.2388   5  10   3.7960   2.1607   3.7606   0.9645   0.8828   2.0377   0.00    0.0
1651 465760.000   4160213.0619    652806.2699   4774908.2332   5  10   3.7961   2.1606   3.7606   0.9646   0.8830   2.0376   0.00    0.0
1651 465760.500   4160213.0593    652806.2674   4774908.2418   5  10   3.7961   2.1606   3.7607   0.9647   0.8831   2.0375   0.00    0.0
1651 465761.000   4160213.0586    652806.2705   4774908.2406   5  10   3.7962   2.1606   3.7608   0.9648   0.8833   2.0373   0.00    0.0
1651 465761.500   4160213.0637    652806.2669   4774908.2411   5  10   3.7963   2.1606   3.7608   0.9649   0.8835   2.0372   0.00    0.0
1651 465762.000   4160213.0533    652806.2623   4774908.2394   5  10   3.7964   2.1606   3.7609   0.9651   0.8837   2.0371   0.00    0.0
1651 465762.500   4160213.0565    652806.2603   4774908.2441   5  10   3.7965   2.1606   3.7609   0.9652   0.8838   2.0370   0.00    0.0
1651 465763.000   4160213.0555    652806.2601   4774908.2501   5  10   3.7966   2.1606   3.7610   0.9653   0.8840   2.0369   0.00    0.0
1651 465763.500   4160213.0514    652806.2625   4774908.2517   5  10   3.7966   2.1606   3.7610   0.9654   0.8842   2.0368   0.00    0.0
1651 465764.000   4160213.0505    652806.2640   4774908.2601   5  10   3.7967   2.1606   3.7611   0.9655   0.8843   2.0367   0.00    0.0
1651 465764.500   4160213.0430    652806.2601   4774908.2536   5  10   3.7968   2.1606   3.7612   0.9656   0.8845   2.0365   0.00    0.0
1651 465765.000   4160213.0431    652806.2611   4774908.2524   5  10   3.7969   2.1606   3.7612   0.9657   0.8847   2.0364   0.00    0.0
1651 465765.500   4160213.0463    652806.2639   4774908.2599   5  10   3.7970   2.1605   3.7613   0.9658   0.8848   2.0363   0.00    0.0
1651 465766.000   4160213.0409    652806.2608   4774908.2522   5  10   3.7970   2.1605   3.7613   0.9659   0.8850   2.0362   0.00    0.0
1651 465766.500   4160213.0424    652806.2649   4774908.2510   5  10   3.7971   2.1605   3.7614   0.9661   0.8852   2.0361   0.00    0.0
1651 465767.000   4160213.0439    652806.2638   4774908.2557   5  10   3.7972   2.1605   3.7615   0.9662   0.8854   2.0360   0.00    0.0
1651 465767.500   4160213.0417    652806.2623   4774908.2555   5  10   3.7973   2.1605   3.7615   0.9663   0.8855   2.0358   0.00    0.0
1651 465768.000   4160213.0477    652806.2620   4774908.2548   5  10   3.7974   2.1605   3.7616   0.9664   0.8857   2.0357   0.00    0.0
1651 465768.500   4160213.0429    652806.2604   4774908.2505   5  10   3.7975   2.1605   3.7616   0.9665   0.8859   2.0356   0.00    0.0
1651 465769.000   4160213.0440    652806.2636   4774908.2515   5  10   3.7975   2.1605   3.7617   0.9666   0.8860   2.0355   0.00    0.0
1651 465769.500   4160213.0501    652806.2604   4774908.2592   5  10   3.7976   2.1605   3.7617   0.9667   0.8862   2.0354   0.00    0.0
1651 465770.000   4160213.0489    652806.2587   4774908.2579   5  10   3.7977   2.1605   3.7618   0.9668   0.8864   2.0353   0.00    0.0
1651 465770.500   4160213.0539    652806.2596   4774908.2627   5  10   3.7978   2.1605   3.7619   0.9669   0.8865   2.0352   0.00    0.0
1651 465771.000   4160213.0509    652806.2553   4774908.2640   5  10   3.7979   2.1604   3.7619   0.9671   0.8867   2.0350   0.00    0.0
1651 465771.500   4160213.0541    652806.2590   4774908.2710   5  10   3.7979   2.1604   3.7620   0.9672   0.8869   2.0349   0.00    0.0
1651 465772.000   4160213.0549    652806.2570   4774908.2751   5  10   3.7980   2.1604   3.7620   0.9673   0.8871   2.0348   0.00    0.0
1651 465772.500   4160213.0468    652806.2520   4774908.2720   5  10   3.7981   2.1604   3.7621   0.9674   0.8872   2.0347   0.00    0.0
1651 465773.000   4160213.0443    652806.2534   4774908.2726   5  10   3.7982   2.1604   3.7621   0.9675   0.8874   2.0346   0.00    0.0
1651 465773.500   4160213.0436    652806.2527   4774908.2740   5  10   3.7983   2.1604   3.7622   0.9676   0.8876   2.0345   0.00    0.0
1651 465774.000   4160213.0439    652806.2497   4774908.2790   5  10   3.7984   2.1604   3.7623   0.9677   0.8877   2.0344   0.00    0.0
1651 465774.500   4160213.0437    652806.2518   4774908.2806   5  10   3.7984   2.1604   3.7623   0.9678   0.8879   2.0342   0.00    0.0
1651 465775.000   4160213.0395    652806.2539   4774908.2785   5  10   3.7985   2.1604   3.7624   0.9679   0.8881   2.0341   0.00    0.0
1651 465775.500   4160213.0376    652806.2506   4774908.2783   5  10   3.7986   2.1604   3.7624   0.9681   0.8882   2.0340   0.00    0.0
1651 465776.000   4160213.0388    652806.2532   4774908.2828   5  10   3.7987   2.1604   3.7625   0.9682   0.8884   2.0339   0.00    0.0
1651 465776.500   4160213.0358    652806.2485   4774908.2775   5  10   3.7988   2.1604   3.7626   0.9683   0.8886   2.0338   0.00    0.0
1651 465777.000   4160213.0407    652806.2499   4774908.2812   5  10   3.7988   2.1603   3.7626   0.9684   0.8887   2.0337   0.00    0.0
1651 465777.500   4160213.0480    652806.2513   4774908.2856   5  10   3.7989   2.1603   3.7627   0.9685   0.8889   2.0336   0.00    0.0
1651 465778.000   4160213.0461    652806.2488   4774908.2859   5  10   3.7990   2.1603   3.7627   0.9686   0.8891   2.0334   0.00    0.0
1651 465778.500   4160213.0528    652806.2472   4774908.2855   5  10   3.7991   2.1603   3.7628   0.9687   0.8893   2.0333   0.00    0.0
1651 465779.000   4160213.0560    652806.2492   4774908.2908   5  10   3.7992   2.1603   3.7629   0.9688   0.8894   2.0332   0.00    0.0
1651 465779.500   4160213.0482    652806.2464   4774908.2916   5  10   3.7993   2.1603   3.7629   0.9689   0.8896   2.0331   0.00    0.0
1651 465780.000   4160213.0482    652806.2467   4774908.2922   5  10   3.7993   2.1603   3.7630   0.9691   0.8898   2.0330   0.00    0.0
1651 465780.500   4160213.0476    652806.2438   4774908.2928   5  10   3.7994   2.1603   3.7630   0.9692   0.8899   2.0329   0.00    0.0
1651 465781.000   4160213.0573    652806.2422   4774908.2930   5  10   3.7995   2.1603   3.7631   0.9693   0.8901   2.0327   0.00    0.0
1651 465781.500   4160213.0557    652806.2435   4774908.2961   5  10   3.7996   2.1603   3.7631   0.9694   0.8903   2.0326   0.00    0.0
1651 465782.000   4160213.0519    652806.2384   4774908.2949   5  10   3.7997   2.1603   3.7632   0.9695   0.8904   2.0325   0.00    0.0
1651 465782.500   4160213.0500    652806.2352   4774908.2985   5  10   3.7997   2.1602   3.7633   0.9696   0.8906   2.0324   0.00    0.0
1651 465783.000   4160213.0491    652806.2344   4774908.3085   5  10   3.7998   2.1602   3.7633   0.9697   0.8908   2.0323   0.00    0.0
1651 465783.500   4160213.0451    652806.2387   4774908.3108   5  10   3.7999   2.1602   3.7634   0.9698   0.8909   2.0322   0.00    0.0
1651 465784.000   4160213.0377    652806.2376   4774908.3073   5  10   3.8000   2.1602   3.7634   0.9699   0.8911   2.0321   0.00    0.0
1651 465784.500   4160213.0384    652806.2389   4774908.3117   5  10   3.8001   2.1602   3.7635   0.9701   0.8913   2.0319   0.00    0.0
1651 465785.000   4160213.0395    652806.2330   4774908.3140   5  10   3.8002   2.1602   3.7636   0.9702   0.8915   2.0318   0.00    0.0
1651 465785.500   4160213.0390    652806.2333   4774908.3147   5  10   3.8002   2.1602   3.7636   0.9703   0.8916   2.0317   0.00    0.0
1651 465786.000   4160213.0346    652806.2325   4774908.3089   5  10   3.8003   2.1602   3.7637   0.9704   0.8918   2.0316   0.00    0.0
1651 465786.500   4160213.0399    652806.2324   4774908.3136   5  10   3.8004   2.1602   3.7637   0.9705   0.8920   2.0315   0.00    0.0
1651 465787.000   4160213.0391    652806.2335   4774908.3162   5  10   3.8005   2.1602   3.7638   0.9706   0.8921   2.0314   0.00    0.0
1651 465787.500   4160213.0339    652806.2317   4774908.3135   5  10   3.8006   2.1602   3.7639   0.9707   0.8923   2.0313   0.00    0.0
1651 465788.000   4160213.0396    652806.2329   4774908.3170   5  10   3.8006   2.1602   3.7639   0.9708   0.8925   2.0311   0.00    0.0
1651 465788.500   4160213.0405    652806.2330   4774908.3086   5  10   3.8007   2.1601   3.7640   0.9709   0.8926   2.0310   0.00    0.0
1651 465789.000   4160213.0344    652806.2334   4774908.3042   5  10   3.8008   2.1601   3.7640   0.9710   0.8928   2.0309   0.00    0.0
1651 465789.500   4160213.0344    652806.2356   4774908.3049   5  10   3.8009   2.1601   3.7641   0.9712   0.8930   2.0308   0.00    0.0
1651 465790.000   4160213.0385    652806.2389   4774908.3038   5  10   3.8010   2.1601   3.7641   0.9713   0.8931   2.0307   0.00    0.0
1651 465790.500   4160213.0333    652806.2382   4774908.3053   5  10   3.8011   2.1601   3.7642   0.9714   0.8933   2.0306   0.00    0.0
1651 465791.000   4160213.0367    652806.2397   4774908.3012   5  10   3.8011   2.1601   3.7643   0.9715   0.8935   2.0304   0.00    0.0
1651 465791.500   4160213.0294    652806.2394   4774908.2944   5  10   3.8012   2.1601   3.7643   0.9716   0.8936   2.0303   0.00    0.0
1651 465792.000   4160213.0302    652806.2417   4774908.2986   5  10   3.8013   2.1601   3.7644   0.9717   0.8938   2.0302   0.00    0.0
1651 465792.500   4160213.0229    652806.2417   4774908.2982   5  10   3.8014   2.1601   3.7644   0.9718   0.8940   2.0301   0.00    0.0
1651 465793.000   4160213.0251    652806.2438   4774908.3075   5  10   3.8015   2.1601   3.7645   0.9719   0.8941   2.0300   0.00    0.0
1651 465793.500   4160213.0229    652806.2446   4774908.3010   5  10   3.8015   2.1601   3.7646   0.9720   0.8943   2.0299   0.00    0.0
1651 465794.000   4160213.0249    652806.2440   4774908.2973   5  10   3.8016   2.1601   3.7646   0.9721   0.8945   2.0298   0.00    0.0
1651 465794.500   4160213.0241    652806.2421   4774908.3033   5  10   3.8017   2.1601   3.7647   0.9723   0.8947   2.0296   0.00    0.0
1651 465795.000   4160213.0154    652806.2409   4774908.3003   5  10   3.8018   2.1600   3.7647   0.9724   0.8948   2.0295   0.00    0.0
1651 465795.500   4160213.0147    652806.2369   4774908.2963   5  10   3.8019   2.1600   3.7648   0.9725   0.8950   2.0294   0.00    0.0
1651 465796.000   4160213.0117    652806.2430   4774908.2985   5  10   3.8020   2.1600   3.7649   0.9726   0.8952   2.0293   0.00    0.0
1651 465796.500   4160213.0165    652806.2410   4774908.3005   5  10   3.8020   2.1600   3.7649   0.9727   0.8953   2.0292   0.00    0.0
1651 465797.000   4160213.0137    652806.2427   4774908.3015   5  10   3.8021   2.1600   3.7650   0.9728   0.8955   2.0291   0.00    0.0
1651 465797.500   4160213.0130    652806.2403   4774908.2992   5  10   3.8022   2.1600   3.7650   0.9729   0.8957   2.0290   0.00    0.0
1651 465798.000   4160213.0071    652806.2390   4774908.2998   5  10   3.8023   2.1600   3.7651   0.9730   0.8958   2.0288   0.00    0.0
1651 465798.500   4160213.0160    652806.2475   4774908.3077   5  10   3.8024   2.1600   3.7652   0.9731   0.8960   2.0287   0.00    0.0
1651 465799.000   4160213.0043    652806.2428   4774908.2969   5  10   3.8024   2.1600   3.7652   0.9732   0.8962   2.0286   0.00    0.0
1651 465799.500   4160213.0074    652806.2430   4774908.2976   5  10   3.8025   2.1600   3.7653   0.9734   0.8963   2.0285   0.00    0.0
1651 465800.000   4160213.0066    652806.2430   4774908.2951   5  10   3.8026   2.1600   3.7653   0.9735   0.8965   2.0284   0.00    0.0
1651 465800.500   4160213.0167    652806.2403   4774908.2982   5  10   3.8027   2.1600   3.7654   0.9736   0.8967   2.0283   0.00    0.0
1651 465801.000   4160213.0142    652806.2448   4774908.2971   5  10   3.8028   2.1599   3.7655   0.9737   0.8968   2.0281   0.00    0.0
1651 465801.500   4160213.0144    652806.2434   4774908.2952   5  10   3.8029   2.1599   3.7655   0.9738   0.8970   2.0280   0.00    0.0
1651 465802.000   4160213.0117    652806.2458   4774908.3000   5  10   3.8029   2.1599   3.7656   0.9739   0.8972   2.0279   0.00    0.0
1651 465802.500   4160213.0030    652806.2467   4774908.2979   5  10   3.8030   2.1599   3.7656   0.9740   0.8973   2.0278   0.00    0.0
1651 465803.000   4160213.0037    652806.2467   4774908.2913   5  10   3.8031   2.1599   3.7657   0.9741   0.8975   2.0277   0.00    0.0
1651 465803.500   4160213.0065    652806.2496   4774908.2902   5  10   3.8032   2.1599   3.7658   0.9742   0.8977   2.0276   0.00    0.0
1651 465804.000   4160213.0016    652806.2489   4774908.2907   5  10   3.8033   2.1599   3.7658   0.9743   0.8978   2.0274   0.00    0.0
1651 465804.500   4160212.9970    652806.2444   4774908.2796   5  10   3.8033   2.1599   3.7659   0.9744   0.8980   2.0273   0.00    0.0
1651 465805.000   4160212.9892    652806.2424   4774908.2770   5  10   3.8034   2.1599   3.7659   0.9746   0.8982   2.0272   0.00    0.0
1651 465805.500   4160212.9946    652806.2463   4774908.2811   5  10   3.8035   2.1599   3.7660   0.9747   0.8983   2.0271   0.00    0.0
1651 465806.000   4160212.9908    652806.2453   4774908.2806   5  10   3.8036   2.1599   3.7661   0.9748   0.8985   2.0270   0.00    0.0
1651 465806.500   4160212.9864    652806.2430   4774908.2748   5  10   3.8037   2.1599   3.7661   0.9749   0.8987   2.0269   0.00    0.0
1651 465807.000   4160212.9796    652806.2435   4774908.2752   5  10   3.8038   2.1599   3.7662   0.9750   0.8988   2.0268   0.00    0.0
1651 465807.500   4160212.9863    652806.2457   4774908.2753   5  10   3.8038   2.1598   3.7662   0.9751   0.8990   2.0266   0.00    0.0
1651 465808.000   4160212.9883    652806.2435   4774908.2762   5  10   3.8039   2.1598   3.7663   0.9752   0.8992   2.0265   0.00    0.0
1651 465808.500   4160212.9938    652806.2436   4774908.2787   5  10   3.8040   2.1598   3.7664   0.9753   0.8993   2.0264   0.00    0.0
1651 465809.000   4160212.9910    652806.2399   4774908.2707   5  10   3.8041   2.1598   3.7664   0.9754   0.8995   2.0263   0.00    0.0
1651 465809.500   4160212.9920    652806.2415   4774908.2657   5  10   3.8042   2.1598   3.7665   0.9755   0.8997   2.0262   0.00    0.0
1651 465810.000   4160212.9932    652806.2426   4774908.2660   5  10   3.8043   2.1598   3.7665   0.9756   0.8999   2.0261   0.00    0.0
1651 465810.500   4160212.9914    652806.2408   4774908.2611   5  10   3.8043   2.1598   3.7666   0.9758   0.9000   2.0259   0.00    0.0
1651 465811.000   4160212.9909    652806.2372   4774908.2600   5  10   3.8044   2.1598   3.7667   0.9759   0.9002   2.0258   0.00    0.0
1651 465811.500   4160212.9963    652806.2401   4774908.2562   5  10   3.8045   2.1598   3.7667   0.9760   0.9004   2.0257   0.00    0.0
1651 465812.000   4160212.9915    652806.2405   4774908.2551   5  10   3.8046   2.1598   3.7668   0.9761   0.9005   2.0256   0.00    0.0
1651 465812.500   4160212.9868    652806.2372   4774908.2510   5  10   3.8047   2.1598   3.7668   0.9762   0.9007   2.0255   0.00    0.0
1651 465813.000   4160212.9836    652806.2349   4774908.2534   5  10   3.8047   2.1598   3.7669   0.9763   0.9009   2.0254   0.00    0.0
1651 465813.500   4160212.9887    652806.2334   4774908.2526   5  10   3.8048   2.1598   3.7670   0.9764   0.9010   2.0253   0.00    0.0
1651 465814.000   4160212.9889    652806.2360   4774908.2561   5  10   3.8049   2.1597   3.7670   0.9765   0.9012   2.0251   0.00    0.0
1651 465814.500   4160212.9896    652806.2370   4774908.2565   5  10   3.8050   2.1597   3.7671   0.9766   0.9014   2.0250   0.00    0.0
1651 465815.000   4160212.9883    652806.2346   4774908.2534   5  10   3.8051   2.1597   3.7671   0.9767   0.9015   2.0249   0.00    0.0
1651 465815.500   4160212.9883    652806.2360   4774908.2455   5  10   3.8052   2.1597   3.7672   0.9768   0.9017   2.0248   0.00    0.0
1651 465816.000   4160212.9891    652806.2368   4774908.2453   5  10   3.8052   2.1597   3.7673   0.9770   0.9019   2.0247   0.00    0.0
1651 465816.500   4160212.9946    652806.2403   4774908.2536   5  10   3.8053   2.1597   3.7673   0.9771   0.9020   2.0246   0.00    0.0
1651 465817.000   4160212.9924    652806.2368   4774908.2557   5  10   3.8054   2.1597   3.7674   0.9772   0.9022   2.0244   0.00    0.0
1651 465817.500   4160212.9870    652806.2387   4774908.2558   5  10   3.8055   2.1597   3.7674   0.9773   0.9024   2.0243   0.00    0.0
1651 465818.000   4160212.9877    652806.2377   4774908.2624   5  10   3.8056   2.1597   3.7675   0.9774   0.9025   2.0242   0.00    0.0
1651 465818.500   4160212.9878    652806.2436   4774908.2631   5  10   3.8056   2.1597   3.7676   0.9775   0.9027   2.0241   0.00    0.0
1651 465819.000   4160212.9917    652806.2404   4774908.2653   5  10   3.8057   2.1597   3.7676   0.9776   0.9029   2.0240   0.00    0.0
1651 465819.500   4160212.9900    652806.2419   4774908.2659   5  10   3.8058   2.1597   3.7677   0.9777   0.9030   2.0239   0.00    0.0
1651 465820.000   4160212.9910    652806.2416   4774908.2764   5  10   3.8059   2.1597   3.7677   0.9778   0.9032   2.0237   0.00    0.0
1651 465820.500   4160212.9962    652806.2405   4774908.2790   5  10   3.8060   2.1596   3.7678   0.9779   0.9034   2.0236   0.00    0.0
1651 465821.000   4160212.9970    652806.2447   4774908.2763   5  10   3.8061   2.1596   3.7679   0.9780   0.9035   2.0235   0.00    0.0
1651 465821.500   4160212.9974    652806.2434   4774908.2848   5  10   3.8061   2.1596   3.7679   0.9781   0.9037   2.0234   0.00    0.0
1651 465822.000   4160213.0074    652806.2401   4774908.2902   5  10   3.8062   2.1596   3.7680   0.9783   0.9039   2.0233   0.00    0.0
1651 465822.500   4160213.0026    652806.2410   4774908.2875   5  10   3.8063   2.1596   3.7680   0.9784   0.9040   2.0232   0.00    0.0
1651 465823.000   4160212.9988    652806.2416   4774908.2873   5  10   3.8064   2.1596   3.7681   0.9785   0.9042   2.0231   0.00    0.0
1651 465823.500   4160213.0014    652806.2432   4774908.2924   5  10   3.8065   2.1596   3.7682   0.9786   0.9044   2.0229   0.00    0.0
1651 465824.000   4160213.0094    652806.2469   4774908.2911   5  10   3.8066   2.1596   3.7682   0.9787   0.9045   2.0228   0.00    0.0
1651 465824.500   4160213.0086    652806.2457   4774908.2964   5  10   3.8066   2.1596   3.7683   0.9788   0.9047   2.0227   0.00    0.0
1651 465825.000   4160212.9985    652806.2446   4774908.2969   5  10   3.8067   2.1596   3.7684   0.9789   0.9049   2.0226   0.00    0.0
1651 465825.500   4160212.9959    652806.2402   4774908.2977   5  10   3.8068   2.1596   3.7684   0.9790   0.9050   2.0225   0.00    0.0
1651 465826.000   4160212.9977    652806.2415   4774908.2958   5  10   3.8069   2.1596   3.7685   0.9791   0.9052   2.0224   0.00    0.0
1651 465826.500   4160212.9947    652806.2368   4774908.2970   5  10   3.8070   2.1596   3.7685   0.9792   0.9054   2.0222   0.00    0.0
1651 465827.000   4160212.9893    652806.2371   4774908.2981   5  10   3.8070   2.1596   3.7686   0.9793   0.9055   2.0221   0.00    0.0
1651 465827.500   4160212.9901    652806.2384   4774908.2976   5  10   3.8071   2.1595   3.7687   0.9794   0.9057   2.0220   0.00    0.0
1651 465828.000   4160212.9921    652806.2338   4774908.3025   5  10   3.8072   2.1595   3.7687   0.9796   0.9059   2.0219   0.00    0.0
1651 465828.500   4160212.9951    652806.2369   4774908.2981   5  10   3.8073   2.1595   3.7688   0.9797   0.9060   2.0218   0.00    0.0
1651 465829.000   4160212.9949    652806.2405   4774908.2932   5  10   3.8074   2.1595   3.7688   0.9798   0.9062   2.0217   0.00    0.0
1651 465829.500   4160212.9981    652806.2399   4774908.3019   5  10   3.8075   2.1595   3.7689   0.9799   0.9064   2.0215   0.00    0.0
1651 465830.000   4160213.0012    652806.2365   4774908.3006   5  10   3.8075   2.1595   3.7690   0.9800   0.9065   2.0214   0.00    0.0
1651 465830.500   4160212.9972    652806.2330   4774908.3035   5  10   3.8076   2.1595   3.7690   0.9801   0.9067   2.0213   0.00    0.0
1651 465831.000   4160212.9994    652806.2299   4774908.3030   5  10   3.8077   2.1595   3.7691   0.9802   0.9068   2.0212   0.00    0.0
1651 465831.500   4160213.0036    652806.2287   4774908.2997   5  10   3.8078   2.1595   3.7691   0.9803   0.9070   2.0211   0.00    0.0
1651 465832.000   4160213.0048    652806.2270   4774908.3084   5  10   3.8079   2.1595   3.7692   0.9804   0.9072   2.0210   0.00    0.0
1651 465832.500   4160213.0052    652806.2252   4774908.2979   5  10   3.8079   2.1595   3.7693   0.9805   0.9073   2.0208   0.00    0.0
1651 465833.000   4160213.0073    652806.2281   4774908.2974   5  10   3.8080   2.1595   3.7693   0.9806   0.9075   2.0207   0.00    0.0
1651 465833.500   4160213.0076    652806.2267   4774908.2938   5  10   3.8081   2.1595   3.7694   0.9807   0.9077   2.0206   0.00    0.0
1651 465834.000   4160213.0081    652806.2244   4774908.2929   5  10   3.8082   2.1595   3.7695   0.9808   0.9078   2.0205   0.00    0.0
1651 465834.500   4160213.0135    652806.2290   4774908.2876   5  10   3.8083   2.1594   3.7695   0.9810   0.9080   2.0204   0.00    0.0
1651 465835.000   4160213.0076    652806.2295   4774908.2882   5  10   3.8084   2.1594   3.7696   0.9811   0.9082   2.0203   0.00    0.0
1651 465835.500   4160213.0079    652806.2253   4774908.2885   5  10   3.8084   2.1594   3.7696   0.9812   0.9083   2.0202   0.00    0.0
1651 465836.000   4160213.0140    652806.2213   4774908.2858   5  10   3.8085   2.1594   3.7697   0.9813   0.9085   2.0200   0.00    0.0
1651 465836.500   4160213.0139    652806.2229   4774908.2844   5  10   3.8086   2.1594   3.7698   0.9814   0.9087   2.0199   0.00    0.0
1651 465837.000   4160213.0210    652806.2225   4774908.2846   5  10   3.8087   2.1594   3.7698   0.9815   0.9088   2.0198   0.00    0.0
1651 465837.500   4160213.0247    652806.2230   4774908.2897   5  10   3.8088   2.1594   3.7699   0.9816   0.9090   2.0197   0.00    0.0
1651 465838.000   4160213.0251    652806.2268   4774908.2836   5  10   3.8089   2.1594   3.7699   0.9817   0.9092   2.0196   0.00    0.0
1651 465838.500   4160213.0296    652806.2263   4774908.2853   5  10   3.8089   2.1594   3.7700   0.9818   0.9093   2.0195   0.00    0.0
1651 465839.000   4160213.0278    652806.2239   4774908.2771   5  10   3.8090   2.1594   3.7701   0.9819   0.9095   2.0193   0.00    0.0
1651 465839.500   4160213.0404    652806.2232   4774908.2877   5  10   3.8091   2.1594   3.7701   0.9820   0.9097   2.0192   0.00    0.0
1651 465840.000   4160213.0386    652806.2285   4774908.2872   5  10   3.8092   2.1594   3.7702   0.9821   0.9098   2.0191   0.00    0.0
1651 465840.500   4160213.0385    652806.2257   4774908.2802   5  10   3.8093   2.1594   3.7703   0.9822   0.9100   2.0190   0.00    0.0
1651 465841.000   4160213.0324    652806.2234   4774908.2744   5  10   3.8093   2.1594   3.7703   0.9823   0.9102   2.0189   0.00    0.0
1651 465841.500   4160213.0398    652806.2218   4774908.2782   5  10   3.8094   2.1593   3.7704   0.9825   0.9103   2.0188   0.00    0.0
1651 465842.000   4160213.0327    652806.2201   4774908.2767   5  10   3.8095   2.1593   3.7704   0.9826   0.9105   2.0186   0.00    0.0
1651 465842.500   4160213.0409    652806.2198   4774908.2717   5  10   3.8096   2.1593   3.7705   0.9827   0.9107   2.0185   0.00    0.0
1651 465843.000   4160213.0387    652806.2225   4774908.2660   5  10   3.8097   2.1593   3.7706   0.9828   0.9108   2.0184   0.00    0.0
1651 465843.500   4160213.0412    652806.2263   4774908.2539   5  10   3.8098   2.1593   3.7706   0.9829   0.9110   2.0183   0.00    0.0
1651 465844.000   4160213.0405    652806.2205   4774908.2544   5  10   3.8098   2.1593   3.7707   0.9830   0.9112   2.0182   0.00    0.0
1651 465844.500   4160213.0527    652806.2188   4774908.2589   5  10   3.8099   2.1593   3.7707   0.9831   0.9113   2.0181   0.00    0.0
1651 465845.000   4160213.0403    652806.2209   4774908.2528   5  10   3.8100   2.1593   3.7708   0.9832   0.9115   2.0179   0.00    0.0
1651 465845.500   4160213.0383    652806.2186   4774908.2581   5  10   3.8101   2.1593   3.7709   0.9833   0.9117   2.0178   0.00    0.0
1651 465846.000   4160213.0295    652806.2140   4774908.2586   5  10   3.8102   2.1593   3.7709   0.9834   0.9118   2.0177   0.00    0.0
1651 465846.500   4160213.0356    652806.2176   4774908.2570   5  10   3.8103   2.1593   3.7710   0.9835   0.9120   2.0176   0.00    0.0
1651 465847.000   4160213.0339    652806.2187   4774908.2541   5  10   3.8103   2.1593   3.7711   0.9836   0.9121   2.0175   0.00    0.0
1651 465847.500   4160213.0316    652806.2189   4774908.2557   5  10   3.8104   2.1593   3.7711   0.9837   0.9123   2.0174   0.00    0.0
1651 465848.000   4160213.0412    652806.2168   4774908.2583   5  10   3.8105   2.1593   3.7712   0.9838   0.9125   2.0172   0.00    0.0
1651 465848.500   4160213.0348    652806.2150   4774908.2624   5  10   3.8106   2.1593   3.7712   0.9840   0.9126   2.0171   0.00    0.0
1651 465849.000   4160213.0344    652806.2119   4774908.2753   5  10   3.8107   2.1592   3.7713   0.9841   0.9128   2.0170   0.00    0.0
1651 465849.500   4160213.0411    652806.2147   4774908.2675   5  10   3.8107   2.1592   3.7714   0.9842   0.9130   2.0169   0.00    0.0
1651 465850.000   4160213.0408    652806.2134   4774908.2731   5  10   3.8108   2.1592   3.7714   0.9843   0.9131   2.0168   0.00    0.0
1651 465850.500   4160213.0413    652806.2112   4774908.2744   5  10   3.8109   2.1592   3.7715   0.9844   0.9133   2.0167   0.00    0.0
1651 465851.000   4160213.0431    652806.2112   4774908.2765   5  10   3.8110   2.1592   3.7716   0.9845   0.9135   2.0165   0.00    0.0
1651 465851.500   4160213.0544    652806.2162   4774908.2809   5  10   3.8111   2.1592   3.7716   0.9846   0.9136   2.0164   0.00    0.0
1651 465852.000   4160213.0574    652806.2175   4774908.2723   5  10   3.8112   2.1592   3.7717   0.9847   0.9138   2.0163   0.00    0.0
1651 465852.500   4160213.0613    652806.2186   4774908.2752   5  10   3.8112   2.1592   3.7717   0.9848   0.9140   2.0162   0.00    0.0
1651 465853.000   4160213.0604    652806.2171   4774908.2653   5  10   3.8113   2.1592   3.7718   0.9849   0.9141   2.0161   0.00    0.0
1651 465853.500   4160213.0651    652806.2219   4774908.2726   5  10   3.8114   2.1592   3.7719   0.9850   0.9143   2.0160   0.00    0.0
1651 465854.000   4160213.0616    652806.2181   4774908.2684   5  10   3.8115   2.1592   3.7719   0.9851   0.9145   2.0158   0.00    0.0
1651 465854.500   4160213.0613    652806.2169   4774908.2751   5  10   3.8116   2.1592   3.7720   0.9852   0.9146   2.0157   0.00    0.0
1651 465855.000   4160213.0620    652806.2157   4774908.2700   5  10   3.8117   2.1592   3.7720   0.9853   0.9148   2.0156   0.00    0.0
1651 465855.500   4160213.0693    652806.2174   4774908.2703   5  10   3.8117   2.1592   3.7721   0.9854   0.9149   2.0155   0.00    0.0
1651 465856.000   4160213.0794    652806.2219   4774908.2731   5  10   3.8118   2.1592   3.7722   0.9856   0.9151   2.0154   0.00    0.0
1651 465856.500   4160213.0827    652806.2228   4774908.2692   5  10   3.8119   2.1591   3.7722   0.9857   0.9153   2.0153   0.00    0.0
1651 465857.000   4160213.0820    652806.2226   4774908.2702   5  10   3.8120   2.1591   3.7723   0.9858   0.9154   2.0151   0.00    0.0
1651 465857.500   4160213.0811    652806.2249   4774908.2667   5  10   3.8121   2.1591   3.7724   0.9859   0.9156   2.0150   0.00    0.0
1651 465858.000   4160213.0769    652806.2225   4774908.2655   5  10   3.8122   2.1591   3.7724   0.9860   0.9158   2.0149   0.00    0.0
1651 465858.500   4160213.0848    652806.2185   4774908.2597   5  10   3.8122   2.1591   3.7725   0.9861   0.9159   2.0148   0.00    0.0
1651 465859.000   4160213.0895    652806.2205   4774908.2610   5  10   3.8123   2.1591   3.7725   0.9862   0.9161   2.0147   0.00    0.0
1651 465859.500   4160213.0864    652806.2177   4774908.2613   5  10   3.8124   2.1591   3.7726   0.9863   0.9163   2.0146   0.00    0.0
1651 465860.000   4160213.0912    652806.2213   4774908.2577   5  10   3.8125   2.1591   3.7727   0.9864   0.9164   2.0144   0.00    0.0
1651 465860.500   4160213.0970    652806.2234   4774908.2639   5  10   3.8126   2.1591   3.7727   0.9865   0.9166   2.0143   0.00    0.0
1651 465861.000   4160213.1016    652806.2238   4774908.2583   5  10   3.8126   2.1591   3.7728   0.9866   0.9168   2.0142   0.00    0.0
1651 465861.500   4160213.0942    652806.2195   4774908.2626   5  10   3.8127   2.1591   3.7729   0.9867   0.9169   2.0141   0.00    0.0
1651 465862.000   4160213.0984    652806.2206   4774908.2630   5  10   3.8128   2.1591   3.7729   0.9868   0.9171   2.0140   0.00    0.0
1651 465862.500   4160213.0966    652806.2220   4774908.2608   5  10   3.8129   2.1591   3.7730   0.9869   0.9173   2.0139   0.00    0.0
1651 465863.000   4160213.1018    652806.2237   4774908.2592   5  10   3.8130   2.1591   3.7731   0.9870   0.9174   2.0137   0.00    0.0
1651 465863.500   4160213.1009    652806.2244   4774908.2615   5  10   3.8131   2.1591   3.7731   0.9871   0.9176   2.0136   0.00    0.0
1651 465864.000   4160213.0994    652806.2228   4774908.2580   5  10   3.8131   2.1590   3.7732   0.9873   0.9177   2.0135   0.00    0.0
1651 465864.500   4160213.1049    652806.2254   4774908.2439   5  10   3.8132   2.1590   3.7732   0.9874   0.9179   2.0134   0.00    0.0
1651 465865.000   4160213.1066    652806.2246   4774908.2501   5  10   3.8133   2.1590   3.7733   0.9875   0.9181   2.0133   0.00    0.0
1651 465865.500   4160213.1058    652806.2172   4774908.2397   5  10   3.8134   2.1590   3.7734   0.9876   0.9182   2.0132   0.00    0.0
1651 465866.000   4160213.1083    652806.2245   4774908.2376   5  10   3.8135   2.1590   3.7734   0.9877   0.9184   2.0130   0.00    0.0
1651 465866.500   4160213.1094    652806.2245   4774908.2420   5  10   3.8136   2.1590   3.7735   0.9878   0.9186   2.0129   0.00    0.0
1651 465867.000   4160213.1090    652806.2227   4774908.2424   5  10   3.8136   2.1590   3.7736   0.9879   0.9187   2.0128   0.00    0.0
1651 465867.500   4160213.1102    652806.2244   4774908.2341   5  10   3.8137   2.1590   3.7736   0.9880   0.9189   2.0127   0.00    0.0
1651 465868.000   4160213.1127    652806.2255   4774908.2303   5  10   3.8138   2.1590   3.7737   0.9881   0.9191   2.0126   0.00    0.0
1651 465868.500   4160213.1161    652806.2258   4774908.2230   5  10   3.8139   2.1590   3.7737   0.9882   0.9192   2.0125   0.00    0.0
1651 465869.000   4160213.1167    652806.2258   4774908.2203   5  10   3.8140   2.1590   3.7738   0.9883   0.9194   2.0123   0.00    0.0
1651 465869.500   4160213.1187    652806.2257   4774908.2096   5  10   3.8141   2.1590   3.7739   0.9884   0.9195   2.0122   0.00    0.0
1651 465870.000   4160213.1211    652806.2297   4774908.2023   5  10   3.8141   2.1590   3.7739   0.9885   0.9197   2.0121   0.00    0.0
1651 465870.500   4160213.1273    652806.2336   4774908.2051   5  10   3.8142   2.1590   3.7740   0.9886   0.9199   2.0120   0.00    0.0
1651 465871.000   4160213.1277    652806.2300   4774908.2057   5  10   3.8143   2.1590   3.7741   0.9887   0.9200   2.0119   0.00    0.0
1651 465871.500   4160213.1269    652806.2327   4774908.2049   5  10   3.8144   2.1590   3.7741   0.9888   0.9202   2.0118   0.00    0.0
1651 465872.000   4160213.1247    652806.2311   4774908.2057   5  10   3.8145   2.1589   3.7742   0.9889   0.9204   2.0116   0.00    0.0
1651 465872.500   4160213.1236    652806.2258   4774908.1957   5  10   3.8145   2.1589   3.7742   0.9891   0.9205   2.0115   0.00    0.0
1651 465873.000   4160213.1253    652806.2278   4774908.1941   5  10   3.8146   2.1589   3.7743   0.9892   0.9207   2.0114   0.00    0.0
1651 465873.500   4160213.1312    652806.2285   4774908.1910   5  10   3.8147   2.1589   3.7744   0.9893   0.9209   2.0113   0.00    0.0
1651 465874.000   4160213.1316    652806.2302   4774908.1953   5  10   3.8148   2.1589   3.7744   0.9894   0.9210   2.0112   0.00    0.0
1651 465874.500   4160213.1399    652806.2309   4774908.1883   5  10   3.8149   2.1589   3.7745   0.9895   0.9212   2.0111   0.00    0.0
1651 465875.000   4160213.1329    652806.2306   4774908.1853   5  10   3.8150   2.1589   3.7746   0.9896   0.9214   2.0109   0.00    0.0
1651 465875.500   4160213.1398    652806.2302   4774908.1924   5  10   3.8150   2.1589   3.7746   0.9897   0.9215   2.0108   0.00    0.0
1651 465876.000   4160213.1381    652806.2292   4774908.1834   5  10   3.8151   2.1589   3.7747   0.9898   0.9217   2.0107   0.00    0.0
1651 465876.500   4160213.1368    652806.2317   4774908.1847   5  10   3.8152   2.1589   3.7748   0.9899   0.9218   2.0106   0.00    0.0
