% program   : RTKPOST ver.2.4.3 b33
% inp file  : E:\Study\master\semester 3\Satellite Navigation\lab5\data_sets\110902_092045.obs
% inp file  : E:\Study\master\semester 3\Satellite Navigation\lab5\data_sets\INSA245gA.NAV
% obs start : 2011/09/02 09:21:01.0 GPST (week1651 465661.0s)
% obs end   : 2011/09/02 10:27:55.5 GPST (week1651 469675.5s)
% pos mode  : single
% elev mask : 5.0 deg
% ionos opt : broadcast
% tropo opt : saastamoinen
% ephemeris : broadcast
%
% (lat/lon/height=WGS84/ellipsoidal,Q=1:fix,2:float,3:sbas,4:dgps,5:single,6:ppp,ns=# of satellites)
%  GPST          latitude(deg) longitude(deg)  height(m)   Q  ns   sdn(m)   sde(m)   sdu(m)  sdne(m)  sdeu(m)  sdun(m) age(s)  ratio
1651 465661.000   48.780886264    8.917929526   494.2310   5   9   3.2794   2.2779   4.5758  -0.4012  -1.2438   0.8489   0.00    0.0
1651 465661.500   48.780886240    8.917929509   494.2278   5   9   3.2796   2.2779   4.5758  -0.4011  -1.2436   0.8489   0.00    0.0
1651 465662.000   48.780880062    8.917937246   493.0239   5  10   3.1540   2.1532   4.2946   0.7124  -0.6104  -0.8364   0.00    0.0
1651 465662.500   48.780880377    8.917936856   493.0836   5  10   3.1542   2.1532   4.2946   0.7126  -0.6101  -0.8365   0.00    0.0
1651 465663.000   48.780880964    8.917936208   493.1909   5  10   3.1543   2.1532   4.2946   0.7127  -0.6098  -0.8365   0.00    0.0
1651 465663.500   48.780880941    8.917936187   493.1782   5  10   3.1545   2.1531   4.2946   0.7128  -0.6095  -0.8366   0.00    0.0
1651 465664.000   48.780880679    8.917936605   493.1211   5  10   3.1546   2.1531   4.2946   0.7129  -0.6093  -0.8366   0.00    0.0
1651 465664.500   48.780880941    8.917936269   493.1637   5  10   3.1548   2.1531   4.2947   0.7130  -0.6090  -0.8367   0.00    0.0
1651 465665.000   48.780881204    8.917935933   493.2186   5  10   3.1549   2.1531   4.2947   0.7131  -0.6087  -0.8367   0.00    0.0
1651 465665.500   48.780881163    8.917936056   493.2094   5  10   3.1551   2.1530   4.2947   0.7132  -0.6084  -0.8368   0.00    0.0
1651 465666.000   48.780881327    8.917935860   493.2287   5  10   3.1552   2.1530   4.2947   0.7133  -0.6081  -0.8368   0.00    0.0
1651 465666.500   48.780881378    8.917935854   493.2276   5  10   3.1554   2.1530   4.2947   0.7135  -0.6078  -0.8369   0.00    0.0
1651 465667.000   48.780881608    8.917935548   493.2815   5  10   3.1555   2.1530   4.2947   0.7136  -0.6075  -0.8369   0.00    0.0
1651 465667.500   48.780881568    8.917935568   493.2676   5  10   3.1557   2.1529   4.2947   0.7137  -0.6072  -0.8370   0.00    0.0
1651 465668.000   48.780881663    8.917935565   493.2719   5  10   3.1558   2.1529   4.2947   0.7138  -0.6069  -0.8370   0.00    0.0
1651 465668.500   48.780881463    8.917935766   493.2377   5  10   3.1560   2.1529   4.2948   0.7139  -0.6067  -0.8371   0.00    0.0
1651 465669.000   48.780881337    8.917935863   493.2172   5  10   3.1561   2.1529   4.2948   0.7140  -0.6064  -0.8371   0.00    0.0
1651 465669.500   48.780881148    8.917936164   493.1753   5  10   3.1563   2.1528   4.2948   0.7141  -0.6061  -0.8371   0.00    0.0
1651 465670.000   48.780880976    8.917936462   493.1353   5  10   3.1564   2.1528   4.2948   0.7142  -0.6058  -0.8372   0.00    0.0
1651 465670.500   48.780880905    8.917936606   493.1068   5  10   3.1566   2.1528   4.2948   0.7144  -0.6055  -0.8372   0.00    0.0
1651 465671.000   48.780880936    8.917936595   493.1208   5  10   3.1567   2.1528   4.2948   0.7145  -0.6052  -0.8373   0.00    0.0
1651 465671.500   48.780880969    8.917936487   493.1298   5  10   3.1569   2.1527   4.2948   0.7146  -0.6049  -0.8373   0.00    0.0
1651 465672.000   48.780880983    8.917936527   493.1362   5  10   3.1570   2.1527   4.2949   0.7147  -0.6046  -0.8374   0.00    0.0
1651 465672.500   48.780881087    8.917936399   493.1395   5  10   3.1572   2.1527   4.2949   0.7148  -0.6043  -0.8374   0.00    0.0
1651 465673.000   48.780880900    8.917936594   493.1184   5  10   3.1573   2.1527   4.2949   0.7149  -0.6040  -0.8375   0.00    0.0
1651 465673.500   48.780880877    8.917936651   493.1152   5  10   3.1575   2.1527   4.2949   0.7150  -0.6038  -0.8375   0.00    0.0
1651 465674.000   48.780880797    8.917936671   493.0963   5  10   3.1576   2.1526   4.2949   0.7151  -0.6035  -0.8376   0.00    0.0
1651 465674.500   48.780880839    8.917936711   493.0986   5  10   3.1578   2.1526   4.2949   0.7153  -0.6032  -0.8376   0.00    0.0
1651 465675.000   48.780880893    8.917936667   493.1044   5  10   3.1579   2.1526   4.2949   0.7154  -0.6029  -0.8377   0.00    0.0
1651 465675.500   48.780880866    8.917936664   493.1093   5  10   3.1581   2.1526   4.2949   0.7155  -0.6026  -0.8377   0.00    0.0
1651 465676.000   48.780880887    8.917936656   493.1029   5  10   3.1582   2.1525   4.2950   0.7156  -0.6023  -0.8377   0.00    0.0
1651 465676.500   48.780880843    8.917936689   493.0969   5  10   3.1584   2.1525   4.2950   0.7157  -0.6020  -0.8378   0.00    0.0
1651 465677.000   48.780880780    8.917936756   493.0869   5  10   3.1585   2.1525   4.2950   0.7158  -0.6017  -0.8378   0.00    0.0
1651 465677.500   48.780880856    8.917936697   493.0869   5  10   3.1587   2.1525   4.2950   0.7159  -0.6014  -0.8379   0.00    0.0
1651 465678.000   48.780880930    8.917936701   493.0943   5  10   3.1588   2.1524   4.2950   0.7160  -0.6011  -0.8379   0.00    0.0
1651 465678.500   48.780880972    8.917936571   493.1054   5  10   3.1590   2.1524   4.2950   0.7161  -0.6008  -0.8380   0.00    0.0
1651 465679.000   48.780881070    8.917936495   493.1091   5  10   3.1591   2.1524   4.2950   0.7163  -0.6005  -0.8380   0.00    0.0
1651 465679.500   48.780881081    8.917936489   493.1240   5  10   3.1593   2.1524   4.2950   0.7164  -0.6003  -0.8381   0.00    0.0
1651 465680.000   48.780881071    8.917936492   493.1171   5  10   3.1595   2.1524   4.2951   0.7165  -0.6000  -0.8381   0.00    0.0
1651 465680.500   48.780881081    8.917936524   493.1217   5  10   3.1596   2.1523   4.2951   0.7166  -0.5997  -0.8382   0.00    0.0
1651 465681.000   48.780881084    8.917936546   493.1147   5  10   3.1598   2.1523   4.2951   0.7167  -0.5994  -0.8382   0.00    0.0
1651 465681.500   48.780881139    8.917936516   493.1234   5  10   3.1599   2.1523   4.2951   0.7168  -0.5991  -0.8382   0.00    0.0
1651 465682.000   48.780881153    8.917936450   493.1171   5  10   3.1601   2.1523   4.2951   0.7169  -0.5988  -0.8383   0.00    0.0
1651 465682.500   48.780881213    8.917936478   493.1190   5  10   3.1602   2.1522   4.2951   0.7170  -0.5985  -0.8383   0.00    0.0
1651 465683.000   48.780881180    8.917936366   493.1227   5  10   3.1604   2.1522   4.2951   0.7172  -0.5982  -0.8384   0.00    0.0
1651 465683.500   48.780881133    8.917936414   493.1254   5  10   3.1605   2.1522   4.2951   0.7173  -0.5979  -0.8384   0.00    0.0
1651 465684.000   48.780881172    8.917936453   493.1207   5  10   3.1607   2.1522   4.2952   0.7174  -0.5976  -0.8385   0.00    0.0
1651 465684.500   48.780881166    8.917936437   493.1165   5  10   3.1608   2.1521   4.2952   0.7175  -0.5973  -0.8385   0.00    0.0
1651 465685.000   48.780881199    8.917936440   493.1300   5  10   3.1610   2.1521   4.2952   0.7176  -0.5970  -0.8386   0.00    0.0
1651 465685.500   48.780881217    8.917936384   493.1262   5  10   3.1611   2.1521   4.2952   0.7177  -0.5967  -0.8386   0.00    0.0
1651 465686.000   48.780881224    8.917936365   493.1393   5  10   3.1613   2.1521   4.2952   0.7178  -0.5965  -0.8387   0.00    0.0
1651 465686.500   48.780881209    8.917936374   493.1480   5  10   3.1614   2.1521   4.2952   0.7179  -0.5962  -0.8387   0.00    0.0
1651 465687.000   48.780881285    8.917936315   493.1425   5  10   3.1616   2.1520   4.2952   0.7181  -0.5959  -0.8387   0.00    0.0
1651 465687.500   48.780881385    8.917936276   493.1612   5  10   3.1617   2.1520   4.2952   0.7182  -0.5956  -0.8388   0.00    0.0
1651 465688.000   48.780881374    8.917936218   493.1479   5  10   3.1619   2.1520   4.2953   0.7183  -0.5953  -0.8388   0.00    0.0
1651 465688.500   48.780881391    8.917936110   493.1566   5  10   3.1620   2.1520   4.2953   0.7184  -0.5950  -0.8389   0.00    0.0
1651 465689.000   48.780881463    8.917936163   493.1704   5  10   3.1622   2.1519   4.2953   0.7185  -0.5947  -0.8389   0.00    0.0
1651 465689.500   48.780881454    8.917936086   493.1663   5  10   3.1623   2.1519   4.2953   0.7186  -0.5944  -0.8390   0.00    0.0
1651 465690.000   48.780881480    8.917936033   493.1779   5  10   3.1625   2.1519   4.2953   0.7187  -0.5941  -0.8390   0.00    0.0
1651 465690.500   48.780881494    8.917936038   493.1808   5  10   3.1626   2.1519   4.2953   0.7188  -0.5938  -0.8391   0.00    0.0
1651 465691.000   48.780881585    8.917936009   493.1840   5  10   3.1628   2.1518   4.2953   0.7190  -0.5935  -0.8391   0.00    0.0
1651 465691.500   48.780881604    8.917935989   493.1896   5  10   3.1629   2.1518   4.2954   0.7191  -0.5932  -0.8391   0.00    0.0
1651 465692.000   48.780881662    8.917935960   493.1844   5  10   3.1631   2.1518   4.2954   0.7192  -0.5929  -0.8392   0.00    0.0
1651 465692.500   48.780881696    8.917935984   493.1923   5  10   3.1632   2.1518   4.2954   0.7193  -0.5926  -0.8392   0.00    0.0
1651 465693.000   48.780881700    8.917936008   493.1886   5  10   3.1634   2.1518   4.2954   0.7194  -0.5923  -0.8393   0.00    0.0
1651 465693.500   48.780881737    8.917935966   493.1902   5  10   3.1635   2.1517   4.2954   0.7195  -0.5920  -0.8393   0.00    0.0
1651 465694.000   48.780881762    8.917935982   493.1910   5  10   3.1637   2.1517   4.2954   0.7196  -0.5917  -0.8394   0.00    0.0
1651 465694.500   48.780881779    8.917935941   493.1872   5  10   3.1639   2.1517   4.2954   0.7197  -0.5914  -0.8394   0.00    0.0
1651 465695.000   48.780881746    8.917936034   493.1772   5  10   3.1640   2.1517   4.2954   0.7199  -0.5911  -0.8395   0.00    0.0
1651 465695.500   48.780881775    8.917935965   493.1754   5  10   3.1642   2.1516   4.2955   0.7200  -0.5908  -0.8395   0.00    0.0
1651 465696.000   48.780881818    8.917936029   493.1766   5  10   3.1643   2.1516   4.2955   0.7201  -0.5906  -0.8395   0.00    0.0
1651 465696.500   48.780881904    8.917935950   493.1813   5  10   3.1645   2.1516   4.2955   0.7202  -0.5903  -0.8396   0.00    0.0
1651 465697.000   48.780881904    8.917936034   493.1883   5  10   3.1646   2.1516   4.2955   0.7203  -0.5900  -0.8396   0.00    0.0
1651 465697.500   48.780881932    8.917936052   493.1844   5  10   3.1648   2.1515   4.2955   0.7204  -0.5897  -0.8397   0.00    0.0
1651 465698.000   48.780881939    8.917936037   493.1875   5  10   3.1649   2.1515   4.2955   0.7205  -0.5894  -0.8397   0.00    0.0
1651 465698.500   48.780881934    8.917936079   493.1915   5  10   3.1651   2.1515   4.2955   0.7206  -0.5891  -0.8398   0.00    0.0
1651 465699.000   48.780882004    8.917936032   493.1887   5  10   3.1652   2.1515   4.2955   0.7207  -0.5888  -0.8398   0.00    0.0
1651 465699.500   48.780882029    8.917936023   493.1781   5  10   3.1654   2.1515   4.2956   0.7209  -0.5885  -0.8398   0.00    0.0
1651 465700.000   48.780882007    8.917935996   493.1811   5  10   3.1655   2.1514   4.2956   0.7210  -0.5882  -0.8399   0.00    0.0
1651 465700.500   48.780882038    8.917935984   493.1790   5  10   3.1657   2.1514   4.2956   0.7211  -0.5879  -0.8399   0.00    0.0
1651 465701.000   48.780882063    8.917936006   493.1837   5  10   3.1658   2.1514   4.2956   0.7212  -0.5876  -0.8400   0.00    0.0
1651 465701.500   48.780882085    8.917936012   493.1884   5  10   3.1660   2.1514   4.2956   0.7213  -0.5873  -0.8400   0.00    0.0
1651 465702.000   48.780882101    8.917935954   493.1885   5  10   3.1661   2.1513   4.2956   0.7214  -0.5870  -0.8401   0.00    0.0
1651 465702.500   48.780882076    8.917935981   493.2012   5  10   3.1663   2.1513   4.2956   0.7215  -0.5867  -0.8401   0.00    0.0
1651 465703.000   48.780882078    8.917935936   493.1966   5  10   3.1664   2.1513   4.2957   0.7216  -0.5864  -0.8401   0.00    0.0
1651 465703.500   48.780882084    8.917935958   493.2035   5  10   3.1666   2.1513   4.2957   0.7218  -0.5861  -0.8402   0.00    0.0
1651 465704.000   48.780882135    8.917935991   493.1871   5  10   3.1667   2.1513   4.2957   0.7219  -0.5858  -0.8402   0.00    0.0
1651 465704.500   48.780882158    8.917936002   493.1862   5  10   3.1669   2.1512   4.2957   0.7220  -0.5855  -0.8403   0.00    0.0
1651 465705.000   48.780882132    8.917936018   493.1738   5  10   3.1670   2.1512   4.2957   0.7221  -0.5852  -0.8403   0.00    0.0
1651 465705.500   48.780882175    8.917935995   493.1779   5  10   3.1672   2.1512   4.2957   0.7222  -0.5849  -0.8404   0.00    0.0
1651 465706.000   48.780882117    8.917936051   493.1850   5  10   3.1674   2.1512   4.2957   0.7223  -0.5846  -0.8404   0.00    0.0
1651 465706.500   48.780882167    8.917935989   493.1882   5  10   3.1675   2.1511   4.2957   0.7224  -0.5843  -0.8404   0.00    0.0
1651 465707.000   48.780882202    8.917935936   493.1860   5  10   3.1677   2.1511   4.2958   0.7225  -0.5840  -0.8405   0.00    0.0
1651 465707.500   48.780882176    8.917935994   493.1853   5  10   3.1678   2.1511   4.2958   0.7227  -0.5837  -0.8405   0.00    0.0
1651 465708.000   48.780882199    8.917935972   493.1917   5  10   3.1680   2.1511   4.2958   0.7228  -0.5834  -0.8406   0.00    0.0
1651 465708.500   48.780882197    8.917935988   493.1850   5  10   3.1681   2.1511   4.2958   0.7229  -0.5831  -0.8406   0.00    0.0
1651 465709.000   48.780882218    8.917935973   493.1824   5  10   3.1683   2.1510   4.2958   0.7230  -0.5828  -0.8407   0.00    0.0
1651 465709.500   48.780882273    8.917935939   493.1717   5  10   3.1684   2.1510   4.2958   0.7231  -0.5825  -0.8407   0.00    0.0
1651 465710.000   48.780882280    8.917935882   493.1756   5  10   3.1686   2.1510   4.2958   0.7232  -0.5822  -0.8407   0.00    0.0
1651 465710.500   48.780882286    8.917935898   493.1701   5  10   3.1687   2.1510   4.2959   0.7233  -0.5819  -0.8408   0.00    0.0
1651 465711.000   48.780882286    8.917935965   493.1785   5  10   3.1689   2.1509   4.2959   0.7234  -0.5816  -0.8408   0.00    0.0
1651 465711.500   48.780882316    8.917935897   493.1814   5  10   3.1690   2.1509   4.2959   0.7236  -0.5813  -0.8409   0.00    0.0
1651 465712.000   48.780882303    8.917935954   493.1901   5  10   3.1692   2.1509   4.2959   0.7237  -0.5810  -0.8409   0.00    0.0
1651 465712.500   48.780882293    8.917935919   493.2040   5  10   3.1693   2.1509   4.2959   0.7238  -0.5807  -0.8410   0.00    0.0
1651 465713.000   48.780882389    8.917935955   493.2067   5  10   3.1695   2.1509   4.2959   0.7239  -0.5804  -0.8410   0.00    0.0
1651 465713.500   48.780882356    8.917935970   493.2072   5  10   3.1696   2.1508   4.2959   0.7240  -0.5801  -0.8410   0.00    0.0
1651 465714.000   48.780882392    8.917935982   493.2058   5  10   3.1698   2.1508   4.2960   0.7241  -0.5798  -0.8411   0.00    0.0
1651 465714.500   48.780882428    8.917936010   493.2086   5  10   3.1699   2.1508   4.2960   0.7242  -0.5795  -0.8411   0.00    0.0
1651 465715.000   48.780882446    8.917935985   493.2155   5  10   3.1701   2.1508   4.2960   0.7243  -0.5792  -0.8412   0.00    0.0
1651 465715.500   48.780882500    8.917935978   493.2175   5  10   3.1702   2.1507   4.2960   0.7245  -0.5789  -0.8412   0.00    0.0
1651 465716.000   48.780882470    8.917936049   493.2152   5  10   3.1704   2.1507   4.2960   0.7246  -0.5786  -0.8412   0.00    0.0
1651 465716.500   48.780882449    8.917936051   493.2242   5  10   3.1706   2.1507   4.2960   0.7247  -0.5783  -0.8413   0.00    0.0
1651 465717.000   48.780882457    8.917936005   493.2329   5  10   3.1707   2.1507   4.2960   0.7248  -0.5780  -0.8413   0.00    0.0
1651 465717.500   48.780882463    8.917935967   493.2315   5  10   3.1709   2.1507   4.2960   0.7249  -0.5777  -0.8414   0.00    0.0
1651 465718.000   48.780882477    8.917935995   493.2294   5  10   3.1710   2.1506   4.2961   0.7250  -0.5774  -0.8414   0.00    0.0
1651 465718.500   48.780882515    8.917935943   493.2251   5  10   3.1712   2.1506   4.2961   0.7251  -0.5771  -0.8415   0.00    0.0
1651 465719.000   48.780882540    8.917935915   493.2262   5  10   3.1713   2.1506   4.2961   0.7252  -0.5768  -0.8415   0.00    0.0
1651 465719.500   48.780882585    8.917935912   493.2200   5  10   3.1715   2.1506   4.2961   0.7253  -0.5765  -0.8415   0.00    0.0
1651 465720.000   48.780882604    8.917935890   493.2187   5  10   3.1716   2.1505   4.2961   0.7255  -0.5762  -0.8416   0.00    0.0
1651 465720.500   48.780882655    8.917935887   493.2196   5  10   3.1718   2.1505   4.2961   0.7256  -0.5759  -0.8416   0.00    0.0
1651 465721.000   48.780882646    8.917935838   493.2143   5  10   3.1719   2.1505   4.2961   0.7257  -0.5756  -0.8417   0.00    0.0
1651 465721.500   48.780882718    8.917935892   493.2091   5  10   3.1721   2.1505   4.2962   0.7258  -0.5753  -0.8417   0.00    0.0
1651 465722.000   48.780882738    8.917935893   493.2013   5  10   3.1722   2.1505   4.2962   0.7259  -0.5750  -0.8417   0.00    0.0
1651 465722.500   48.780882753    8.917935960   493.2105   5  10   3.1724   2.1504   4.2962   0.7260  -0.5747  -0.8418   0.00    0.0
1651 465723.000   48.780882756    8.917935902   493.2131   5  10   3.1725   2.1504   4.2962   0.7261  -0.5744  -0.8418   0.00    0.0
1651 465723.500   48.780882805    8.917935948   493.2108   5  10   3.1727   2.1504   4.2962   0.7262  -0.5741  -0.8419   0.00    0.0
1651 465724.000   48.780882795    8.917935857   493.2098   5  10   3.1728   2.1504   4.2962   0.7264  -0.5738  -0.8419   0.00    0.0
1651 465724.500   48.780882842    8.917935867   493.2073   5  10   3.1730   2.1503   4.2962   0.7265  -0.5735  -0.8419   0.00    0.0
1651 465725.000   48.780882858    8.917935842   493.2067   5  10   3.1731   2.1503   4.2963   0.7266  -0.5732  -0.8420   0.00    0.0
1651 465725.500   48.780882845    8.917935811   493.2155   5  10   3.1733   2.1503   4.2963   0.7267  -0.5729  -0.8420   0.00    0.0
1651 465726.000   48.780882865    8.917935837   493.2087   5  10   3.1735   2.1503   4.2963   0.7268  -0.5725  -0.8421   0.00    0.0
1651 465726.500   48.780882897    8.917935845   493.2076   5  10   3.1736   2.1503   4.2963   0.7269  -0.5722  -0.8421   0.00    0.0
1651 465727.000   48.780882929    8.917935796   493.2093   5  10   3.1738   2.1502   4.2963   0.7270  -0.5719  -0.8421   0.00    0.0
1651 465727.500   48.780882985    8.917935758   493.2103   5  10   3.1739   2.1502   4.2963   0.7271  -0.5716  -0.8422   0.00    0.0
1651 465728.000   48.780882995    8.917935748   493.2104   5  10   3.1741   2.1502   4.2963   0.7273  -0.5713  -0.8422   0.00    0.0
1651 465728.500   48.780883042    8.917935697   493.2051   5  10   3.1742   2.1502   4.2964   0.7274  -0.5710  -0.8423   0.00    0.0
1651 465729.000   48.780883073    8.917935729   493.2017   5  10   3.1744   2.1502   4.2964   0.7275  -0.5707  -0.8423   0.00    0.0
1651 465729.500   48.780883092    8.917935711   493.2083   5  10   3.1745   2.1501   4.2964   0.7276  -0.5704  -0.8424   0.00    0.0
1651 465730.000   48.780883072    8.917935744   493.2145   5  10   3.1747   2.1501   4.2964   0.7277  -0.5701  -0.8424   0.00    0.0
1651 465730.500   48.780883081    8.917935703   493.2058   5  10   3.1748   2.1501   4.2964   0.7278  -0.5698  -0.8424   0.00    0.0
1651 465731.000   48.780883079    8.917935682   493.2103   5  10   3.1750   2.1501   4.2964   0.7279  -0.5695  -0.8425   0.00    0.0
1651 465731.500   48.780883020    8.917935672   493.2201   5  10   3.1751   2.1500   4.2964   0.7280  -0.5692  -0.8425   0.00    0.0
1651 465732.000   48.780883059    8.917935690   493.2154   5  10   3.1753   2.1500   4.2964   0.7282  -0.5689  -0.8426   0.00    0.0
1651 465732.500   48.780883033    8.917935648   493.2236   5  10   3.1754   2.1500   4.2965   0.7283  -0.5686  -0.8426   0.00    0.0
1651 465733.000   48.780883162    8.917935675   493.2169   5  10   3.1756   2.1500   4.2965   0.7284  -0.5683  -0.8426   0.00    0.0
1651 465733.500   48.780883177    8.917935685   493.2244   5  10   3.1757   2.1500   4.2965   0.7285  -0.5680  -0.8427   0.00    0.0
1651 465734.000   48.780883236    8.917935694   493.2222   5  10   3.1759   2.1499   4.2965   0.7286  -0.5677  -0.8427   0.00    0.0
1651 465734.500   48.780883254    8.917935707   493.2242   5  10   3.1761   2.1499   4.2965   0.7287  -0.5674  -0.8428   0.00    0.0
1651 465735.000   48.780883298    8.917935673   493.2272   5  10   3.1762   2.1499   4.2965   0.7288  -0.5670  -0.8428   0.00    0.0
1651 465735.500   48.780883377    8.917935701   493.2249   5  10   3.1764   2.1499   4.2965   0.7289  -0.5667  -0.8428   0.00    0.0
1651 465736.000   48.780883372    8.917935658   493.2322   5  10   3.1765   2.1498   4.2966   0.7290  -0.5664  -0.8429   0.00    0.0
1651 465736.500   48.780883408    8.917935678   493.2432   5  10   3.1767   2.1498   4.2966   0.7292  -0.5661  -0.8429   0.00    0.0
1651 465737.000   48.780883374    8.917935716   493.2487   5  10   3.1768   2.1498   4.2966   0.7293  -0.5658  -0.8429   0.00    0.0
1651 465737.500   48.780883430    8.917935735   493.2402   5  10   3.1770   2.1498   4.2966   0.7294  -0.5655  -0.8430   0.00    0.0
1651 465738.000   48.780883415    8.917935783   493.2399   5  10   3.1771   2.1498   4.2966   0.7295  -0.5652  -0.8430   0.00    0.0
1651 465738.500   48.780883418    8.917935754   493.2376   5  10   3.1773   2.1497   4.2966   0.7296  -0.5649  -0.8431   0.00    0.0
1651 465739.000   48.780883441    8.917935767   493.2428   5  10   3.1774   2.1497   4.2966   0.7297  -0.5646  -0.8431   0.00    0.0
1651 465739.500   48.780883470    8.917935753   493.2451   5  10   3.1776   2.1497   4.2967   0.7298  -0.5643  -0.8431   0.00    0.0
1651 465740.000   48.780883486    8.917935754   493.2357   5  10   3.1777   2.1497   4.2967   0.7299  -0.5640  -0.8432   0.00    0.0
1651 465740.500   48.780883532    8.917935758   493.2351   5  10   3.1779   2.1497   4.2967   0.7301  -0.5637  -0.8432   0.00    0.0
1651 465741.000   48.780883572    8.917935742   493.2297   5  10   3.1780   2.1496   4.2967   0.7302  -0.5634  -0.8433   0.00    0.0
1651 465741.500   48.780883604    8.917935770   493.2301   5  10   3.1782   2.1496   4.2967   0.7303  -0.5630  -0.8433   0.00    0.0
1651 465742.000   48.780883589    8.917935776   493.2302   5  10   3.1783   2.1496   4.2967   0.7304  -0.5627  -0.8433   0.00    0.0
1651 465742.500   48.780883638    8.917935740   493.2401   5  10   3.1785   2.1496   4.2967   0.7305  -0.5624  -0.8434   0.00    0.0
1651 465743.000   48.780883653    8.917935800   493.2385   5  10   3.1787   2.1495   4.2968   0.7306  -0.5621  -0.8434   0.00    0.0
1651 465743.500   48.780883630    8.917935794   493.2447   5  10   3.1788   2.1495   4.2968   0.7307  -0.5618  -0.8435   0.00    0.0
1651 465744.000   48.780883714    8.917935785   493.2366   5  10   3.1790   2.1495   4.2968   0.7308  -0.5615  -0.8435   0.00    0.0
1651 465744.500   48.780883668    8.917935880   493.2435   5  10   3.1791   2.1495   4.2968   0.7310  -0.5612  -0.8435   0.00    0.0
1651 465745.000   48.780883660    8.917935846   493.2483   5  10   3.1793   2.1495   4.2968   0.7311  -0.5609  -0.8436   0.00    0.0
1651 465745.500   48.780883713    8.917935837   493.2466   5  10   3.1794   2.1494   4.2968   0.7312  -0.5606  -0.8436   0.00    0.0
1651 465746.000   48.780883702    8.917935865   493.2580   5  10   3.1796   2.1494   4.2968   0.7313  -0.5603  -0.8437   0.00    0.0
1651 465746.500   48.780883704    8.917935900   493.2654   5  10   3.1797   2.1494   4.2969   0.7314  -0.5600  -0.8437   0.00    0.0
1651 465747.000   48.780883715    8.917935916   493.2596   5  10   3.1799   2.1494   4.2969   0.7315  -0.5596  -0.8437   0.00    0.0
1651 465747.500   48.780883762    8.917935872   493.2571   5  10   3.1800   2.1494   4.2969   0.7316  -0.5593  -0.8438   0.00    0.0
1651 465748.000   48.780883793    8.917935905   493.2521   5  10   3.1802   2.1493   4.2969   0.7317  -0.5590  -0.8438   0.00    0.0
1651 465748.500   48.780883761    8.917935877   493.2616   5  10   3.1803   2.1493   4.2969   0.7319  -0.5587  -0.8438   0.00    0.0
1651 465749.000   48.780883758    8.917935922   493.2618   5  10   3.1805   2.1493   4.2969   0.7320  -0.5584  -0.8439   0.00    0.0
1651 465749.500   48.780883800    8.917935952   493.2521   5  10   3.1806   2.1493   4.2969   0.7321  -0.5581  -0.8439   0.00    0.0
1651 465750.000   48.780883799    8.917935954   493.2574   5  10   3.1808   2.1493   4.2970   0.7322  -0.5578  -0.8440   0.00    0.0
1651 465750.500   48.780883789    8.917935936   493.2642   5  10   3.1810   2.1492   4.2970   0.7323  -0.5575  -0.8440   0.00    0.0
1651 465751.000   48.780883818    8.917935962   493.2588   5  10   3.1811   2.1492   4.2970   0.7324  -0.5572  -0.8440   0.00    0.0
1651 465751.500   48.780883780    8.917935942   493.2682   5  10   3.1813   2.1492   4.2970   0.7325  -0.5568  -0.8441   0.00    0.0
1651 465752.000   48.780883785    8.917935927   493.2651   5  10   3.1814   2.1492   4.2970   0.7326  -0.5565  -0.8441   0.00    0.0
1651 465752.500   48.780883792    8.917935914   493.2661   5  10   3.1816   2.1491   4.2970   0.7328  -0.5562  -0.8441   0.00    0.0
1651 465753.000   48.780883814    8.917935949   493.2634   5  10   3.1817   2.1491   4.2970   0.7329  -0.5559  -0.8442   0.00    0.0
1651 465753.500   48.780883828    8.917935882   493.2678   5  10   3.1819   2.1491   4.2971   0.7330  -0.5556  -0.8442   0.00    0.0
1651 465754.000   48.780883851    8.917935886   493.2678   5  10   3.1820   2.1491   4.2971   0.7331  -0.5553  -0.8443   0.00    0.0
1651 465754.500   48.780883881    8.917935870   493.2555   5  10   3.1822   2.1491   4.2971   0.7332  -0.5550  -0.8443   0.00    0.0
1651 465755.000   48.780883879    8.917935831   493.2633   5  10   3.1823   2.1490   4.2971   0.7333  -0.5547  -0.8443   0.00    0.0
1651 465755.500   48.780883901    8.917935824   493.2709   5  10   3.1825   2.1490   4.2971   0.7334  -0.5543  -0.8444   0.00    0.0
1651 465756.000   48.780883926    8.917935799   493.2664   5  10   3.1826   2.1490   4.2971   0.7335  -0.5540  -0.8444   0.00    0.0
1651 465756.500   48.780883872    8.917935764   493.2690   5  10   3.1828   2.1490   4.2971   0.7336  -0.5537  -0.8444   0.00    0.0
1651 465757.000   48.780883924    8.917935698   493.2673   5  10   3.1829   2.1490   4.2972   0.7338  -0.5534  -0.8445   0.00    0.0
1651 465757.500   48.780883960    8.917935629   493.2619   5  10   3.1831   2.1489   4.2972   0.7339  -0.5531  -0.8445   0.00    0.0
1651 465758.000   48.780883976    8.917935543   493.2566   5  10   3.1833   2.1489   4.2972   0.7340  -0.5528  -0.8446   0.00    0.0
1651 465758.500   48.780883970    8.917935553   493.2674   5  10   3.1834   2.1489   4.2972   0.7341  -0.5525  -0.8446   0.00    0.0
1651 465759.000   48.780884001    8.917935572   493.2732   5  10   3.1836   2.1489   4.2972   0.7342  -0.5521  -0.8446   0.00    0.0
1651 465759.500   48.780883985    8.917935576   493.2892   5  10   3.1837   2.1489   4.2972   0.7343  -0.5518  -0.8447   0.00    0.0
1651 465760.000   48.780883993    8.917935545   493.2810   5  10   3.1839   2.1488   4.2973   0.7344  -0.5515  -0.8447   0.00    0.0
1651 465760.500   48.780884064    8.917935516   493.2855   5  10   3.1840   2.1488   4.2973   0.7345  -0.5512  -0.8447   0.00    0.0
1651 465761.000   48.780884058    8.917935559   493.2845   5  10   3.1842   2.1488   4.2973   0.7347  -0.5509  -0.8448   0.00    0.0
1651 465761.500   48.780884031    8.917935501   493.2878   5  10   3.1843   2.1488   4.2973   0.7348  -0.5506  -0.8448   0.00    0.0
1651 465762.000   48.780884095    8.917935460   493.2793   5  10   3.1845   2.1488   4.2973   0.7349  -0.5503  -0.8449   0.00    0.0
1651 465762.500   48.780884103    8.917935426   493.2847   5  10   3.1846   2.1487   4.2973   0.7350  -0.5499  -0.8449   0.00    0.0
1651 465763.000   48.780884146    8.917935426   493.2886   5  10   3.1848   2.1487   4.2973   0.7351  -0.5496  -0.8449   0.00    0.0
1651 465763.500   48.780884180    8.917935467   493.2873   5  10   3.1849   2.1487   4.2974   0.7352  -0.5493  -0.8450   0.00    0.0
1651 465764.000   48.780884234    8.917935489   493.2932   5  10   3.1851   2.1487   4.2974   0.7353  -0.5490  -0.8450   0.00    0.0
1651 465764.500   48.780884251    8.917935452   493.2831   5  10   3.1853   2.1486   4.2974   0.7354  -0.5487  -0.8450   0.00    0.0
1651 465765.000   48.780884241    8.917935466   493.2824   5  10   3.1854   2.1486   4.2974   0.7356  -0.5484  -0.8451   0.00    0.0
1651 465765.500   48.780884261    8.917935497   493.2903   5  10   3.1856   2.1486   4.2974   0.7357  -0.5480  -0.8451   0.00    0.0
1651 465766.000   48.780884255    8.917935467   493.2807   5  10   3.1857   2.1486   4.2974   0.7358  -0.5477  -0.8452   0.00    0.0
1651 465766.500   48.780884234    8.917935519   493.2812   5  10   3.1859   2.1486   4.2974   0.7359  -0.5474  -0.8452   0.00    0.0
1651 465767.000   48.780884253    8.917935501   493.2856   5  10   3.1860   2.1485   4.2975   0.7360  -0.5471  -0.8452   0.00    0.0
1651 465767.500   48.780884268    8.917935484   493.2839   5  10   3.1862   2.1485   4.2975   0.7361  -0.5468  -0.8453   0.00    0.0
1651 465768.000   48.780884224    8.917935469   493.2872   5  10   3.1863   2.1485   4.2975   0.7362  -0.5465  -0.8453   0.00    0.0
1651 465768.500   48.780884232    8.917935457   493.2807   5  10   3.1865   2.1485   4.2975   0.7363  -0.5461  -0.8453   0.00    0.0
1651 465769.000   48.780884227    8.917935498   493.2825   5  10   3.1866   2.1485   4.2975   0.7365  -0.5458  -0.8454   0.00    0.0
1651 465769.500   48.780884235    8.917935442   493.2919   5  10   3.1868   2.1484   4.2975   0.7366  -0.5455  -0.8454   0.00    0.0
1651 465770.000   48.780884238    8.917935421   493.2900   5  10   3.1869   2.1484   4.2975   0.7367  -0.5452  -0.8454   0.00    0.0
1651 465770.500   48.780884232    8.917935422   493.2970   5  10   3.1871   2.1484   4.2976   0.7368  -0.5449  -0.8455   0.00    0.0
1651 465771.000   48.780884264    8.917935372   493.2956   5  10   3.1873   2.1484   4.2976   0.7369  -0.5446  -0.8455   0.00    0.0
1651 465771.500   48.780884280    8.917935414   493.3033   5  10   3.1874   2.1484   4.2976   0.7370  -0.5442  -0.8456   0.00    0.0
1651 465772.000   48.780884301    8.917935386   493.3067   5  10   3.1876   2.1483   4.2976   0.7371  -0.5439  -0.8456   0.00    0.0
1651 465772.500   48.780884343    8.917935335   493.2985   5  10   3.1877   2.1483   4.2976   0.7372  -0.5436  -0.8456   0.00    0.0
1651 465773.000   48.780884361    8.917935359   493.2975   5  10   3.1879   2.1483   4.2976   0.7373  -0.5433  -0.8457   0.00    0.0
1651 465773.500   48.780884375    8.917935352   493.2980   5  10   3.1880   2.1483   4.2977   0.7375  -0.5430  -0.8457   0.00    0.0
1651 465774.000   48.780884405    8.917935311   493.3017   5  10   3.1882   2.1483   4.2977   0.7376  -0.5426  -0.8457   0.00    0.0
1651 465774.500   48.780884414    8.917935339   493.3030   5  10   3.1883   2.1482   4.2977   0.7377  -0.5423  -0.8458   0.00    0.0
1651 465775.000   48.780884428    8.917935377   493.2989   5  10   3.1885   2.1482   4.2977   0.7378  -0.5420  -0.8458   0.00    0.0
1651 465775.500   48.780884443    8.917935336   493.2971   5  10   3.1886   2.1482   4.2977   0.7379  -0.5417  -0.8458   0.00    0.0
1651 465776.000   48.780884458    8.917935369   493.3015   5  10   3.1888   2.1482   4.2977   0.7380  -0.5414  -0.8459   0.00    0.0
1651 465776.500   48.780884452    8.917935312   493.2951   5  10   3.1889   2.1482   4.2977   0.7381  -0.5410  -0.8459   0.00    0.0
1651 465777.000   48.780884440    8.917935320   493.3013   5  10   3.1891   2.1481   4.2978   0.7382  -0.5407  -0.8459   0.00    0.0
1651 465777.500   48.780884415    8.917935324   493.3095   5  10   3.1893   2.1481   4.2978   0.7384  -0.5404  -0.8460   0.00    0.0
1651 465778.000   48.780884432    8.917935294   493.3082   5  10   3.1894   2.1481   4.2978   0.7385  -0.5401  -0.8460   0.00    0.0
1651 465778.500   48.780884387    8.917935259   493.3121   5  10   3.1896   2.1481   4.2978   0.7386  -0.5398  -0.8460   0.00    0.0
1651 465779.000   48.780884395    8.917935279   493.3184   5  10   3.1897   2.1481   4.2978   0.7387  -0.5394  -0.8461   0.00    0.0
1651 465779.500   48.780884454    8.917935257   493.3136   5  10   3.1899   2.1480   4.2978   0.7388  -0.5391  -0.8461   0.00    0.0
1651 465780.000   48.780884458    8.917935262   493.3142   5  10   3.1900   2.1480   4.2978   0.7389  -0.5388  -0.8462   0.00    0.0
1651 465780.500   48.780884469    8.917935224   493.3139   5  10   3.1902   2.1480   4.2979   0.7390  -0.5385  -0.8462   0.00    0.0
1651 465781.000   48.780884407    8.917935181   493.3202   5  10   3.1903   2.1480   4.2979   0.7391  -0.5382  -0.8462   0.00    0.0
1651 465781.500   48.780884434    8.917935203   493.3216   5  10   3.1905   2.1480   4.2979   0.7393  -0.5378  -0.8463   0.00    0.0
1651 465782.000   48.780884458    8.917935143   493.3177   5  10   3.1906   2.1479   4.2979   0.7394  -0.5375  -0.8463   0.00    0.0
1651 465782.500   48.780884496    8.917935104   493.3189   5  10   3.1908   2.1479   4.2979   0.7395  -0.5372  -0.8463   0.00    0.0
1651 465783.000   48.780884562    8.917935094   493.3257   5  10   3.1909   2.1479   4.2979   0.7396  -0.5369  -0.8464   0.00    0.0
1651 465783.500   48.780884598    8.917935161   493.3253   5  10   3.1911   2.1479   4.2980   0.7397  -0.5366  -0.8464   0.00    0.0
1651 465784.000   48.780884627    8.917935161   493.3177   5  10   3.1913   2.1479   4.2980   0.7398  -0.5362  -0.8464   0.00    0.0
1651 465784.500   48.780884648    8.917935178   493.3216   5  10   3.1914   2.1478   4.2980   0.7399  -0.5359  -0.8465   0.00    0.0
1651 465785.000   48.780884660    8.917935095   493.3234   5  10   3.1916   2.1478   4.2980   0.7400  -0.5356  -0.8465   0.00    0.0
1651 465785.500   48.780884667    8.917935100   493.3236   5  10   3.1917   2.1478   4.2980   0.7402  -0.5353  -0.8465   0.00    0.0
1651 465786.000   48.780884663    8.917935099   493.3164   5  10   3.1919   2.1478   4.2980   0.7403  -0.5349  -0.8466   0.00    0.0
1651 465786.500   48.780884655    8.917935087   493.3234   5  10   3.1920   2.1478   4.2980   0.7404  -0.5346  -0.8466   0.00    0.0
1651 465787.000   48.780884675    8.917935104   493.3249   5  10   3.1922   2.1477   4.2981   0.7405  -0.5343  -0.8466   0.00    0.0
1651 465787.500   48.780884695    8.917935090   493.3193   5  10   3.1923   2.1477   4.2981   0.7406  -0.5340  -0.8467   0.00    0.0
1651 465788.000   48.780884677    8.917935094   493.3257   5  10   3.1925   2.1477   4.2981   0.7407  -0.5336  -0.8467   0.00    0.0
1651 465788.500   48.780884622    8.917935093   493.3200   5  10   3.1926   2.1477   4.2981   0.7408  -0.5333  -0.8467   0.00    0.0
1651 465789.000   48.780884635    8.917935112   493.3128   5  10   3.1928   2.1477   4.2981   0.7409  -0.5330  -0.8468   0.00    0.0
1651 465789.500   48.780884637    8.917935142   493.3135   5  10   3.1930   2.1476   4.2981   0.7411  -0.5327  -0.8468   0.00    0.0
1651 465790.000   48.780884600    8.917935177   493.3158   5  10   3.1931   2.1476   4.2982   0.7412  -0.5323  -0.8468   0.00    0.0
1651 465790.500   48.780884644    8.917935179   493.3134   5  10   3.1933   2.1476   4.2982   0.7413  -0.5320  -0.8469   0.00    0.0
1651 465791.000   48.780884596    8.917935192   493.3126   5  10   3.1934   2.1476   4.2982   0.7414  -0.5317  -0.8469   0.00    0.0
1651 465791.500   48.780884604    8.917935203   493.3027   5  10   3.1936   2.1476   4.2982   0.7415  -0.5314  -0.8469   0.00    0.0
1651 465792.000   48.780884622    8.917935232   493.3067   5  10   3.1937   2.1475   4.2982   0.7416  -0.5310  -0.8470   0.00    0.0
1651 465792.500   48.780884668    8.917935247   493.3016   5  10   3.1939   2.1475   4.2982   0.7417  -0.5307  -0.8470   0.00    0.0
1651 465793.000   48.780884706    8.917935272   493.3103   5  10   3.1940   2.1475   4.2982   0.7418  -0.5304  -0.8471   0.00    0.0
1651 465793.500   48.780884682    8.917935286   493.3040   5  10   3.1942   2.1475   4.2983   0.7419  -0.5301  -0.8471   0.00    0.0
1651 465794.000   48.780884647    8.917935275   493.3024   5  10   3.1943   2.1475   4.2983   0.7421  -0.5297  -0.8471   0.00    0.0
1651 465794.500   48.780884690    8.917935251   493.3063   5  10   3.1945   2.1474   4.2983   0.7422  -0.5294  -0.8472   0.00    0.0
1651 465795.000   48.780884732    8.917935253   493.2983   5  10   3.1947   2.1474   4.2983   0.7423  -0.5291  -0.8472   0.00    0.0
1651 465795.500   48.780884716    8.917935200   493.2944   5  10   3.1948   2.1474   4.2983   0.7424  -0.5288  -0.8472   0.00    0.0
1651 465796.000   48.780884744    8.917935289   493.2947   5  10   3.1950   2.1474   4.2983   0.7425  -0.5284  -0.8473   0.00    0.0
1651 465796.500   48.780884726    8.917935252   493.2991   5  10   3.1951   2.1474   4.2984   0.7426  -0.5281  -0.8473   0.00    0.0
1651 465797.000   48.780884748    8.917935281   493.2982   5  10   3.1953   2.1473   4.2984   0.7427  -0.5278  -0.8473   0.00    0.0
1651 465797.500   48.780884742    8.917935250   493.2958   5  10   3.1954   2.1473   4.2984   0.7428  -0.5275  -0.8474   0.00    0.0
1651 465798.000   48.780884786    8.917935245   493.2923   5  10   3.1956   2.1473   4.2984   0.7430  -0.5271  -0.8474   0.00    0.0
1651 465798.500   48.780884765    8.917935340   493.3049   5  10   3.1957   2.1473   4.2984   0.7431  -0.5268  -0.8474   0.00    0.0
1651 465799.000   48.780884783    8.917935302   493.2886   5  10   3.1959   2.1473   4.2984   0.7432  -0.5265  -0.8475   0.00    0.0
1651 465799.500   48.780884766    8.917935298   493.2912   5  10   3.1960   2.1472   4.2984   0.7433  -0.5261  -0.8475   0.00    0.0
1651 465800.000   48.780884757    8.917935300   493.2889   5  10   3.1962   2.1472   4.2985   0.7434  -0.5258  -0.8475   0.00    0.0
1651 465800.500   48.780884711    8.917935241   493.2974   5  10   3.1964   2.1472   4.2985   0.7435  -0.5255  -0.8476   0.00    0.0
1651 465801.000   48.780884716    8.917935308   493.2955   5  10   3.1965   2.1472   4.2985   0.7436  -0.5252  -0.8476   0.00    0.0
1651 465801.500   48.780884705    8.917935288   493.2941   5  10   3.1967   2.1472   4.2985   0.7437  -0.5248  -0.8476   0.00    0.0
1651 465802.000   48.780884749    8.917935326   493.2962   5  10   3.1968   2.1471   4.2985   0.7439  -0.5245  -0.8477   0.00    0.0
1651 465802.500   48.780884794    8.917935356   493.2889   5  10   3.1970   2.1471   4.2985   0.7440  -0.5242  -0.8477   0.00    0.0
1651 465803.000   48.780884751    8.917935355   493.2845   5  10   3.1971   2.1471   4.2986   0.7441  -0.5238  -0.8477   0.00    0.0
1651 465803.500   48.780884722    8.917935388   493.2857   5  10   3.1973   2.1471   4.2986   0.7442  -0.5235  -0.8478   0.00    0.0
1651 465804.000   48.780884758    8.917935389   493.2829   5  10   3.1974   2.1471   4.2986   0.7443  -0.5232  -0.8478   0.00    0.0
1651 465804.500   48.780884728    8.917935338   493.2711   5  10   3.1976   2.1470   4.2986   0.7444  -0.5228  -0.8478   0.00    0.0
1651 465805.000   48.780884766    8.917935328   493.2638   5  10   3.1977   2.1470   4.2986   0.7445  -0.5225  -0.8478   0.00    0.0
1651 465805.500   48.780884751    8.917935369   493.2708   5  10   3.1979   2.1470   4.2986   0.7446  -0.5222  -0.8479   0.00    0.0
1651 465806.000   48.780884774    8.917935363   493.2679   5  10   3.1981   2.1470   4.2987   0.7448  -0.5219  -0.8479   0.00    0.0
1651 465806.500   48.780884772    8.917935343   493.2604   5  10   3.1982   2.1470   4.2987   0.7449  -0.5215  -0.8479   0.00    0.0
1651 465807.000   48.780884819    8.917935364   493.2564   5  10   3.1984   2.1469   4.2987   0.7450  -0.5212  -0.8480   0.00    0.0
1651 465807.500   48.780884773    8.917935378   493.2610   5  10   3.1985   2.1469   4.2987   0.7451  -0.5209  -0.8480   0.00    0.0
1651 465808.000   48.780884766    8.917935345   493.2628   5  10   3.1987   2.1469   4.2987   0.7452  -0.5205  -0.8480   0.00    0.0
1651 465808.500   48.780884745    8.917935335   493.2682   5  10   3.1988   2.1469   4.2987   0.7453  -0.5202  -0.8481   0.00    0.0
1651 465809.000   48.780884720    8.917935291   493.2600   5  10   3.1990   2.1469   4.2987   0.7454  -0.5199  -0.8481   0.00    0.0
1651 465809.500   48.780884682    8.917935310   493.2570   5  10   3.1991   2.1469   4.2988   0.7455  -0.5195  -0.8481   0.00    0.0
1651 465810.000   48.780884675    8.917935322   493.2582   5  10   3.1993   2.1468   4.2988   0.7457  -0.5192  -0.8482   0.00    0.0
1651 465810.500   48.780884660    8.917935303   493.2532   5  10   3.1994   2.1468   4.2988   0.7458  -0.5189  -0.8482   0.00    0.0
1651 465811.000   48.780884661    8.917935255   493.2516   5  10   3.1996   2.1468   4.2988   0.7459  -0.5185  -0.8482   0.00    0.0
1651 465811.500   48.780884599    8.917935282   493.2526   5  10   3.1998   2.1468   4.2988   0.7460  -0.5182  -0.8483   0.00    0.0
1651 465812.000   48.780884624    8.917935297   493.2487   5  10   3.1999   2.1468   4.2988   0.7461  -0.5179  -0.8483   0.00    0.0
1651 465812.500   48.780884635    8.917935263   493.2422   5  10   3.2001   2.1467   4.2989   0.7462  -0.5175  -0.8483   0.00    0.0
1651 465813.000   48.780884672    8.917935239   493.2417   5  10   3.2002   2.1467   4.2989   0.7463  -0.5172  -0.8484   0.00    0.0
1651 465813.500   48.780884635    8.917935208   493.2443   5  10   3.2004   2.1467   4.2989   0.7464  -0.5169  -0.8484   0.00    0.0
1651 465814.000   48.780884652    8.917935242   493.2472   5  10   3.2005   2.1467   4.2989   0.7465  -0.5165  -0.8484   0.00    0.0
1651 465814.500   48.780884649    8.917935254   493.2481   5  10   3.2007   2.1467   4.2989   0.7467  -0.5162  -0.8485   0.00    0.0
1651 465815.000   48.780884641    8.917935226   493.2447   5  10   3.2008   2.1466   4.2989   0.7468  -0.5159  -0.8485   0.00    0.0
1651 465815.500   48.780884593    8.917935244   493.2389   5  10   3.2010   2.1466   4.2990   0.7469  -0.5155  -0.8485   0.00    0.0
1651 465816.000   48.780884586    8.917935253   493.2394   5  10   3.2012   2.1466   4.2990   0.7470  -0.5152  -0.8486   0.00    0.0
1651 465816.500   48.780884594    8.917935289   493.2496   5  10   3.2013   2.1466   4.2990   0.7471  -0.5149  -0.8486   0.00    0.0
1651 465817.000   48.780884625    8.917935247   493.2493   5  10   3.2015   2.1466   4.2990   0.7472  -0.5145  -0.8486   0.00    0.0
1651 465817.500   48.780884660    8.917935284   493.2461   5  10   3.2016   2.1465   4.2990   0.7473  -0.5142  -0.8487   0.00    0.0
1651 465818.000   48.780884695    8.917935269   493.2514   5  10   3.2018   2.1465   4.2990   0.7474  -0.5139  -0.8487   0.00    0.0
1651 465818.500   48.780884693    8.917935348   493.2525   5  10   3.2019   2.1465   4.2990   0.7476  -0.5135  -0.8487   0.00    0.0
1651 465819.000   48.780884683    8.917935296   493.2565   5  10   3.2021   2.1465   4.2991   0.7477  -0.5132  -0.8487   0.00    0.0
1651 465819.500   48.780884696    8.917935320   493.2560   5  10   3.2022   2.1465   4.2991   0.7478  -0.5128  -0.8488   0.00    0.0
1651 465820.000   48.780884752    8.917935313   493.2645   5  10   3.2024   2.1465   4.2991   0.7479  -0.5125  -0.8488   0.00    0.0
1651 465820.500   48.780884734    8.917935288   493.2697   5  10   3.2025   2.1464   4.2991   0.7480  -0.5122  -0.8488   0.00    0.0
1651 465821.000   48.780884709    8.917935343   493.2686   5  10   3.2027   2.1464   4.2991   0.7481  -0.5118  -0.8489   0.00    0.0
1651 465821.500   48.780884757    8.917935324   493.2752   5  10   3.2029   2.1464   4.2991   0.7482  -0.5115  -0.8489   0.00    0.0
1651 465822.000   48.780884726    8.917935259   493.2854   5  10   3.2030   2.1464   4.2992   0.7483  -0.5112  -0.8489   0.00    0.0
1651 465822.500   48.780884741    8.917935280   493.2803   5  10   3.2032   2.1464   4.2992   0.7485  -0.5108  -0.8490   0.00    0.0
1651 465823.000   48.780884765    8.917935297   493.2777   5  10   3.2033   2.1463   4.2992   0.7486  -0.5105  -0.8490   0.00    0.0
1651 465823.500   48.780884776    8.917935313   493.2834   5  10   3.2035   2.1463   4.2992   0.7487  -0.5101  -0.8490   0.00    0.0
1651 465824.000   48.780884710    8.917935346   493.2880   5  10   3.2036   2.1463   4.2992   0.7488  -0.5098  -0.8491   0.00    0.0
1651 465824.500   48.780884748    8.917935332   493.2914   5  10   3.2038   2.1463   4.2992   0.7489  -0.5095  -0.8491   0.00    0.0
1651 465825.000   48.780884820    8.917935338   493.2851   5  10   3.2039   2.1463   4.2993   0.7490  -0.5091  -0.8491   0.00    0.0
1651 465825.500   48.780884847    8.917935284   493.2835   5  10   3.2041   2.1462   4.2993   0.7491  -0.5088  -0.8491   0.00    0.0
1651 465826.000   48.780884822    8.917935297   493.2834   5  10   3.2043   2.1462   4.2993   0.7492  -0.5085  -0.8492   0.00    0.0
1651 465826.500   48.780884854    8.917935242   493.2818   5  10   3.2044   2.1462   4.2993   0.7494  -0.5081  -0.8492   0.00    0.0
1651 465827.000   48.780884897    8.917935257   493.2793   5  10   3.2046   2.1462   4.2993   0.7495  -0.5078  -0.8492   0.00    0.0
1651 465827.500   48.780884887    8.917935273   493.2795   5  10   3.2047   2.1462   4.2993   0.7496  -0.5074  -0.8493   0.00    0.0
1651 465828.000   48.780884907    8.917935206   493.2840   5  10   3.2049   2.1462   4.2994   0.7497  -0.5071  -0.8493   0.00    0.0
1651 465828.500   48.780884858    8.917935242   493.2830   5  10   3.2050   2.1461   4.2994   0.7498  -0.5068  -0.8493   0.00    0.0
1651 465829.000   48.780884827    8.917935291   493.2795   5  10   3.2052   2.1461   4.2994   0.7499  -0.5064  -0.8494   0.00    0.0
1651 465829.500   48.780884858    8.917935276   493.2880   5  10   3.2053   2.1461   4.2994   0.7500  -0.5061  -0.8494   0.00    0.0
1651 465830.000   48.780884833    8.917935224   493.2888   5  10   3.2055   2.1461   4.2994   0.7501  -0.5057  -0.8494   0.00    0.0
1651 465830.500   48.780884880    8.917935185   493.2880   5  10   3.2057   2.1461   4.2994   0.7503  -0.5054  -0.8495   0.00    0.0
1651 465831.000   48.780884866    8.917935138   493.2887   5  10   3.2058   2.1460   4.2995   0.7504  -0.5051  -0.8495   0.00    0.0
1651 465831.500   48.780884819    8.917935113   493.2889   5  10   3.2060   2.1460   4.2995   0.7505  -0.5047  -0.8495   0.00    0.0
1651 465832.000   48.780884865    8.917935089   493.2961   5  10   3.2061   2.1460   4.2995   0.7506  -0.5044  -0.8495   0.00    0.0
1651 465832.500   48.780884802    8.917935064   493.2882   5  10   3.2063   2.1460   4.2995   0.7507  -0.5040  -0.8496   0.00    0.0
1651 465833.000   48.780884781    8.917935098   493.2895   5  10   3.2064   2.1460   4.2995   0.7508  -0.5037  -0.8496   0.00    0.0
1651 465833.500   48.780884760    8.917935079   493.2868   5  10   3.2066   2.1459   4.2995   0.7509  -0.5033  -0.8496   0.00    0.0
1651 465834.000   48.780884753    8.917935047   493.2863   5  10   3.2067   2.1459   4.2996   0.7510  -0.5030  -0.8497   0.00    0.0
1651 465834.500   48.780884682    8.917935097   493.2863   5  10   3.2069   2.1459   4.2996   0.7511  -0.5027  -0.8497   0.00    0.0
1651 465835.000   48.780884724    8.917935117   493.2829   5  10   3.2070   2.1459   4.2996   0.7513  -0.5023  -0.8497   0.00    0.0
1651 465835.500   48.780884728    8.917935059   493.2829   5  10   3.2072   2.1459   4.2996   0.7514  -0.5020  -0.8498   0.00    0.0
1651 465836.000   48.780884675    8.917934992   493.2845   5  10   3.2074   2.1459   4.2996   0.7515  -0.5016  -0.8498   0.00    0.0
1651 465836.500   48.780884666    8.917935013   493.2835   5  10   3.2075   2.1458   4.2996   0.7516  -0.5013  -0.8498   0.00    0.0
1651 465837.000   48.780884620    8.917934993   493.2882   5  10   3.2077   2.1458   4.2997   0.7517  -0.5009  -0.8498   0.00    0.0
1651 465837.500   48.780884625    8.917934992   493.2945   5  10   3.2078   2.1458   4.2997   0.7518  -0.5006  -0.8499   0.00    0.0
1651 465838.000   48.780884582    8.917935042   493.2905   5  10   3.2080   2.1458   4.2997   0.7519  -0.5003  -0.8499   0.00    0.0
1651 465838.500   48.780884563    8.917935026   493.2948   5  10   3.2081   2.1458   4.2997   0.7520  -0.4999  -0.8499   0.00    0.0
1651 465839.000   48.780884529    8.917934998   493.2871   5  10   3.2083   2.1457   4.2997   0.7522  -0.4996  -0.8500   0.00    0.0
1651 465839.500   48.780884508    8.917934962   493.3033   5  10   3.2084   2.1457   4.2997   0.7523  -0.4992  -0.8500   0.00    0.0
1651 465840.000   48.780884512    8.917935037   493.3023   5  10   3.2086   2.1457   4.2998   0.7524  -0.4989  -0.8500   0.00    0.0
1651 465840.500   48.780884474    8.917935000   493.2967   5  10   3.2088   2.1457   4.2998   0.7525  -0.4985  -0.8500   0.00    0.0
1651 465841.000   48.780884483    8.917934981   493.2880   5  10   3.2089   2.1457   4.2998   0.7526  -0.4982  -0.8501   0.00    0.0
1651 465841.500   48.780884457    8.917934944   493.2956   5  10   3.2091   2.1457   4.2998   0.7527  -0.4978  -0.8501   0.00    0.0
1651 465842.000   48.780884498    8.917934937   493.2896   5  10   3.2092   2.1456   4.2998   0.7528  -0.4975  -0.8501   0.00    0.0
1651 465842.500   48.780884413    8.917934915   493.2912   5  10   3.2094   2.1456   4.2998   0.7529  -0.4972  -0.8502   0.00    0.0
1651 465843.000   48.780884392    8.917934956   493.2857   5  10   3.2095   2.1456   4.2999   0.7531  -0.4968  -0.8502   0.00    0.0
1651 465843.500   48.780884299    8.917935002   493.2787   5  10   3.2097   2.1456   4.2999   0.7532  -0.4965  -0.8502   0.00    0.0
1651 465844.000   48.780884313    8.917934925   493.2780   5  10   3.2098   2.1456   4.2999   0.7533  -0.4961  -0.8503   0.00    0.0
1651 465844.500   48.780884260    8.917934877   493.2892   5  10   3.2100   2.1455   4.2999   0.7534  -0.4958  -0.8503   0.00    0.0
1651 465845.000   48.780884305    8.917934931   493.2767   5  10   3.2102   2.1455   4.2999   0.7535  -0.4954  -0.8503   0.00    0.0
1651 465845.500   48.780884351    8.917934905   493.2792   5  10   3.2103   2.1455   4.2999   0.7536  -0.4951  -0.8503   0.00    0.0
1651 465846.000   48.780884418    8.917934861   493.2733   5  10   3.2105   2.1455   4.3000   0.7537  -0.4947  -0.8504   0.00    0.0
1651 465846.500   48.780884364    8.917934896   493.2765   5  10   3.2106   2.1455   4.3000   0.7538  -0.4944  -0.8504   0.00    0.0
1651 465847.000   48.780884357    8.917934916   493.2733   5  10   3.2108   2.1455   4.3000   0.7540  -0.4940  -0.8504   0.00    0.0
1651 465847.500   48.780884382    8.917934923   493.2730   5  10   3.2109   2.1454   4.3000   0.7541  -0.4937  -0.8505   0.00    0.0
1651 465848.000   48.780884335    8.917934875   493.2810   5  10   3.2111   2.1454   4.3000   0.7542  -0.4933  -0.8505   0.00    0.0
1651 465848.500   48.780884404    8.917934863   493.2797   5  10   3.2113   2.1454   4.3000   0.7543  -0.4930  -0.8505   0.00    0.0
1651 465849.000   48.780884487    8.917934823   493.2889   5  10   3.2114   2.1454   4.3001   0.7544  -0.4926  -0.8505   0.00    0.0
1651 465849.500   48.780884393    8.917934847   493.2876   5  10   3.2116   2.1454   4.3001   0.7545  -0.4923  -0.8506   0.00    0.0
1651 465850.000   48.780884430    8.917934830   493.2915   5  10   3.2117   2.1453   4.3001   0.7546  -0.4919  -0.8506   0.00    0.0
1651 465850.500   48.780884436    8.917934799   493.2926   5  10   3.2119   2.1453   4.3001   0.7547  -0.4916  -0.8506   0.00    0.0
1651 465851.000   48.780884436    8.917934795   493.2954   5  10   3.2120   2.1453   4.3001   0.7549  -0.4912  -0.8507   0.00    0.0
1651 465851.500   48.780884381    8.917934838   493.3065   5  10   3.2122   2.1453   4.3001   0.7550  -0.4909  -0.8507   0.00    0.0
1651 465852.000   48.780884309    8.917934850   493.3021   5  10   3.2123   2.1453   4.3002   0.7551  -0.4905  -0.8507   0.00    0.0
1651 465852.500   48.780884299    8.917934857   493.3070   5  10   3.2125   2.1453   4.3002   0.7552  -0.4902  -0.8507   0.00    0.0
1651 465853.000   48.780884248    8.917934838   493.2988   5  10   3.2127   2.1452   4.3002   0.7553  -0.4898  -0.8508   0.00    0.0
1651 465853.500   48.780884255    8.917934892   493.3078   5  10   3.2128   2.1452   4.3002   0.7554  -0.4895  -0.8508   0.00    0.0
1651 465854.000   48.780884257    8.917934849   493.3020   5  10   3.2130   2.1452   4.3002   0.7555  -0.4891  -0.8508   0.00    0.0
1651 465854.500   48.780884300    8.917934834   493.3067   5  10   3.2131   2.1452   4.3002   0.7556  -0.4888  -0.8508   0.00    0.0
1651 465855.000   48.780884267    8.917934815   493.3032   5  10   3.2133   2.1452   4.3003   0.7557  -0.4884  -0.8509   0.00    0.0
1651 465855.500   48.780884219    8.917934823   493.3084   5  10   3.2134   2.1451   4.3003   0.7559  -0.4881  -0.8509   0.00    0.0
1651 465856.000   48.780884163    8.917934863   493.3175   5  10   3.2136   2.1451   4.3003   0.7560  -0.4877  -0.8509   0.00    0.0
1651 465856.500   48.780884116    8.917934867   493.3168   5  10   3.2137   2.1451   4.3003   0.7561  -0.4874  -0.8510   0.00    0.0
1651 465857.000   48.780884127    8.917934867   493.3171   5  10   3.2139   2.1451   4.3003   0.7562  -0.4870  -0.8510   0.00    0.0
1651 465857.500   48.780884110    8.917934899   493.3141   5  10   3.2141   2.1451   4.3003   0.7563  -0.4867  -0.8510   0.00    0.0
1651 465858.000   48.780884134    8.917934876   493.3102   5  10   3.2142   2.1451   4.3004   0.7564  -0.4863  -0.8510   0.00    0.0
1651 465858.500   48.780884051    8.917934805   493.3106   5  10   3.2144   2.1450   4.3004   0.7565  -0.4859  -0.8511   0.00    0.0
1651 465859.000   48.780884025    8.917934822   493.3149   5  10   3.2145   2.1450   4.3004   0.7566  -0.4856  -0.8511   0.00    0.0
1651 465859.500   48.780884050    8.917934791   493.3128   5  10   3.2147   2.1450   4.3004   0.7568  -0.4852  -0.8511   0.00    0.0
1651 465860.000   48.780883993    8.917934830   493.3135   5  10   3.2148   2.1450   4.3004   0.7569  -0.4849  -0.8512   0.00    0.0
1651 465860.500   48.780883989    8.917934846   493.3222   5  10   3.2150   2.1450   4.3004   0.7570  -0.4845  -0.8512   0.00    0.0
1651 465861.000   48.780883924    8.917934841   493.3210   5  10   3.2151   2.1449   4.3005   0.7571  -0.4842  -0.8512   0.00    0.0
1651 465861.500   48.780884004    8.917934799   493.3190   5  10   3.2153   2.1449   4.3005   0.7572  -0.4838  -0.8512   0.00    0.0
1651 465862.000   48.780883978    8.917934805   493.3222   5  10   3.2155   2.1449   4.3005   0.7573  -0.4835  -0.8513   0.00    0.0
1651 465862.500   48.780883975    8.917934828   493.3195   5  10   3.2156   2.1449   4.3005   0.7574  -0.4831  -0.8513   0.00    0.0
1651 465863.000   48.780883929    8.917934839   493.3219   5  10   3.2158   2.1449   4.3005   0.7575  -0.4828  -0.8513   0.00    0.0
1651 465863.500   48.780883947    8.917934851   493.3230   5  10   3.2159   2.1449   4.3005   0.7577  -0.4824  -0.8513   0.00    0.0
1651 465864.000   48.780883938    8.917934833   493.3193   5  10   3.2161   2.1448   4.3006   0.7578  -0.4820  -0.8514   0.00    0.0
1651 465864.500   48.780883815    8.917934856   493.3125   5  10   3.2162   2.1448   4.3006   0.7579  -0.4817  -0.8514   0.00    0.0
1651 465865.000   48.780883841    8.917934842   493.3182   5  10   3.2164   2.1448   4.3006   0.7580  -0.4813  -0.8514   0.00    0.0
1651 465865.500   48.780883793    8.917934744   493.3090   5  10   3.2166   2.1448   4.3006   0.7581  -0.4810  -0.8515   0.00    0.0
1651 465866.000   48.780883756    8.917934836   493.3099   5  10   3.2167   2.1448   4.3006   0.7582  -0.4806  -0.8515   0.00    0.0
1651 465866.500   48.780883775    8.917934834   493.3139   5  10   3.2169   2.1448   4.3007   0.7583  -0.4803  -0.8515   0.00    0.0
1651 465867.000   48.780883782    8.917934811   493.3138   5  10   3.2170   2.1447   4.3007   0.7584  -0.4799  -0.8515   0.00    0.0
1651 465867.500   48.780883723    8.917934831   493.3085   5  10   3.2172   2.1447   4.3007   0.7586  -0.4795  -0.8516   0.00    0.0
1651 465868.000   48.780883683    8.917934840   493.3073   5  10   3.2173   2.1447   4.3007   0.7587  -0.4792  -0.8516   0.00    0.0
1651 465868.500   48.780883616    8.917934837   493.3041   5  10   3.2175   2.1447   4.3007   0.7588  -0.4788  -0.8516   0.00    0.0
1651 465869.000   48.780883596    8.917934836   493.3025   5  10   3.2176   2.1447   4.3007   0.7589  -0.4785  -0.8516   0.00    0.0
1651 465869.500   48.780883520    8.917934830   493.2957   5  10   3.2178   2.1447   4.3008   0.7590  -0.4781  -0.8517   0.00    0.0
1651 465870.000   48.780883456    8.917934879   493.2922   5  10   3.2180   2.1446   4.3008   0.7591  -0.4777  -0.8517   0.00    0.0
1651 465870.500   48.780883428    8.917934919   493.2987   5  10   3.2181   2.1446   4.3008   0.7592  -0.4774  -0.8517   0.00    0.0
1651 465871.000   48.780883432    8.917934869   493.2991   5  10   3.2183   2.1446   4.3008   0.7593  -0.4770  -0.8517   0.00    0.0
1651 465871.500   48.780883430    8.917934907   493.2982   5  10   3.2184   2.1446   4.3008   0.7595  -0.4767  -0.8518   0.00    0.0
1651 465872.000   48.780883451    8.917934890   493.2972   5  10   3.2186   2.1446   4.3008   0.7596  -0.4763  -0.8518   0.00    0.0
1651 465872.500   48.780883405    8.917934821   493.2885   5  10   3.2187   2.1445   4.3009   0.7597  -0.4759  -0.8518   0.00    0.0
1651 465873.000   48.780883382    8.917934845   493.2885   5  10   3.2189   2.1445   4.3009   0.7598  -0.4756  -0.8518   0.00    0.0
1651 465873.500   48.780883323    8.917934841   493.2902   5  10   3.2191   2.1445   4.3009   0.7599  -0.4752  -0.8519   0.00    0.0
1651 465874.000   48.780883344    8.917934864   493.2939   5  10   3.2192   2.1445   4.3009   0.7600  -0.4749  -0.8519   0.00    0.0
1651 465874.500   48.780883246    8.917934856   493.2940   5  10   3.2194   2.1445   4.3009   0.7601  -0.4745  -0.8519   0.00    0.0
1651 465875.000   48.780883276    8.917934867   493.2872   5  10   3.2195   2.1445   4.3009   0.7602  -0.4741  -0.8520   0.00    0.0
1651 465875.500   48.780883273    8.917934847   493.2970   5  10   3.2197   2.1444   4.3010   0.7604  -0.4738  -0.8520   0.00    0.0
1651 465876.000   48.780883231    8.917934836   493.2890   5  10   3.2198   2.1444   4.3010   0.7605  -0.4734  -0.8520   0.00    0.0
1651 465876.500   48.780883245    8.917934873   493.2894   5  10   3.2200   2.1444   4.3010   0.7606  -0.4730  -0.8520   0.00    0.0
1651 465877.000   48.780883219    8.917934864   493.2903   5  10   3.2201   2.1444   4.3010   0.7607  -0.4727  -0.8521   0.00    0.0
1651 465877.500   48.780883196    8.917934834   493.2983   5  10   3.2203   2.1444   4.3010   0.7608  -0.4723  -0.8521   0.00    0.0
1651 465878.000   48.780883169    8.917934861   493.2977   5  10   3.2205   2.1444   4.3011   0.7609  -0.4720  -0.8521   0.00    0.0
1651 465878.500   48.780883155    8.917934814   493.2942   5  10   3.2206   2.1443   4.3011   0.7610  -0.4716  -0.8521   0.00    0.0
1651 465879.000   48.780883115    8.917934782   493.2981   5  10   3.2208   2.1443   4.3011   0.7611  -0.4712  -0.8522   0.00    0.0
1651 465879.500   48.780883114    8.917934750   493.2989   5  10   3.2209   2.1443   4.3011   0.7612  -0.4709  -0.8522   0.00    0.0
1651 465880.000   48.780883108    8.917934714   493.2888   5  10   3.2211   2.1443   4.3011   0.7614  -0.4705  -0.8522   0.00    0.0
1651 465880.500   48.780883101    8.917934697   493.2904   5  10   3.2212   2.1443   4.3011   0.7615  -0.4701  -0.8522   0.00    0.0
1651 465881.000   48.780883064    8.917934725   493.2864   5  10   3.2214   2.1443   4.3012   0.7616  -0.4698  -0.8523   0.00    0.0
1651 465881.500   48.780883104    8.917934712   493.2837   5  10   3.2216   2.1442   4.3012   0.7617  -0.4694  -0.8523   0.00    0.0
1651 465882.000   48.780883064    8.917934675   493.2795   5  10   3.2217   2.1442   4.3012   0.7618  -0.4690  -0.8523   0.00    0.0
1651 465882.500   48.780883076    8.917934692   493.2781   5  10   3.2219   2.1442   4.3012   0.7619  -0.4687  -0.8523   0.00    0.0
1651 465883.000   48.780883116    8.917934708   493.2727   5  10   3.2220   2.1442   4.3012   0.7620  -0.4683  -0.8524   0.00    0.0
