% program   : RTKPOST ver.2.4.3 b33
% inp file  : E:\Study\master\semester 3\Satellite Navigation\lab5\data_sets\110902_092045.obs
% inp file  : E:\Study\master\semester 3\Satellite Navigation\lab5\data_sets\INSA245gA.OBS
% inp file  : E:\Study\master\semester 3\Satellite Navigation\lab5\data_sets\INSA245gA.NAV
% obs start : 2011/09/02 09:21:01.0 GPST (week1651 465661.0s)
% obs end   : 2011/09/02 10:27:55.5 GPST (week1651 469675.5s)
% pos mode  : dgps
% freqs     : L1+L2
% solution  : forward
% elev mask : 5.0 deg
% dynamics  : off
% tidecorr  : off
% ionos opt : broadcast
% tropo opt : saastamoinen
% ephemeris : broadcast
% antenna1  :                       ( 0.0000  0.0000  0.0000)
% antenna2  :                       ( 0.0000  0.0000  0.0000)
% ref pos   : 48.780699824    9.171601230   325.8771
%
% (lat/lon/height=WGS84/ellipsoidal,Q=1:fix,2:float,3:sbas,4:dgps,5:single,6:ppp,ns=# of satellites)
%  GPST          latitude(deg) longitude(deg)  height(m)   Q  ns   sdn(m)   sde(m)   sdu(m)  sdne(m)  sdeu(m)  sdun(m) age(s)  ratio
1651 465661.000   48.780883889    8.917932500   492.6520   4   9   0.7914   0.5133   1.0220   0.0552  -0.4012   0.3894   0.00    0.0
1651 465661.500   48.780883897    8.917932510   492.6541   4   9   0.7914   0.5133   1.0220   0.0555  -0.4012   0.3895   0.50    0.0
1651 465662.000   48.780886530    8.917930045   492.6214   4  10   0.7856   0.5085   1.0065   0.0988  -0.3856   0.3669   0.00    0.0
1651 465662.500   48.780886605    8.917929925   492.6292   4  10   0.7856   0.5085   1.0065   0.0990  -0.3855   0.3670   0.50    0.0
1651 465663.000   48.780887136    8.917929608   492.2257   4  10   0.7792   0.5048   0.9921   0.1262  -0.3719   0.3429   0.00    0.0
1651 465663.500   48.780887362    8.917929391   492.2625   4  10   0.7792   0.5048   0.9921   0.1263  -0.3718   0.3429   0.50    0.0
1651 465664.000   48.780887065    8.917929860   492.0324   4  10   0.7793   0.5048   0.9921   0.1265  -0.3717   0.3429   0.00    0.0
1651 465664.500   48.780887057    8.917929866   492.0322   4  10   0.7793   0.5047   0.9921   0.1266  -0.3717   0.3430   0.50    0.0
1651 465665.000   48.780889017    8.917933152   492.0855   4  10   0.7793   0.5047   0.9921   0.1268  -0.3716   0.3430   0.00    0.0
1651 465665.500   48.780889134    8.917933061   492.0839   4  10   0.7794   0.5047   0.9921   0.1269  -0.3716   0.3430   0.50    0.0
1651 465666.000   48.780888911    8.917931324   492.1768   4  10   0.7794   0.5046   0.9921   0.1270  -0.3715   0.3430   0.00    0.0
1651 465666.500   48.780888990    8.917931267   492.1887   4  10   0.7794   0.5046   0.9921   0.1272  -0.3714   0.3430   0.50    0.0
1651 465667.000   48.780888744    8.917931180   492.0420   4  10   0.7795   0.5045   0.9921   0.1273  -0.3714   0.3430   0.00    0.0
1651 465667.500   48.780888691    8.917931198   492.0261   4  10   0.7795   0.5045   0.9921   0.1275  -0.3713   0.3430   0.50    0.0
1651 465668.000   48.780887961    8.917928911   492.1487   4  10   0.7795   0.5045   0.9921   0.1276  -0.3713   0.3430   0.00    0.0
1651 465668.500   48.780887881    8.917928928   492.1378   4  10   0.7796   0.5044   0.9921   0.1277  -0.3712   0.3431   0.50    0.0
1651 465669.000   48.780887433    8.917930086   491.8865   4  10   0.7796   0.5044   0.9921   0.1279  -0.3711   0.3431   0.00    0.0
1651 465669.500   48.780887407    8.917930171   491.8736   4  10   0.7796   0.5044   0.9921   0.1280  -0.3711   0.3431   0.50    0.0
1651 465670.000   48.780890238    8.917930920   492.3773   4  10   0.7797   0.5043   0.9922   0.1282  -0.3710   0.3431   0.00    0.0
1651 465670.500   48.780890358    8.917930867   492.3983   4  10   0.7797   0.5043   0.9922   0.1283  -0.3710   0.3431   0.50    0.0
1651 465671.000   48.780888004    8.917932647   492.0766   4  10   0.7797   0.5043   0.9922   0.1284  -0.3709   0.3431   0.00    0.0
1651 465671.500   48.780888086    8.917932637   492.0867   4  10   0.7798   0.5042   0.9922   0.1286  -0.3709   0.3431   0.50    0.0
1651 465672.000   48.780887346    8.917933567   492.4977   4  10   0.7798   0.5042   0.9922   0.1287  -0.3708   0.3431   0.00    0.0
1651 465672.500   48.780887363    8.917933484   492.4927   4  10   0.7798   0.5041   0.9922   0.1289  -0.3707   0.3432   0.50    0.0
1651 465673.000   48.780884410    8.917932709   492.1705   4  10   0.7799   0.5041   0.9922   0.1290  -0.3707   0.3432   0.00    0.0
1651 465673.500   48.780884475    8.917932675   492.1783   4  10   0.7799   0.5041   0.9922   0.1291  -0.3706   0.3432   0.50    0.0
1651 465674.000   48.780887544    8.917929645   492.2667   4  10   0.7799   0.5040   0.9922   0.1293  -0.3706   0.3432   0.00    0.0
1651 465674.500   48.780887617    8.917929619   492.2731   4  10   0.7800   0.5040   0.9922   0.1294  -0.3705   0.3432   0.50    0.0
1651 465675.000   48.780887063    8.917931814   492.1231   4  10   0.7800   0.5040   0.9922   0.1296  -0.3704   0.3432   0.00    0.0
1651 465675.500   48.780886954    8.917931828   492.1142   4  10   0.7800   0.5039   0.9922   0.1297  -0.3704   0.3432   0.50    0.0
1651 465676.000   48.780885344    8.917929671   492.2873   4  10   0.7801   0.5039   0.9922   0.1298  -0.3703   0.3433   0.00    0.0
1651 465676.500   48.780885333    8.917929604   492.2905   4  10   0.7801   0.5038   0.9922   0.1300  -0.3703   0.3433   0.50    0.0
1651 465677.000   48.780886694    8.917932140   492.1856   4  10   0.7801   0.5038   0.9922   0.1301  -0.3702   0.3433   0.00    0.0
1651 465677.500   48.780886766    8.917932127   492.1905   4  10   0.7802   0.5038   0.9922   0.1302  -0.3701   0.3433   0.50    0.0
1651 465678.000   48.780889204    8.917933526   491.4617   4  10   0.7802   0.5037   0.9922   0.1304  -0.3701   0.3433   0.00    0.0
1651 465678.500   48.780889160    8.917933434   491.4610   4  10   0.7802   0.5037   0.9922   0.1305  -0.3700   0.3433   0.50    0.0
1651 465679.000   48.780887898    8.917931318   492.3259   4  10   0.7803   0.5037   0.9923   0.1307  -0.3700   0.3433   0.00    0.0
1651 465679.500   48.780887854    8.917931290   492.3322   4  10   0.7803   0.5036   0.9923   0.1308  -0.3699   0.3434   0.50    0.0
1651 465680.000   48.780889126    8.917932331   491.5603   4  10   0.7803   0.5036   0.9923   0.1309  -0.3698   0.3434   0.00    0.0
1651 465680.500   48.780889127    8.917932347   491.5649   4  10   0.7804   0.5036   0.9923   0.1311  -0.3698   0.3434   0.50    0.0
1651 465681.000   48.780890866    8.917931835   491.9755   4  10   0.7804   0.5035   0.9923   0.1312  -0.3697   0.3434   0.00    0.0
1651 465681.500   48.780890891    8.917931807   491.9782   4  10   0.7805   0.5035   0.9923   0.1313  -0.3697   0.3434   0.50    0.0
1651 465682.000   48.780887481    8.917929972   492.0921   4  10   0.7805   0.5034   0.9923   0.1315  -0.3696   0.3434   0.00    0.0
1651 465682.500   48.780887507    8.917929964   492.0888   4  10   0.7805   0.5034   0.9923   0.1316  -0.3696   0.3434   0.50    0.0
1651 465683.000   48.780889755    8.917932589   492.7606   4  10   0.7806   0.5034   0.9923   0.1318  -0.3695   0.3435   0.00    0.0
1651 465683.500   48.780889722    8.917932599   492.7639   4  10   0.7806   0.5033   0.9923   0.1319  -0.3694   0.3435   0.50    0.0
1651 465684.000   48.780892395    8.917930885   491.8456   4  10   0.7806   0.5033   0.9923   0.1320  -0.3694   0.3435   0.00    0.0
1651 465684.500   48.780892425    8.917930871   491.8446   4  10   0.7807   0.5033   0.9923   0.1322  -0.3693   0.3435   0.50    0.0
1651 465685.000   48.780887204    8.917932207   492.2942   4  10   0.7807   0.5032   0.9923   0.1323  -0.3693   0.3435   0.00    0.0
1651 465685.500   48.780887277    8.917932146   492.2856   4  10   0.7807   0.5032   0.9923   0.1324  -0.3692   0.3435   0.50    0.0
1651 465686.000   48.780889445    8.917931924   492.1583   4  10   0.7808   0.5031   0.9923   0.1326  -0.3691   0.3435   0.00    0.0
1651 465686.500   48.780889484    8.917931903   492.1518   4  10   0.7808   0.5031   0.9923   0.1327  -0.3691   0.3435   0.50    0.0
1651 465687.000   48.780886337    8.917930023   491.9132   4  10   0.7808   0.5031   0.9923   0.1328  -0.3690   0.3436   0.00    0.0
1651 465687.500   48.780886379    8.917930057   491.9230   4  10   0.7809   0.5030   0.9924   0.1330  -0.3690   0.3436   0.50    0.0
1651 465688.000   48.780887578    8.917926737   492.1992   4  10   0.7809   0.5030   0.9924   0.1331  -0.3689   0.3436   0.00    0.0
1651 465688.500   48.780887606    8.917926652   492.2010   4  10   0.7809   0.5030   0.9924   0.1333  -0.3688   0.3436   0.50    0.0
1651 465689.000   48.780889464    8.917930449   492.3222   4  10   0.7810   0.5029   0.9924   0.1334  -0.3688   0.3436   0.00    0.0
1651 465689.500   48.780889515    8.917930409   492.3202   4  10   0.7810   0.5029   0.9924   0.1335  -0.3687   0.3436   0.50    0.0
1651 465690.000   48.780887670    8.917930974   492.0144   4  10   0.7810   0.5029   0.9924   0.1337  -0.3687   0.3436   0.00    0.0
1651 465690.500   48.780887690    8.917930997   492.0139   4  10   0.7811   0.5028   0.9924   0.1338  -0.3686   0.3437   0.50    0.0
1651 465691.000   48.780891729    8.917931113   491.8923   4  10   0.7811   0.5028   0.9924   0.1339  -0.3685   0.3437   0.00    0.0
1651 465691.500   48.780891743    8.917931081   491.8894   4  10   0.7811   0.5027   0.9924   0.1341  -0.3685   0.3437   0.50    0.0
1651 465692.000   48.780890544    8.917931284   491.7006   4  10   0.7812   0.5027   0.9924   0.1342  -0.3684   0.3437   0.00    0.0
1651 465692.500   48.780890582    8.917931315   491.7090   4  10   0.7812   0.5027   0.9924   0.1343  -0.3684   0.3437   0.50    0.0
1651 465693.000   48.780886655    8.917934596   491.6838   4  10   0.7813   0.5026   0.9924   0.1345  -0.3683   0.3437   0.00    0.0
1651 465693.500   48.780886662    8.917934571   491.6889   4  10   0.7813   0.5026   0.9924   0.1346  -0.3682   0.3437   0.50    0.0
1651 465694.000   48.780887514    8.917929404   492.3188   4  10   0.7813   0.5026   0.9924   0.1347  -0.3682   0.3438   0.00    0.0
1651 465694.500   48.780887527    8.917929375   492.3199   4  10   0.7814   0.5025   0.9924   0.1349  -0.3681   0.3438   0.50    0.0
1651 465695.000   48.780886651    8.917928735   492.0434   4  10   0.7814   0.5025   0.9924   0.1350  -0.3681   0.3438   0.00    0.0
1651 465695.500   48.780886648    8.917928712   492.0359   4  10   0.7814   0.5025   0.9925   0.1351  -0.3680   0.3438   0.50    0.0
1651 465696.000   48.780887197    8.917931456   492.4427   4  10   0.7815   0.5024   0.9925   0.1353  -0.3679   0.3438   0.00    0.0
1651 465696.500   48.780887233    8.917931400   492.4412   4  10   0.7815   0.5024   0.9925   0.1354  -0.3679   0.3438   0.50    0.0
1651 465697.000   48.780885952    8.917929953   492.2413   4  10   0.7815   0.5023   0.9925   0.1355  -0.3678   0.3438   0.00    0.0
1651 465697.500   48.780885926    8.917929944   492.2354   4  10   0.7816   0.5023   0.9925   0.1357  -0.3678   0.3439   0.50    0.0
1651 465698.000   48.780886913    8.917931376   492.1543   4  10   0.7816   0.5023   0.9925   0.1358  -0.3677   0.3439   0.00    0.0
1651 465698.500   48.780886881    8.917931422   492.1527   4  10   0.7816   0.5022   0.9925   0.1359  -0.3676   0.3439   0.50    0.0
1651 465699.000   48.780886656    8.917929835   491.6380   4  10   0.7817   0.5022   0.9925   0.1361  -0.3676   0.3439   0.00    0.0
1651 465699.500   48.780886719    8.917929794   491.6281   4  10   0.7817   0.5022   0.9925   0.1362  -0.3675   0.3439   0.50    0.0
1651 465700.000   48.780887619    8.917932521   492.2304   4  10   0.7817   0.5021   0.9925   0.1363  -0.3675   0.3439   0.00    0.0
1651 465700.500   48.780887621    8.917932545   492.2296   4  10   0.7818   0.5021   0.9925   0.1365  -0.3674   0.3439   0.50    0.0
1651 465701.000   48.780886924    8.917932059   492.3008   4  10   0.7818   0.5021   0.9925   0.1366  -0.3674   0.3440   0.00    0.0
1651 465701.500   48.780887015    8.917931949   492.3027   4  10   0.7818   0.5020   0.9925   0.1367  -0.3673   0.3440   0.50    0.0
1651 465702.000   48.780886094    8.917929765   492.4857   4  10   0.7819   0.5020   0.9925   0.1369  -0.3672   0.3440   0.00    0.0
1651 465702.500   48.780886041    8.917929813   492.4886   4  10   0.7819   0.5019   0.9925   0.1370  -0.3672   0.3440   0.50    0.0
1651 465703.000   48.780885185    8.917933041   492.0431   4  10   0.7820   0.5019   0.9925   0.1371  -0.3671   0.3440   0.00    0.0
1651 465703.500   48.780885148    8.917933091   492.0566   4  10   0.7820   0.5019   0.9926   0.1372  -0.3671   0.3440   0.50    0.0
1651 465704.000   48.780886984    8.917932448   492.0005   4  10   0.7820   0.5018   0.9926   0.1374  -0.3670   0.3440   0.00    0.0
1651 465704.500   48.780887002    8.917932389   492.0023   4  10   0.7821   0.5018   0.9926   0.1375  -0.3669   0.3441   0.50    0.0
1651 465705.000   48.780885931    8.917930599   491.6477   4  10   0.7821   0.5018   0.9926   0.1376  -0.3669   0.3441   0.00    0.0
1651 465705.500   48.780885976    8.917930625   491.6557   4  10   0.7821   0.5017   0.9926   0.1378  -0.3668   0.3441   0.50    0.0
1651 465706.000   48.780882708    8.917930092   492.3401   4  10   0.7822   0.5017   0.9926   0.1379  -0.3668   0.3441   0.00    0.0
1651 465706.500   48.780882738    8.917930065   492.3416   4  10   0.7822   0.5017   0.9926   0.1380  -0.3667   0.3441   0.50    0.0
1651 465707.000   48.780886742    8.917929285   492.1473   4  10   0.7822   0.5016   0.9926   0.1382  -0.3666   0.3441   0.00    0.0
1651 465707.500   48.780886725    8.917929339   492.1392   4  10   0.7823   0.5016   0.9926   0.1383  -0.3666   0.3442   0.50    0.0
1651 465708.000   48.780884978    8.917930949   491.9813   4  10   0.7823   0.5015   0.9926   0.1384  -0.3665   0.3442   0.00    0.0
1651 465708.500   48.780885002    8.917931003   491.9786   4  10   0.7823   0.5015   0.9926   0.1386  -0.3665   0.3442   0.50    0.0
1651 465709.000   48.780885031    8.917930794   492.1044   4  10   0.7824   0.5015   0.9926   0.1387  -0.3664   0.3442   0.00    0.0
1651 465709.500   48.780885109    8.917930761   492.1031   4  10   0.7824   0.5014   0.9926   0.1388  -0.3663   0.3442   0.50    0.0
1651 465710.000   48.780887873    8.917932670   492.1551   4  10   0.7824   0.5014   0.9926   0.1390  -0.3663   0.3442   0.00    0.0
1651 465710.500   48.780887883    8.917932698   492.1510   4  10   0.7825   0.5014   0.9927   0.1391  -0.3662   0.3442   0.50    0.0
1651 465711.000   48.780885544    8.917931713   491.4436   4  10   0.7825   0.5013   0.9927   0.1392  -0.3662   0.3443   0.00    0.0
1651 465711.500   48.780885534    8.917931650   491.4504   4  10   0.7826   0.5013   0.9927   0.1393  -0.3661   0.3443   0.50    0.0
1651 465712.000   48.780888496    8.917928822   492.4198   4  10   0.7826   0.5013   0.9927   0.1395  -0.3660   0.3443   0.00    0.0
1651 465712.500   48.780888477    8.917928763   492.4244   4  10   0.7826   0.5012   0.9927   0.1396  -0.3660   0.3443   0.50    0.0
1651 465713.000   48.780887903    8.917928560   492.4396   4  10   0.7827   0.5012   0.9927   0.1397  -0.3659   0.3443   0.00    0.0
1651 465713.500   48.780887890    8.917928625   492.4384   4  10   0.7827   0.5011   0.9927   0.1399  -0.3659   0.3443   0.50    0.0
1651 465714.000   48.780889503    8.917930073   492.1648   4  10   0.7827   0.5011   0.9927   0.1400  -0.3658   0.3443   0.00    0.0
1651 465714.500   48.780889513    8.917930107   492.1672   4  10   0.7828   0.5011   0.9927   0.1401  -0.3657   0.3444   0.50    0.0
1651 465715.000   48.780890507    8.917930299   491.9624   4  10   0.7828   0.5010   0.9927   0.1402  -0.3657   0.3444   0.00    0.0
1651 465715.500   48.780890562    8.917930321   491.9557   4  10   0.7828   0.5010   0.9927   0.1404  -0.3656   0.3444   0.50    0.0
1651 465716.000   48.780886941    8.917930884   492.1907   4  10   0.7829   0.5010   0.9927   0.1405  -0.3656   0.3444   0.00    0.0
1651 465716.500   48.780886875    8.917930903   492.1915   4  10   0.7829   0.5009   0.9927   0.1406  -0.3655   0.3444   0.50    0.0
1651 465717.000   48.780888232    8.917929355   492.2227   4  10   0.7829   0.5009   0.9927   0.1408  -0.3654   0.3444   0.00    0.0
1651 465717.500   48.780888256    8.917929342   492.2181   4  10   0.7830   0.5009   0.9928   0.1409  -0.3654   0.3445   0.50    0.0
1651 465718.000   48.780887871    8.917931858   491.9584   4  10   0.7830   0.5008   0.9928   0.1410  -0.3653   0.3445   0.00    0.0
1651 465718.500   48.780887929    8.917931869   491.9537   4  10   0.7830   0.5008   0.9928   0.1411  -0.3653   0.3445   0.50    0.0
1651 465719.000   48.780885030    8.917929464   492.2573   4  10   0.7831   0.5008   0.9928   0.1413  -0.3652   0.3445   0.00    0.0
1651 465719.500   48.780885088    8.917929495   492.2511   4  10   0.7831   0.5007   0.9928   0.1414  -0.3651   0.3445   0.50    0.0
1651 465720.000   48.780885648    8.917930632   492.0635   4  10   0.7832   0.5007   0.9928   0.1415  -0.3651   0.3445   0.00    0.0
1651 465720.500   48.780885727    8.917930625   492.0635   4  10   0.7832   0.5006   0.9928   0.1417  -0.3650   0.3445   0.50    0.0
1651 465721.000   48.780888140    8.917931692   492.3793   4  10   0.7832   0.5006   0.9928   0.1418  -0.3650   0.3446   0.00    0.0
1651 465721.500   48.780888124    8.917931800   492.3706   4  10   0.7833   0.5006   0.9928   0.1419  -0.3649   0.3446   0.50    0.0
1651 465722.000   48.780890052    8.917927713   492.1543   4  10   0.7833   0.5005   0.9928   0.1420  -0.3648   0.3446   0.00    0.0
1651 465722.500   48.780890116    8.917927743   492.1628   4  10   0.7833   0.5005   0.9928   0.1422  -0.3648   0.3446   0.50    0.0
1651 465723.000   48.780886960    8.917929984   492.2968   4  10   0.7834   0.5005   0.9928   0.1423  -0.3647   0.3446   0.00    0.0
1651 465723.500   48.780886961    8.917930003   492.2943   4  10   0.7834   0.5004   0.9928   0.1424  -0.3647   0.3446   0.50    0.0
1651 465724.000   48.780891445    8.917932728   492.0329   4  10   0.7834   0.5004   0.9928   0.1426  -0.3646   0.3447   0.00    0.0
1651 465724.500   48.780891485    8.917932775   492.0227   4  10   0.7835   0.5004   0.9929   0.1427  -0.3645   0.3447   0.50    0.0
1651 465725.000   48.780886068    8.917930738   491.7977   4  10   0.7835   0.5003   0.9929   0.1428  -0.3645   0.3447   0.00    0.0
1651 465725.500   48.780886009    8.917930706   491.8001   4  10   0.7835   0.5003   0.9929   0.1429  -0.3644   0.3447   0.50    0.0
1651 465726.000   48.780887447    8.917933005   491.8417   4  10   0.7836   0.5002   0.9929   0.1431  -0.3644   0.3447   0.00    0.0
1651 465726.500   48.780887419    8.917933051   491.8393   4  10   0.7836   0.5002   0.9929   0.1432  -0.3643   0.3447   0.50    0.0
1651 465727.000   48.780889810    8.917931721   491.8600   4  10   0.7837   0.5002   0.9929   0.1433  -0.3642   0.3447   0.00    0.0
1651 465727.500   48.780889875    8.917931672   491.8654   4  10   0.7837   0.5001   0.9929   0.1434  -0.3642   0.3448   0.50    0.0
1651 465728.000   48.780888575    8.917929985   491.4249   4  10   0.7837   0.5001   0.9929   0.1436  -0.3641   0.3448   0.00    0.0
1651 465728.500   48.780888590    8.917929986   491.4298   4  10   0.7838   0.5001   0.9929   0.1437  -0.3641   0.3448   0.50    0.0
1651 465729.000   48.780889929    8.917929716   491.4951   4  10   0.7838   0.5000   0.9929   0.1438  -0.3640   0.3448   0.00    0.0
1651 465729.500   48.780889940    8.917929716   491.5035   4  10   0.7838   0.5000   0.9929   0.1439  -0.3639   0.3448   0.50    0.0
1651 465730.000   48.780889354    8.917928871   491.9001   4  10   0.7839   0.5000   0.9929   0.1441  -0.3639   0.3448   0.00    0.0
1651 465730.500   48.780889380    8.917928824   491.8926   4  10   0.7839   0.4999   0.9929   0.1442  -0.3638   0.3449   0.50    0.0
1651 465731.000   48.780888106    8.917929443   491.8555   4  10   0.7839   0.4999   0.9930   0.1443  -0.3638   0.3449   0.00    0.0
1651 465731.500   48.780888083    8.917929448   491.8613   4  10   0.7840   0.4999   0.9930   0.1445  -0.3637   0.3449   0.50    0.0
1651 465732.000   48.780887299    8.917928657   491.7997   4  10   0.7840   0.4998   0.9930   0.1446  -0.3636   0.3449   0.00    0.0
1651 465732.500   48.780887263    8.917928655   491.8006   4  10   0.7840   0.4998   0.9930   0.1447  -0.3636   0.3449   0.50    0.0
1651 465733.000   48.780889273    8.917929327   492.2718   4  10   0.7841   0.4997   0.9930   0.1448  -0.3635   0.3449   0.00    0.0
1651 465733.500   48.780889250    8.917929330   492.2805   4  10   0.7841   0.4997   0.9930   0.1450  -0.3635   0.3449   0.50    0.0
1651 465734.000   48.780889213    8.917930358   492.1024   4  10   0.7842   0.4997   0.9930   0.1451  -0.3634   0.3450   0.00    0.0
1651 465734.500   48.780889243    8.917930380   492.1074   4  10   0.7842   0.4996   0.9930   0.1452  -0.3633   0.3450   0.50    0.0
1651 465735.000   48.780888668    8.917929547   492.1446   4  10   0.7842   0.4996   0.9930   0.1453  -0.3633   0.3450   0.00    0.0
1651 465735.500   48.780888709    8.917929574   492.1436   4  10   0.7843   0.4996   0.9930   0.1455  -0.3632   0.3450   0.50    0.0
1651 465736.000   48.780889884    8.917929186   492.1244   4  10   0.7843   0.4995   0.9930   0.1456  -0.3632   0.3450   0.00    0.0
1651 465736.500   48.780889960    8.917929224   492.1284   4  10   0.7843   0.4995   0.9930   0.1457  -0.3631   0.3450   0.50    0.0
1651 465737.000   48.780888695    8.917926628   492.2158   4  10   0.7844   0.4995   0.9931   0.1458  -0.3630   0.3451   0.00    0.0
1651 465737.500   48.780888712    8.917926599   492.2073   4  10   0.7844   0.4994   0.9931   0.1460  -0.3630   0.3451   0.50    0.0
1651 465738.000   48.780887631    8.917924834   492.3860   4  10   0.7844   0.4994   0.9931   0.1461  -0.3629   0.3451   0.00    0.0
1651 465738.500   48.780887620    8.917924794   492.3768   4  10   0.7845   0.4994   0.9931   0.1462  -0.3628   0.3451   0.50    0.0
1651 465739.000   48.780888203    8.917927735   492.2976   4  10   0.7845   0.4993   0.9931   0.1463  -0.3628   0.3451   0.00    0.0
1651 465739.500   48.780888207    8.917927728   492.2939   4  10   0.7846   0.4993   0.9931   0.1465  -0.3627   0.3451   0.50    0.0
1651 465740.000   48.780886164    8.917928185   491.9650   4  10   0.7846   0.4992   0.9931   0.1466  -0.3627   0.3452   0.00    0.0
1651 465740.500   48.780886204    8.917928241   491.9670   4  10   0.7846   0.4992   0.9931   0.1467  -0.3626   0.3452   0.50    0.0
1651 465741.000   48.780886008    8.917929899   491.9014   4  10   0.7847   0.4992   0.9931   0.1468  -0.3625   0.3452   0.00    0.0
1651 465741.500   48.780886101    8.917929933   491.9024   4  10   0.7847   0.4991   0.9931   0.1469  -0.3625   0.3452   0.50    0.0
1651 465742.000   48.780889681    8.917929579   492.1244   4  10   0.7847   0.4991   0.9931   0.1471  -0.3624   0.3452   0.00    0.0
1651 465742.500   48.780889745    8.917929533   492.1320   4  10   0.7848   0.4991   0.9931   0.1472  -0.3624   0.3452   0.50    0.0
1651 465743.000   48.780887349    8.917926524   492.2348   4  10   0.7848   0.4990   0.9932   0.1473  -0.3623   0.3453   0.00    0.0
1651 465743.500   48.780887304    8.917926526   492.2331   4  10   0.7848   0.4990   0.9932   0.1474  -0.3622   0.3453   0.50    0.0
1651 465744.000   48.780888952    8.917929724   492.3299   4  10   0.7849   0.4990   0.9932   0.1476  -0.3622   0.3453   0.00    0.0
1651 465744.500   48.780888916    8.917929821   492.3355   4  10   0.7849   0.4989   0.9932   0.1477  -0.3621   0.3453   0.50    0.0
1651 465745.000   48.780890071    8.917928078   492.6510   4  10   0.7850   0.4989   0.9932   0.1478  -0.3621   0.3453   0.00    0.0
1651 465745.500   48.780890117    8.917928006   492.6513   4  10   0.7850   0.4989   0.9932   0.1479  -0.3620   0.3453   0.50    0.0
1651 465746.000   48.780890623    8.917929497   492.2504   4  10   0.7850   0.4988   0.9932   0.1481  -0.3619   0.3453   0.00    0.0
1651 465746.500   48.780890633    8.917929535   492.2537   4  10   0.7851   0.4988   0.9932   0.1482  -0.3619   0.3454   0.50    0.0
1651 465747.000   48.780889495    8.917929694   492.2562   4  10   0.7851   0.4988   0.9932   0.1483  -0.3618   0.3454   0.00    0.0
1651 465747.500   48.780889543    8.917929632   492.2496   4  10   0.7851   0.4987   0.9932   0.1484  -0.3618   0.3454   0.50    0.0
1651 465748.000   48.780889196    8.917931310   491.8298   4  10   0.7852   0.4987   0.9932   0.1485  -0.3617   0.3454   0.00    0.0
1651 465748.500   48.780889190    8.917931250   491.8350   4  10   0.7852   0.4986   0.9932   0.1487  -0.3616   0.3454   0.50    0.0
1651 465749.000   48.780890427    8.917928962   491.6283   4  10   0.7852   0.4986   0.9933   0.1488  -0.3616   0.3454   0.00    0.0
1651 465749.500   48.780890447    8.917928989   491.6250   4  10   0.7853   0.4986   0.9933   0.1489  -0.3615   0.3455   0.50    0.0
1651 465750.000   48.780890255    8.917929094   491.5213   4  10   0.7853   0.4985   0.9933   0.1490  -0.3615   0.3455   0.00    0.0
1651 465750.500   48.780890263    8.917929087   491.5187   4  10   0.7854   0.4985   0.9933   0.1492  -0.3614   0.3455   0.50    0.0
1651 465751.000   48.780891304    8.917928482   492.2920   4  10   0.7854   0.4985   0.9933   0.1493  -0.3613   0.3455   0.00    0.0
1651 465751.500   48.780891238    8.917928447   492.2916   4  10   0.7854   0.4984   0.9933   0.1494  -0.3613   0.3455   0.50    0.0
1651 465752.000   48.780888984    8.917927614   492.2328   4  10   0.7855   0.4984   0.9933   0.1495  -0.3612   0.3455   0.00    0.0
1651 465752.500   48.780888978    8.917927612   492.2315   4  10   0.7855   0.4984   0.9933   0.1497  -0.3612   0.3456   0.50    0.0
1651 465753.000   48.780887808    8.917929285   492.1922   4  10   0.7855   0.4983   0.9933   0.1498  -0.3611   0.3456   0.00    0.0
1651 465753.500   48.780887807    8.917929196   492.1924   4  10   0.7856   0.4983   0.9933   0.1499  -0.3610   0.3456   0.50    0.0
1651 465754.000   48.780888564    8.917929292   491.8748   4  10   0.7856   0.4983   0.9933   0.1500  -0.3610   0.3456   0.00    0.0
1651 465754.500   48.780888586    8.917929289   491.8627   4  10   0.7856   0.4982   0.9934   0.1501  -0.3609   0.3456   0.50    0.0
1651 465755.000   48.780887085    8.917928996   492.0795   4  10   0.7857   0.4982   0.9934   0.1503  -0.3609   0.3456   0.00    0.0
1651 465755.500   48.780887090    8.917929073   492.0826   4  10   0.7857   0.4981   0.9934   0.1504  -0.3608   0.3457   0.50    0.0
1651 465756.000   48.780888861    8.917930215   492.0409   4  10   0.7858   0.4981   0.9934   0.1505  -0.3607   0.3457   0.00    0.0
1651 465756.500   48.780888864    8.917930165   492.0449   4  10   0.7858   0.4981   0.9934   0.1506  -0.3607   0.3457   0.50    0.0
1651 465757.000   48.780890515    8.917928460   491.9672   4  10   0.7858   0.4980   0.9934   0.1507  -0.3606   0.3457   0.00    0.0
1651 465757.500   48.780890475    8.917928380   491.9488   4  10   0.7859   0.4980   0.9934   0.1509  -0.3605   0.3457   0.50    0.0
1651 465758.000   48.780888254    8.917929355   492.2389   4  10   0.7859   0.4980   0.9934   0.1510  -0.3605   0.3457   0.00    0.0
1651 465758.500   48.780888258    8.917929340   492.2507   4  10   0.7859   0.4979   0.9934   0.1511  -0.3604   0.3458   0.50    0.0
1651 465759.000   48.780891155    8.917931004   492.2018   4  10   0.7860   0.4979   0.9934   0.1512  -0.3604   0.3458   0.00    0.0
1651 465759.500   48.780891128    8.917931000   492.2107   4  10   0.7860   0.4979   0.9934   0.1514  -0.3603   0.3458   0.50    0.0
1651 465760.000   48.780889971    8.917928270   492.1959   4  10   0.7860   0.4978   0.9934   0.1515  -0.3602   0.3458   0.00    0.0
1651 465760.500   48.780890078    8.917928203   492.2051   4  10   0.7861   0.4978   0.9935   0.1516  -0.3602   0.3458   0.50    0.0
1651 465761.000   48.780890343    8.917931104   491.8265   4  10   0.7861   0.4978   0.9935   0.1517  -0.3601   0.3458   0.00    0.0
1651 465761.500   48.780890313    8.917931067   491.8255   4  10   0.7862   0.4977   0.9935   0.1518  -0.3601   0.3459   0.50    0.0
1651 465762.000   48.780888483    8.917930319   491.9958   4  10   0.7862   0.4977   0.9935   0.1520  -0.3600   0.3459   0.00    0.0
1651 465762.500   48.780888477    8.917930233   491.9912   4  10   0.7862   0.4977   0.9935   0.1521  -0.3599   0.3459   0.50    0.0
1651 465763.000   48.780888327    8.917928050   492.2978   4  10   0.7863   0.4976   0.9935   0.1522  -0.3599   0.3459   0.00    0.0
1651 465763.500   48.780888344    8.917928109   492.2902   4  10   0.7863   0.4976   0.9935   0.1523  -0.3598   0.3459   0.50    0.0
1651 465764.000   48.780891612    8.917930837   491.8278   4  10   0.7863   0.4976   0.9935   0.1524  -0.3598   0.3459   0.00    0.0
1651 465764.500   48.780891651    8.917930846   491.8271   4  10   0.7864   0.4975   0.9935   0.1526  -0.3597   0.3460   0.50    0.0
1651 465765.000   48.780890953    8.917932786   492.2474   4  10   0.7864   0.4975   0.9935   0.1527  -0.3596   0.3460   0.00    0.0
1651 465765.500   48.780891006    8.917932758   492.2496   4  10   0.7865   0.4974   0.9936   0.1528  -0.3596   0.3460   0.50    0.0
1651 465766.000   48.780888013    8.917928309   492.1707   4  10   0.7865   0.4974   0.9936   0.1529  -0.3595   0.3460   0.00    0.0
1651 465766.500   48.780888031    8.917928304   492.1766   4  10   0.7865   0.4974   0.9936   0.1530  -0.3595   0.3460   0.50    0.0
1651 465767.000   48.780890497    8.917931307   491.8711   4  10   0.7866   0.4973   0.9936   0.1532  -0.3594   0.3461   0.00    0.0
1651 465767.500   48.780890586    8.917931249   491.8720   4  10   0.7866   0.4973   0.9936   0.1533  -0.3593   0.3461   0.50    0.0
1651 465768.000   48.780888415    8.917926855   492.2181   4  10   0.7866   0.4973   0.9936   0.1534  -0.3593   0.3461   0.00    0.0
1651 465768.500   48.780888412    8.917926840   492.2055   4  10   0.7867   0.4972   0.9936   0.1535  -0.3592   0.3461   0.50    0.0
1651 465769.000   48.780888205    8.917931579   492.1247   4  10   0.7867   0.4972   0.9936   0.1536  -0.3591   0.3461   0.00    0.0
1651 465769.500   48.780888189    8.917931465   492.1279   4  10   0.7867   0.4972   0.9936   0.1537  -0.3591   0.3461   0.50    0.0
1651 465770.000   48.780890055    8.917927945   492.1139   4  10   0.7868   0.4971   0.9936   0.1539  -0.3590   0.3462   0.00    0.0
1651 465770.500   48.780890040    8.917927966   492.1150   4  10   0.7868   0.4971   0.9936   0.1540  -0.3590   0.3462   0.50    0.0
1651 465771.000   48.780889649    8.917930246   492.3718   4  10   0.7869   0.4971   0.9937   0.1541  -0.3589   0.3462   0.00    0.0
1651 465771.500   48.780889671    8.917930312   492.3731   4  10   0.7869   0.4970   0.9937   0.1542  -0.3588   0.3462   0.50    0.0
1651 465772.000   48.780890006    8.917929446   492.1611   4  10   0.7869   0.4970   0.9937   0.1543  -0.3588   0.3462   0.00    0.0
1651 465772.500   48.780890022    8.917929364   492.1559   4  10   0.7870   0.4970   0.9937   0.1545  -0.3587   0.3462   0.50    0.0
1651 465773.000   48.780887958    8.917928930   492.0941   4  10   0.7870   0.4969   0.9937   0.1546  -0.3587   0.3463   0.00    0.0
1651 465773.500   48.780887991    8.917928926   492.1010   4  10   0.7870   0.4969   0.9937   0.1547  -0.3586   0.3463   0.50    0.0
1651 465774.000   48.780887073    8.917930310   492.0207   4  10   0.7871   0.4969   0.9937   0.1548  -0.3585   0.3463   0.00    0.0
1651 465774.500   48.780887080    8.917930336   492.0067   4  10   0.7871   0.4968   0.9937   0.1549  -0.3585   0.3463   0.50    0.0
1651 465775.000   48.780888609    8.917928774   492.1081   4  10   0.7872   0.4968   0.9937   0.1551  -0.3584   0.3463   0.00    0.0
1651 465775.500   48.780888663    8.917928752   492.1131   4  10   0.7872   0.4967   0.9937   0.1552  -0.3584   0.3463   0.50    0.0
1651 465776.000   48.780889402    8.917926597   491.9219   4  10   0.7872   0.4967   0.9937   0.1553  -0.3583   0.3464   0.00    0.0
1651 465776.500   48.780889378    8.917926594   491.9142   4  10   0.7873   0.4967   0.9938   0.1554  -0.3582   0.3464   0.50    0.0
1651 465777.000   48.780889433    8.917928333   492.2097   4  10   0.7873   0.4966   0.9938   0.1555  -0.3582   0.3464   0.00    0.0
1651 465777.500   48.780889366    8.917928359   492.2142   4  10   0.7873   0.4966   0.9938   0.1556  -0.3581   0.3464   0.50    0.0
1651 465778.000   48.780889921    8.917930319   491.9145   4  10   0.7874   0.4966   0.9938   0.1558  -0.3580   0.3464   0.00    0.0
1651 465778.500   48.780889906    8.917930276   491.9127   4  10   0.7874   0.4965   0.9938   0.1559  -0.3580   0.3464   0.50    0.0
1651 465779.000   48.780889462    8.917929294   492.6638   4  10   0.7875   0.4965   0.9938   0.1560  -0.3579   0.3465   0.00    0.0
1651 465779.500   48.780889458    8.917929334   492.6618   4  10   0.7875   0.4965   0.9938   0.1561  -0.3579   0.3465   0.50    0.0
1651 465780.000   48.780886901    8.917928409   492.3204   4  10   0.7875   0.4964   0.9938   0.1562  -0.3578   0.3465   0.00    0.0
1651 465780.500   48.780886888    8.917928362   492.3246   4  10   0.7876   0.4964   0.9938   0.1564  -0.3577   0.3465   0.50    0.0
1651 465781.000   48.780889685    8.917925535   491.9722   4  10   0.7876   0.4964   0.9938   0.1565  -0.3577   0.3465   0.00    0.0
1651 465781.500   48.780889723    8.917925508   491.9682   4  10   0.7876   0.4963   0.9939   0.1566  -0.3576   0.3466   0.50    0.0
1651 465782.000   48.780892359    8.917927786   492.2007   4  10   0.7877   0.4963   0.9939   0.1567  -0.3576   0.3466   0.00    0.0
1651 465782.500   48.780892346    8.917927759   492.2091   4  10   0.7877   0.4963   0.9939   0.1568  -0.3575   0.3466   0.50    0.0
1651 465783.000   48.780886922    8.917927466   492.3455   4  10   0.7877   0.4962   0.9939   0.1569  -0.3574   0.3466   0.00    0.0
1651 465783.500   48.780886949    8.917927461   492.3431   4  10   0.7878   0.4962   0.9939   0.1571  -0.3574   0.3466   0.50    0.0
1651 465784.000   48.780889036    8.917928563   491.7455   4  10   0.7878   0.4962   0.9939   0.1572  -0.3573   0.3466   0.00    0.0
1651 465784.500   48.780889009    8.917928538   491.7477   4  10   0.7879   0.4961   0.9939   0.1573  -0.3573   0.3467   0.50    0.0
1651 465785.000   48.780889128    8.917929153   492.4977   4  10   0.7879   0.4961   0.9939   0.1574  -0.3572   0.3467   0.00    0.0
1651 465785.500   48.780889126    8.917929110   492.4900   4  10   0.7879   0.4960   0.9939   0.1575  -0.3571   0.3467   0.50    0.0
1651 465786.000   48.780888580    8.917929069   492.3736   4  10   0.7880   0.4960   0.9939   0.1576  -0.3571   0.3467   0.00    0.0
1651 465786.500   48.780888583    8.917929129   492.3823   4  10   0.7880   0.4960   0.9940   0.1578  -0.3570   0.3467   0.50    0.0
1651 465787.000   48.780887963    8.917927130   491.8598   4  10   0.7880   0.4959   0.9940   0.1579  -0.3569   0.3468   0.00    0.0
1651 465787.500   48.780887972    8.917927126   491.8653   4  10   0.7881   0.4959   0.9940   0.1580  -0.3569   0.3468   0.50    0.0
1651 465788.000   48.780890739    8.917928978   492.1765   4  10   0.7881   0.4959   0.9940   0.1581  -0.3568   0.3468   0.00    0.0
1651 465788.500   48.780890715    8.917928978   492.1635   4  10   0.7882   0.4958   0.9940   0.1582  -0.3568   0.3468   0.50    0.0
1651 465789.000   48.780887341    8.917927213   492.1796   4  10   0.7882   0.4958   0.9940   0.1583  -0.3567   0.3468   0.00    0.0
1651 465789.500   48.780887350    8.917927273   492.1771   4  10   0.7882   0.4958   0.9940   0.1585  -0.3566   0.3468   0.50    0.0
1651 465790.000   48.780887278    8.917926000   492.2505   4  10   0.7883   0.4957   0.9940   0.1586  -0.3566   0.3469   0.00    0.0
1651 465790.500   48.780887361    8.917926045   492.2577   4  10   0.7883   0.4957   0.9940   0.1587  -0.3565   0.3469   0.50    0.0
1651 465791.000   48.780890221    8.917926609   492.0333   4  10   0.7883   0.4957   0.9941   0.1588  -0.3565   0.3469   0.00    0.0
1651 465791.500   48.780890217    8.917926652   492.0202   4  10   0.7884   0.4956   0.9941   0.1589  -0.3564   0.3469   0.50    0.0
1651 465792.000   48.780890875    8.917929111   492.6486   4  10   0.7884   0.4956   0.9941   0.1590  -0.3563   0.3469   0.00    0.0
1651 465792.500   48.780890895    8.917929119   492.6391   4  10   0.7885   0.4956   0.9941   0.1591  -0.3563   0.3470   0.50    0.0
1651 465793.000   48.780888083    8.917931286   492.4171   4  10   0.7885   0.4955   0.9941   0.1593  -0.3562   0.3470   0.00    0.0
1651 465793.500   48.780888100    8.917931276   492.4126   4  10   0.7885   0.4955   0.9941   0.1594  -0.3561   0.3470   0.50    0.0
1651 465794.000   48.780888026    8.917928226   491.9520   4  10   0.7886   0.4955   0.9941   0.1595  -0.3561   0.3470   0.00    0.0
1651 465794.500   48.780888011    8.917928181   491.9593   4  10   0.7886   0.4954   0.9941   0.1596  -0.3560   0.3470   0.50    0.0
1651 465795.000   48.780889967    8.917932039   491.9831   4  10   0.7886   0.4954   0.9941   0.1597  -0.3560   0.3470   0.00    0.0
1651 465795.500   48.780889915    8.917932021   491.9783   4  10   0.7887   0.4954   0.9941   0.1598  -0.3559   0.3471   0.50    0.0
1651 465796.000   48.780889978    8.917930218   492.0038   4  10   0.7887   0.4953   0.9942   0.1600  -0.3558   0.3471   0.00    0.0
1651 465796.500   48.780889956    8.917930170   492.0120   4  10   0.7888   0.4953   0.9942   0.1601  -0.3558   0.3471   0.50    0.0
1651 465797.000   48.780891544    8.917929430   492.0845   4  10   0.7888   0.4953   0.9942   0.1602  -0.3557   0.3471   0.00    0.0
1651 465797.500   48.780891549    8.917929433   492.0849   4  10   0.7888   0.4952   0.9942   0.1603  -0.3557   0.3471   0.50    0.0
1651 465798.000   48.780889961    8.917931526   492.2401   4  10   0.7889   0.4952   0.9942   0.1604  -0.3556   0.3472   0.00    0.0
1651 465798.500   48.780889972    8.917931530   492.2447   4  10   0.7889   0.4952   0.9942   0.1605  -0.3555   0.3472   0.50    0.0
1651 465799.000   48.780890595    8.917928698   492.2322   4  10   0.7890   0.4951   0.9942   0.1606  -0.3555   0.3472   0.00    0.0
1651 465799.500   48.780890596    8.917928665   492.2319   4  10   0.7890   0.4951   0.9942   0.1608  -0.3554   0.3472   0.50    0.0
1651 465800.000   48.780888643    8.917929365   491.8819   4  10   0.7890   0.4950   0.9942   0.1609  -0.3553   0.3472   0.00    0.0
1651 465800.500   48.780888614    8.917929293   491.8890   4  10   0.7891   0.4950   0.9943   0.1610  -0.3553   0.3472   0.50    0.0
1651 465801.000   48.780891625    8.917927416   492.3185   4  10   0.7891   0.4950   0.9943   0.1611  -0.3552   0.3473   0.00    0.0
1651 465801.500   48.780891618    8.917927465   492.3106   4  10   0.7891   0.4949   0.9943   0.1612  -0.3552   0.3473   0.50    0.0
1651 465802.000   48.780887569    8.917930679   492.1527   4  10   0.7892   0.4949   0.9943   0.1613  -0.3551   0.3473   0.00    0.0
1651 465802.500   48.780887635    8.917930691   492.1435   4  10   0.7892   0.4949   0.9943   0.1614  -0.3550   0.3473   0.50    0.0
1651 465803.000   48.780890487    8.917926254   492.4589   4  10   0.7893   0.4948   0.9943   0.1616  -0.3550   0.3473   0.00    0.0
1651 465803.500   48.780890423    8.917926300   492.4645   4  10   0.7893   0.4948   0.9943   0.1617  -0.3549   0.3474   0.50    0.0
1651 465804.000   48.780888765    8.917929165   492.2570   4  10   0.7893   0.4948   0.9943   0.1618  -0.3549   0.3474   0.00    0.0
1651 465804.500   48.780888776    8.917929173   492.2524   4  10   0.7894   0.4947   0.9943   0.1619  -0.3548   0.3474   0.50    0.0
1651 465805.000   48.780887543    8.917929664   492.1646   4  10   0.7894   0.4947   0.9944   0.1620  -0.3547   0.3474   0.00    0.0
1651 465805.500   48.780887519    8.917929699   492.1720   4  10   0.7894   0.4947   0.9944   0.1621  -0.3547   0.3474   0.50    0.0
1651 465806.000   48.780891324    8.917928394   492.0640   4  10   0.7895   0.4946   0.9944   0.1622  -0.3546   0.3474   0.00    0.0
1651 465806.500   48.780891280    8.917928414   492.0636   4  10   0.7895   0.4946   0.9944   0.1624  -0.3545   0.3475   0.50    0.0
1651 465807.000   48.780892237    8.917926990   491.8386   4  10   0.7896   0.4946   0.9944   0.1625  -0.3545   0.3475   0.00    0.0
1651 465807.500   48.780892225    8.917926951   491.8470   4  10   0.7896   0.4945   0.9944   0.1626  -0.3544   0.3475   0.50    0.0
1651 465808.000   48.780887843    8.917928952   492.0474   4  10   0.7896   0.4945   0.9944   0.1627  -0.3544   0.3475   0.00    0.0
1651 465808.500   48.780887842    8.917928943   492.0484   4  10   0.7897   0.4945   0.9944   0.1628  -0.3543   0.3475   0.50    0.0
1651 465809.000   48.780890403    8.917928843   492.4769   4  10   0.7897   0.4944   0.9944   0.1629  -0.3542   0.3476   0.00    0.0
1651 465809.500   48.780890366    8.917928843   492.4726   4  10   0.7897   0.4944   0.9945   0.1630  -0.3542   0.3476   0.50    0.0
1651 465810.000   48.780891284    8.917930789   492.2549   4  10   0.7898   0.4944   0.9945   0.1632  -0.3541   0.3476   0.00    0.0
1651 465810.500   48.780891240    8.917930799   492.2558   4  10   0.7898   0.4943   0.9945   0.1633  -0.3541   0.3476   0.50    0.0
1651 465811.000   48.780888705    8.917930362   492.2709   4  10   0.7899   0.4943   0.9945   0.1634  -0.3540   0.3476   0.00    0.0
1651 465811.500   48.780888600    8.917930442   492.2645   4  10   0.7899   0.4943   0.9945   0.1635  -0.3539   0.3477   0.50    0.0
1651 465812.000   48.780890865    8.917930156   491.7575   4  10   0.7899   0.4942   0.9945   0.1636  -0.3539   0.3477   0.00    0.0
1651 465812.500   48.780890868    8.917930174   491.7500   4  10   0.7900   0.4942   0.9945   0.1637  -0.3538   0.3477   0.50    0.0
1651 465813.000   48.780891895    8.917932061   492.2701   4  10   0.7900   0.4942   0.9945   0.1638  -0.3537   0.3477   0.00    0.0
1651 465813.500   48.780891842    8.917932032   492.2732   4  10   0.7901   0.4941   0.9945   0.1639  -0.3537   0.3477   0.50    0.0
1651 465814.000   48.780891587    8.917931958   491.8724   4  10   0.7901   0.4941   0.9946   0.1641  -0.3536   0.3478   0.00    0.0
1651 465814.500   48.780891593    8.917931988   491.8801   4  10   0.7901   0.4941   0.9946   0.1642  -0.3536   0.3478   0.50    0.0
1651 465815.000   48.780889940    8.917930527   491.8317   4  10   0.7902   0.4940   0.9946   0.1643  -0.3535   0.3478   0.00    0.0
1651 465815.500   48.780889942    8.917930549   491.8228   4  10   0.7902   0.4940   0.9946   0.1644  -0.3534   0.3478   0.50    0.0
1651 465816.000   48.780885597    8.917932513   492.0433   4  10   0.7902   0.4940   0.9946   0.1645  -0.3534   0.3478   0.00    0.0
1651 465816.500   48.780885604    8.917932494   492.0414   4  10   0.7903   0.4939   0.9946   0.1646  -0.3533   0.3478   0.50    0.0
1651 465817.000   48.780888521    8.917930228   491.7244   4  10   0.7903   0.4939   0.9946   0.1647  -0.3532   0.3479   0.00    0.0
1651 465817.500   48.780888538    8.917930273   491.7171   4  10   0.7904   0.4938   0.9946   0.1648  -0.3532   0.3479   0.50    0.0
1651 465818.000   48.780887708    8.917928442   492.0844   4  10   0.7904   0.4938   0.9946   0.1650  -0.3531   0.3479   0.00    0.0
1651 465818.500   48.780887688    8.917928545   492.0812   4  10   0.7904   0.4938   0.9947   0.1651  -0.3531   0.3479   0.50    0.0
1651 465819.000   48.780886148    8.917928366   492.2499   4  10   0.7905   0.4937   0.9947   0.1652  -0.3530   0.3479   0.00    0.0
1651 465819.500   48.780886101    8.917928425   492.2498   4  10   0.7905   0.4937   0.9947   0.1653  -0.3529   0.3480   0.50    0.0
1651 465820.000   48.780888602    8.917928690   492.5941   4  10   0.7905   0.4937   0.9947   0.1654  -0.3529   0.3480   0.00    0.0
1651 465820.500   48.780888586    8.917928612   492.5980   4  10   0.7906   0.4936   0.9947   0.1655  -0.3528   0.3480   0.50    0.0
1651 465821.000   48.780887609    8.917929516   491.7454   4  10   0.7906   0.4936   0.9947   0.1656  -0.3527   0.3480   0.00    0.0
1651 465821.500   48.780887700    8.917929430   491.7513   4  10   0.7907   0.4936   0.9947   0.1657  -0.3527   0.3480   0.50    0.0
1651 465822.000   48.780888109    8.917930262   492.0678   4  10   0.7907   0.4935   0.9947   0.1659  -0.3526   0.3481   0.00    0.0
1651 465822.500   48.780888067    8.917930291   492.0579   4  10   0.7907   0.4935   0.9948   0.1660  -0.3526   0.3481   0.50    0.0
1651 465823.000   48.780885801    8.917928008   491.8691   4  10   0.7908   0.4935   0.9948   0.1661  -0.3525   0.3481   0.00    0.0
1651 465823.500   48.780885769    8.917927894   491.8706   4  10   0.7908   0.4934   0.9948   0.1662  -0.3524   0.3481   0.50    0.0
1651 465824.000   48.780889728    8.917928096   491.9771   4  10   0.7909   0.4934   0.9948   0.1663  -0.3524   0.3481   0.00    0.0
1651 465824.500   48.780889771    8.917928024   491.9774   4  10   0.7909   0.4934   0.9948   0.1664  -0.3523   0.3482   0.50    0.0
1651 465825.000   48.780889072    8.917930673   492.1901   4  10   0.7909   0.4933   0.9948   0.1665  -0.3523   0.3482   0.00    0.0
1651 465825.500   48.780889090    8.917930644   492.1985   4  10   0.7910   0.4933   0.9948   0.1666  -0.3522   0.3482   0.50    0.0
1651 465826.000   48.780888872    8.917930661   492.1910   4  10   0.7910   0.4933   0.9948   0.1668  -0.3521   0.3482   0.00    0.0
1651 465826.500   48.780888852    8.917930575   492.1974   4  10   0.7910   0.4932   0.9948   0.1669  -0.3521   0.3482   0.50    0.0
1651 465827.000   48.780886440    8.917933034   492.1232   4  10   0.7911   0.4932   0.9949   0.1670  -0.3520   0.3483   0.00    0.0
1651 465827.500   48.780886450    8.917933068   492.1309   4  10   0.7911   0.4932   0.9949   0.1671  -0.3519   0.3483   0.50    0.0
1651 465828.000   48.780886379    8.917931361   491.9224   4  10   0.7912   0.4931   0.9949   0.1672  -0.3519   0.3483   0.00    0.0
1651 465828.500   48.780886371    8.917931412   491.9180   4  10   0.7912   0.4931   0.9949   0.1673  -0.3518   0.3483   0.50    0.0
1651 465829.000   48.780885608    8.917930579   492.1066   4  10   0.7912   0.4931   0.9949   0.1674  -0.3518   0.3483   0.00    0.0
1651 465829.500   48.780885638    8.917930616   492.1216   4  10   0.7913   0.4930   0.9949   0.1675  -0.3517   0.3484   0.50    0.0
1651 465830.000   48.780886275    8.917929773   492.0221   4  10   0.7913   0.4930   0.9949   0.1676  -0.3516   0.3484   0.00    0.0
1651 465830.500   48.780886288    8.917929738   492.0198   4  10   0.7914   0.4930   0.9949   0.1677  -0.3516   0.3484   0.50    0.0
1651 465831.000   48.780889287    8.917931723   492.1395   4  10   0.7914   0.4929   0.9950   0.1679  -0.3515   0.3484   0.00    0.0
1651 465831.500   48.780889205    8.917931720   492.1418   4  10   0.7914   0.4929   0.9950   0.1680  -0.3514   0.3484   0.50    0.0
1651 465832.000   48.780889160    8.917931059   492.1558   4  10   0.7915   0.4929   0.9950   0.1681  -0.3514   0.3485   0.00    0.0
1651 465832.500   48.780889107    8.917931065   492.1429   4  10   0.7915   0.4928   0.9950   0.1682  -0.3513   0.3485   0.50    0.0
1651 465833.000   48.780887325    8.917926699   492.5318   4  10   0.7916   0.4928   0.9950   0.1683  -0.3513   0.3485   0.00    0.0
1651 465833.500   48.780887251    8.917926723   492.5311   4  10   0.7916   0.4928   0.9950   0.1684  -0.3512   0.3485   0.50    0.0
1651 465834.000   48.780887951    8.917928377   492.0597   4  10   0.7916   0.4927   0.9950   0.1685  -0.3511   0.3485   0.00    0.0
1651 465834.500   48.780887906    8.917928327   492.0568   4  10   0.7917   0.4927   0.9950   0.1686  -0.3511   0.3485   0.50    0.0
1651 465835.000   48.780890962    8.917929815   492.2313   4  10   0.7917   0.4927   0.9951   0.1687  -0.3510   0.3486   0.00    0.0
1651 465835.500   48.780890974    8.917929750   492.2341   4  10   0.7917   0.4926   0.9951   0.1689  -0.3509   0.3486   0.50    0.0
1651 465836.000   48.780885743    8.917930283   492.2391   4  10   0.7918   0.4926   0.9951   0.1690  -0.3509   0.3486   0.00    0.0
1651 465836.500   48.780885734    8.917930296   492.2308   4  10   0.7918   0.4926   0.9951   0.1691  -0.3508   0.3486   0.50    0.0
1651 465837.000   48.780889452    8.917928842   491.8359   4  10   0.7919   0.4925   0.9951   0.1692  -0.3508   0.3486   0.00    0.0
1651 465837.500   48.780889465    8.917928849   491.8414   4  10   0.7919   0.4925   0.9951   0.1693  -0.3507   0.3487   0.50    0.0
1651 465838.000   48.780889238    8.917931992   492.0699   4  10   0.7919   0.4925   0.9951   0.1694  -0.3506   0.3487   0.00    0.0
1651 465838.500   48.780889203    8.917931993   492.0772   4  10   0.7920   0.4924   0.9951   0.1695  -0.3506   0.3487   0.50    0.0
1651 465839.000   48.780886300    8.917928769   491.6604   4  10   0.7920   0.4924   0.9951   0.1696  -0.3505   0.3487   0.00    0.0
1651 465839.500   48.780886290    8.917928774   491.6701   4  10   0.7921   0.4924   0.9952   0.1697  -0.3504   0.3487   0.50    0.0
1651 465840.000   48.780884642    8.917929474   491.9303   4  10   0.7921   0.4923   0.9952   0.1698  -0.3504   0.3488   0.00    0.0
1651 465840.500   48.780884609    8.917929480   491.9312   4  10   0.7921   0.4923   0.9952   0.1700  -0.3503   0.3488   0.50    0.0
1651 465841.000   48.780889250    8.917929965   492.2901   4  10   0.7922   0.4923   0.9952   0.1701  -0.3503   0.3488   0.00    0.0
1651 465841.500   48.780889171    8.917929982   492.2981   4  10   0.7922   0.4922   0.9952   0.1702  -0.3502   0.3488   0.50    0.0
1651 465842.000   48.780885910    8.917930347   491.8863   4  10   0.7923   0.4922   0.9952   0.1703  -0.3501   0.3489   0.00    0.0
1651 465842.500   48.780885828    8.917930311   491.8806   4  10   0.7923   0.4922   0.9952   0.1704  -0.3501   0.3489   0.50    0.0
1651 465843.000   48.780891345    8.917931373   491.8751   4  10   0.7923   0.4921   0.9953   0.1705  -0.3500   0.3489   0.00    0.0
1651 465843.500   48.780891275    8.917931411   491.8669   4  10   0.7924   0.4921   0.9953   0.1706  -0.3499   0.3489   0.50    0.0
1651 465844.000   48.780887317    8.917932885   492.1564   4  10   0.7924   0.4921   0.9953   0.1707  -0.3499   0.3489   0.00    0.0
1651 465844.500   48.780887321    8.917932786   492.1662   4  10   0.7924   0.4920   0.9953   0.1708  -0.3498   0.3490   0.50    0.0
1651 465845.000   48.780884183    8.917933359   491.9567   4  10   0.7925   0.4920   0.9953   0.1709  -0.3498   0.3490   0.00    0.0
1651 465845.500   48.780884222    8.917933366   491.9645   4  10   0.7925   0.4920   0.9953   0.1710  -0.3497   0.3490   0.50    0.0
1651 465846.000   48.780887656    8.917931709   491.6514   4  10   0.7926   0.4919   0.9953   0.1712  -0.3496   0.3490   0.00    0.0
1651 465846.500   48.780887631    8.917931727   491.6604   4  10   0.7926   0.4919   0.9953   0.1713  -0.3496   0.3490   0.50    0.0
1651 465847.000   48.780887580    8.917929480   491.5788   4  10   0.7926   0.4919   0.9954   0.1714  -0.3495   0.3491   0.00    0.0
1651 465847.500   48.780887600    8.917929484   491.5799   4  10   0.7927   0.4918   0.9954   0.1715  -0.3494   0.3491   0.50    0.0
1651 465848.000   48.780887476    8.917932527   492.0767   4  10   0.7927   0.4918   0.9954   0.1716  -0.3494   0.3491   0.00    0.0
1651 465848.500   48.780887515    8.917932548   492.0828   4  10   0.7928   0.4918   0.9954   0.1717  -0.3493   0.3491   0.50    0.0
1651 465849.000   48.780889238    8.917931415   492.0260   4  10   0.7928   0.4917   0.9954   0.1718  -0.3493   0.3491   0.00    0.0
1651 465849.500   48.780889191    8.917931363   492.0265   4  10   0.7928   0.4917   0.9954   0.1719  -0.3492   0.3492   0.50    0.0
1651 465850.000   48.780889024    8.917930270   492.1888   4  10   0.7929   0.4917   0.9954   0.1720  -0.3491   0.3492   0.00    0.0
1651 465850.500   48.780889016    8.917930275   492.1916   4  10   0.7929   0.4916   0.9954   0.1721  -0.3491   0.3492   0.50    0.0
1651 465851.000   48.780885901    8.917931285   491.7982   4  10   0.7930   0.4916   0.9955   0.1722  -0.3490   0.3492   0.00    0.0
1651 465851.500   48.780885853    8.917931340   491.8107   4  10   0.7930   0.4916   0.9955   0.1723  -0.3489   0.3492   0.50    0.0
1651 465852.000   48.780885005    8.917931339   492.0286   4  10   0.7930   0.4915   0.9955   0.1725  -0.3489   0.3493   0.00    0.0
1651 465852.500   48.780884964    8.917931345   492.0297   4  10   0.7931   0.4915   0.9955   0.1726  -0.3488   0.3493   0.50    0.0
1651 465853.000   48.780887565    8.917931959   492.1304   4  10   0.7931   0.4915   0.9955   0.1727  -0.3488   0.3493   0.00    0.0
1651 465853.500   48.780887539    8.917932021   492.1262   4  10   0.7932   0.4914   0.9955   0.1728  -0.3487   0.3493   0.50    0.0
1651 465854.000   48.780883917    8.917932991   491.9730   4  10   0.7932   0.4914   0.9955   0.1729  -0.3486   0.3493   0.00    0.0
1651 465854.500   48.780883943    8.917933006   491.9740   4  10   0.7932   0.4914   0.9955   0.1730  -0.3486   0.3494   0.50    0.0
1651 465855.000   48.780887092    8.917930554   491.8509   4  10   0.7933   0.4913   0.9956   0.1731  -0.3485   0.3494   0.00    0.0
1651 465855.500   48.780887056    8.917930542   491.8541   4  10   0.7933   0.4913   0.9956   0.1732  -0.3484   0.3494   0.50    0.0
1651 465856.000   48.780889594    8.917932688   492.3290   4  10   0.7933   0.4913   0.9956   0.1733  -0.3484   0.3494   0.00    0.0
1651 465856.500   48.780889546    8.917932698   492.3233   4  10   0.7934   0.4912   0.9956   0.1734  -0.3483   0.3494   0.50    0.0
1651 465857.000   48.780885342    8.917932772   491.9243   4  10   0.7934   0.4912   0.9956   0.1735  -0.3483   0.3495   0.00    0.0
1651 465857.500   48.780885313    8.917932824   491.9243   4  10   0.7935   0.4912   0.9956   0.1736  -0.3482   0.3495   0.50    0.0
1651 465858.000   48.780884359    8.917932620   492.0295   4  10   0.7935   0.4911   0.9956   0.1738  -0.3481   0.3495   0.00    0.0
1651 465858.500   48.780884302    8.917932608   492.0385   4  10   0.7935   0.4911   0.9957   0.1739  -0.3481   0.3495   0.50    0.0
1651 465859.000   48.780888518    8.917930961   491.8935   4  10   0.7936   0.4911   0.9957   0.1740  -0.3480   0.3496   0.00    0.0
1651 465859.500   48.780888523    8.917930908   491.8875   4  10   0.7936   0.4910   0.9957   0.1741  -0.3479   0.3496   0.50    0.0
1651 465860.000   48.780888714    8.917928915   492.2215   4  10   0.7937   0.4910   0.9957   0.1742  -0.3479   0.3496   0.00    0.0
1651 465860.500   48.780888759    8.917929022   492.2303   4  10   0.7937   0.4910   0.9957   0.1743  -0.3478   0.3496   0.50    0.0
1651 465861.000   48.780888606    8.917932542   492.1926   4  10   0.7937   0.4909   0.9957   0.1744  -0.3477   0.3496   0.00    0.0
1651 465861.500   48.780888682    8.917932590   492.1939   4  10   0.7938   0.4909   0.9957   0.1745  -0.3477   0.3497   0.50    0.0
1651 465862.000   48.780888451    8.917934481   492.4767   4  10   0.7938   0.4909   0.9957   0.1746  -0.3476   0.3497   0.00    0.0
1651 465862.500   48.780888445    8.917934508   492.4677   4  10   0.7939   0.4908   0.9958   0.1747  -0.3476   0.3497   0.50    0.0
1651 465863.000   48.780889958    8.917930433   492.2133   4  10   0.7939   0.4908   0.9958   0.1748  -0.3475   0.3497   0.00    0.0
1651 465863.500   48.780889963    8.917930437   492.2072   4  10   0.7939   0.4908   0.9958   0.1749  -0.3474   0.3497   0.50    0.0
1651 465864.000   48.780890299    8.917933307   492.0278   4  10   0.7940   0.4907   0.9958   0.1750  -0.3474   0.3498   0.00    0.0
1651 465864.500   48.780890263    8.917933296   492.0244   4  10   0.7940   0.4907   0.9958   0.1751  -0.3473   0.3498   0.50    0.0
1651 465865.000   48.780888967    8.917934505   492.1790   4  10   0.7941   0.4907   0.9958   0.1753  -0.3472   0.3498   0.00    0.0
1651 465865.500   48.780888931    8.917934459   492.1696   4  10   0.7941   0.4906   0.9958   0.1754  -0.3472   0.3498   0.50    0.0
1651 465866.000   48.780885115    8.917930777   492.1570   4  10   0.7941   0.4906   0.9959   0.1755  -0.3471   0.3498   0.00    0.0
1651 465866.500   48.780885189    8.917930775   492.1616   4  10   0.7942   0.4906   0.9959   0.1756  -0.3471   0.3499   0.50    0.0
1651 465867.000   48.780887320    8.917933360   492.3564   4  10   0.7942   0.4905   0.9959   0.1757  -0.3470   0.3499   0.00    0.0
1651 465867.500   48.780887258    8.917933370   492.3497   4  10   0.7943   0.4905   0.9959   0.1758  -0.3469   0.3499   0.50    0.0
1651 465868.000   48.780888275    8.917933925   492.0079   4  10   0.7943   0.4905   0.9959   0.1759  -0.3469   0.3499   0.00    0.0
1651 465868.500   48.780888184    8.917933959   492.0076   4  10   0.7943   0.4904   0.9959   0.1760  -0.3468   0.3500   0.50    0.0
1651 465869.000   48.780888023    8.917931952   492.1699   4  10   0.7944   0.4904   0.9959   0.1761  -0.3467   0.3500   0.00    0.0
1651 465869.500   48.780887974    8.917932006   492.1653   4  10   0.7944   0.4904   0.9960   0.1762  -0.3467   0.3500   0.50    0.0
1651 465870.000   48.780886296    8.917933200   491.8058   4  10   0.7945   0.4903   0.9960   0.1763  -0.3466   0.3500   0.00    0.0
1651 465870.500   48.780886283    8.917933203   491.8115   4  10   0.7945   0.4903   0.9960   0.1764  -0.3465   0.3500   0.50    0.0
1651 465871.000   48.780889525    8.917932876   491.6562   4  10   0.7945   0.4903   0.9960   0.1765  -0.3465   0.3501   0.00    0.0
1651 465871.500   48.780889533    8.917932949   491.6664   4  10   0.7946   0.4902   0.9960   0.1766  -0.3464   0.3501   0.50    0.0
1651 465872.000   48.780890245    8.917931230   492.1508   4  10   0.7946   0.4902   0.9960   0.1767  -0.3464   0.3501   0.00    0.0
1651 465872.500   48.780890230    8.917931218   492.1432   4  10   0.7947   0.4902   0.9960   0.1769  -0.3463   0.3501   0.50    0.0
1651 465873.000   48.780890297    8.917931488   492.6263   4  10   0.7947   0.4901   0.9960   0.1770  -0.3462   0.3501   0.00    0.0
1651 465873.500   48.780890193    8.917931558   492.6221   4  10   0.7947   0.4901   0.9961   0.1771  -0.3462   0.3502   0.50    0.0
1651 465874.000   48.780891701    8.917934996   492.0674   4  10   0.7948   0.4901   0.9961   0.1772  -0.3461   0.3502   0.00    0.0
1651 465874.500   48.780891679    8.917934965   492.0591   4  10   0.7948   0.4900   0.9961   0.1773  -0.3460   0.3502   0.50    0.0
1651 465875.000   48.780887580    8.917932840   492.1557   4  10   0.7949   0.4900   0.9961   0.1774  -0.3460   0.3502   0.00    0.0
1651 465875.500   48.780887541    8.917932801   492.1629   4  10   0.7949   0.4900   0.9961   0.1775  -0.3459   0.3503   0.50    0.0
1651 465876.000   48.780887859    8.917935821   492.1375   4  10   0.7949   0.4899   0.9961   0.1776  -0.3459   0.3503   0.00    0.0
1651 465876.500   48.780887852    8.917935847   492.1429   4  10   0.7950   0.4899   0.9961   0.1777  -0.3458   0.3503   0.50    0.0
1651 465877.000   48.780886925    8.917935200   492.5945   4  10   0.7950   0.4899   0.9962   0.1778  -0.3457   0.3503   0.00    0.0
1651 465877.500   48.780886917    8.917935188   492.5923   4  10   0.7951   0.4898   0.9962   0.1779  -0.3457   0.3503   0.50    0.0
1651 465878.000   48.780890354    8.917933788   491.9122   4  10   0.7951   0.4898   0.9962   0.1780  -0.3456   0.3504   0.00    0.0
1651 465878.500   48.780890390    8.917933808   491.9085   4  10   0.7951   0.4898   0.9962   0.1781  -0.3455   0.3504   0.50    0.0
1651 465879.000   48.780890339    8.917934119   492.2452   4  10   0.7952   0.4897   0.9962   0.1782  -0.3455   0.3504   0.00    0.0
1651 465879.500   48.780890359    8.917934119   492.2418   4  10   0.7952   0.4897   0.9962   0.1783  -0.3454   0.3504   0.50    0.0
1651 465880.000   48.780888899    8.917931225   492.2557   4  10   0.7953   0.4897   0.9962   0.1784  -0.3453   0.3504   0.00    0.0
1651 465880.500   48.780888854    8.917931233   492.2508   4  10   0.7953   0.4896   0.9963   0.1785  -0.3453   0.3505   0.50    0.0
1651 465881.000   48.780887576    8.917930767   492.5189   4  10   0.7953   0.4896   0.9963   0.1786  -0.3452   0.3505   0.00    0.0
1651 465881.500   48.780887607    8.917930800   492.5146   4  10   0.7954   0.4896   0.9963   0.1788  -0.3452   0.3505   0.50    0.0
1651 465882.000   48.780889965    8.917931877   492.2494   4  10   0.7954   0.4895   0.9963   0.1789  -0.3451   0.3505   0.00    0.0
