% program   : RTKPOST ver.2.4.3 b33
% inp file  : E:\Study\master\semester 3\Satellite Navigation\lab5\data_sets\110902_092045.obs
% inp file  : E:\Study\master\semester 3\Satellite Navigation\lab5\data_sets\INSA245gA.OBS
% inp file  : E:\Study\master\semester 3\Satellite Navigation\lab5\data_sets\INSA245gA.NAV
% obs start : 2011/09/02 09:21:01.0 GPST (week1651 465661.0s)
% obs end   : 2011/09/02 10:27:55.5 GPST (week1651 469675.5s)
% pos mode  : dgps
% freqs     : L1+L2
% solution  : forward
% elev mask : 5.0 deg
% dynamics  : off
% tidecorr  : off
% ionos opt : off
% tropo opt : off
% ephemeris : broadcast
% antenna1  :                       ( 0.0000  0.0000  0.0000)
% antenna2  :                       ( 0.0000  0.0000  0.0000)
% ref pos   : 48.780700000    9.171600000   325.8771
%
% (lat/lon/height=WGS84/ellipsoidal,Q=1:fix,2:float,3:sbas,4:dgps,5:single,6:ppp,ns=# of satellites)
%  GPST          latitude(deg) longitude(deg)  height(m)   Q  ns   sdn(m)   sde(m)   sdu(m)  sdne(m)  sdeu(m)  sdun(m) age(s)  ratio
1651 465661.000   48.780884062    8.917931270   492.6523   4   9   0.7914   0.5133   1.0220   0.0552  -0.4012   0.3894   0.00    0.0
1651 465661.500   48.780884070    8.917931280   492.6544   4   9   0.7914   0.5133   1.0220   0.0555  -0.4012   0.3895   0.50    0.0
1651 465662.000   48.780886703    8.917928815   492.6217   4  10   0.7856   0.5085   1.0065   0.0988  -0.3856   0.3669   0.00    0.0
1651 465662.500   48.780886778    8.917928695   492.6295   4  10   0.7856   0.5085   1.0065   0.0990  -0.3855   0.3670   0.50    0.0
1651 465663.000   48.780887309    8.917928378   492.2260   4  10   0.7792   0.5048   0.9921   0.1262  -0.3719   0.3429   0.00    0.0
1651 465663.500   48.780887535    8.917928161   492.2628   4  10   0.7792   0.5048   0.9921   0.1263  -0.3718   0.3429   0.50    0.0
1651 465664.000   48.780887238    8.917928630   492.0326   4  10   0.7793   0.5048   0.9921   0.1265  -0.3717   0.3429   0.00    0.0
1651 465664.500   48.780887230    8.917928636   492.0325   4  10   0.7793   0.5047   0.9921   0.1266  -0.3717   0.3430   0.50    0.0
1651 465665.000   48.780889189    8.917931922   492.0858   4  10   0.7793   0.5047   0.9921   0.1268  -0.3716   0.3430   0.00    0.0
1651 465665.500   48.780889306    8.917931831   492.0842   4  10   0.7794   0.5047   0.9921   0.1269  -0.3716   0.3430   0.50    0.0
1651 465666.000   48.780889083    8.917930094   492.1771   4  10   0.7794   0.5046   0.9921   0.1270  -0.3715   0.3430   0.00    0.0
1651 465666.500   48.780889163    8.917930037   492.1890   4  10   0.7794   0.5046   0.9921   0.1272  -0.3714   0.3430   0.50    0.0
1651 465667.000   48.780888917    8.917929950   492.0423   4  10   0.7795   0.5045   0.9921   0.1273  -0.3714   0.3430   0.00    0.0
1651 465667.500   48.780888864    8.917929968   492.0264   4  10   0.7795   0.5045   0.9921   0.1275  -0.3713   0.3430   0.50    0.0
1651 465668.000   48.780888134    8.917927681   492.1490   4  10   0.7795   0.5045   0.9921   0.1276  -0.3713   0.3430   0.00    0.0
1651 465668.500   48.780888054    8.917927698   492.1381   4  10   0.7796   0.5044   0.9921   0.1277  -0.3712   0.3431   0.50    0.0
1651 465669.000   48.780887606    8.917928856   491.8868   4  10   0.7796   0.5044   0.9921   0.1279  -0.3711   0.3431   0.00    0.0
1651 465669.500   48.780887580    8.917928941   491.8739   4  10   0.7796   0.5044   0.9921   0.1280  -0.3711   0.3431   0.50    0.0
1651 465670.000   48.780890410    8.917929690   492.3776   4  10   0.7797   0.5043   0.9922   0.1282  -0.3710   0.3431   0.00    0.0
1651 465670.500   48.780890530    8.917929637   492.3986   4  10   0.7797   0.5043   0.9922   0.1283  -0.3710   0.3431   0.50    0.0
1651 465671.000   48.780888176    8.917931417   492.0769   4  10   0.7797   0.5043   0.9922   0.1284  -0.3709   0.3431   0.00    0.0
1651 465671.500   48.780888259    8.917931407   492.0870   4  10   0.7798   0.5042   0.9922   0.1286  -0.3709   0.3431   0.50    0.0
1651 465672.000   48.780887518    8.917932337   492.4980   4  10   0.7798   0.5042   0.9922   0.1287  -0.3708   0.3431   0.00    0.0
1651 465672.500   48.780887536    8.917932254   492.4930   4  10   0.7798   0.5041   0.9922   0.1289  -0.3707   0.3432   0.50    0.0
1651 465673.000   48.780884583    8.917931478   492.1708   4  10   0.7799   0.5041   0.9922   0.1290  -0.3707   0.3432   0.00    0.0
1651 465673.500   48.780884647    8.917931445   492.1786   4  10   0.7799   0.5041   0.9922   0.1291  -0.3706   0.3432   0.50    0.0
1651 465674.000   48.780887717    8.917928415   492.2670   4  10   0.7799   0.5040   0.9922   0.1293  -0.3706   0.3432   0.00    0.0
1651 465674.500   48.780887790    8.917928389   492.2734   4  10   0.7800   0.5040   0.9922   0.1294  -0.3705   0.3432   0.50    0.0
1651 465675.000   48.780887236    8.917930584   492.1234   4  10   0.7800   0.5040   0.9922   0.1296  -0.3704   0.3432   0.00    0.0
1651 465675.500   48.780887127    8.917930598   492.1145   4  10   0.7800   0.5039   0.9922   0.1297  -0.3704   0.3432   0.50    0.0
1651 465676.000   48.780885516    8.917928441   492.2876   4  10   0.7801   0.5039   0.9922   0.1298  -0.3703   0.3433   0.00    0.0
1651 465676.500   48.780885506    8.917928374   492.2908   4  10   0.7801   0.5038   0.9922   0.1300  -0.3703   0.3433   0.50    0.0
1651 465677.000   48.780886867    8.917930910   492.1859   4  10   0.7801   0.5038   0.9922   0.1301  -0.3702   0.3433   0.00    0.0
1651 465677.500   48.780886939    8.917930897   492.1908   4  10   0.7802   0.5038   0.9922   0.1302  -0.3701   0.3433   0.50    0.0
1651 465678.000   48.780889377    8.917932296   491.4619   4  10   0.7802   0.5037   0.9922   0.1304  -0.3701   0.3433   0.00    0.0
1651 465678.500   48.780889333    8.917932204   491.4613   4  10   0.7802   0.5037   0.9922   0.1305  -0.3700   0.3433   0.50    0.0
1651 465679.000   48.780888071    8.917930088   492.3262   4  10   0.7803   0.5037   0.9923   0.1307  -0.3700   0.3433   0.00    0.0
1651 465679.500   48.780888027    8.917930060   492.3324   4  10   0.7803   0.5036   0.9923   0.1308  -0.3699   0.3434   0.50    0.0
1651 465680.000   48.780889299    8.917931101   491.5606   4  10   0.7803   0.5036   0.9923   0.1309  -0.3698   0.3434   0.00    0.0
1651 465680.500   48.780889300    8.917931117   491.5652   4  10   0.7804   0.5036   0.9923   0.1311  -0.3698   0.3434   0.50    0.0
1651 465681.000   48.780891039    8.917930605   491.9758   4  10   0.7804   0.5035   0.9923   0.1312  -0.3697   0.3434   0.00    0.0
1651 465681.500   48.780891063    8.917930577   491.9785   4  10   0.7805   0.5035   0.9923   0.1313  -0.3697   0.3434   0.50    0.0
1651 465682.000   48.780887653    8.917928742   492.0924   4  10   0.7805   0.5034   0.9923   0.1315  -0.3696   0.3434   0.00    0.0
1651 465682.500   48.780887680    8.917928734   492.0891   4  10   0.7805   0.5034   0.9923   0.1316  -0.3696   0.3434   0.50    0.0
1651 465683.000   48.780889928    8.917931359   492.7609   4  10   0.7806   0.5034   0.9923   0.1318  -0.3695   0.3435   0.00    0.0
1651 465683.500   48.780889894    8.917931369   492.7642   4  10   0.7806   0.5033   0.9923   0.1319  -0.3694   0.3435   0.50    0.0
1651 465684.000   48.780892568    8.917929655   491.8459   4  10   0.7806   0.5033   0.9923   0.1320  -0.3694   0.3435   0.00    0.0
1651 465684.500   48.780892598    8.917929641   491.8449   4  10   0.7807   0.5033   0.9923   0.1322  -0.3693   0.3435   0.50    0.0
1651 465685.000   48.780887377    8.917930977   492.2944   4  10   0.7807   0.5032   0.9923   0.1323  -0.3693   0.3435   0.00    0.0
1651 465685.500   48.780887450    8.917930916   492.2859   4  10   0.7807   0.5032   0.9923   0.1324  -0.3692   0.3435   0.50    0.0
1651 465686.000   48.780889618    8.917930694   492.1586   4  10   0.7808   0.5031   0.9923   0.1326  -0.3691   0.3435   0.00    0.0
1651 465686.500   48.780889657    8.917930673   492.1520   4  10   0.7808   0.5031   0.9923   0.1327  -0.3691   0.3435   0.50    0.0
1651 465687.000   48.780886509    8.917928792   491.9135   4  10   0.7808   0.5031   0.9923   0.1328  -0.3690   0.3436   0.00    0.0
1651 465687.500   48.780886551    8.917928827   491.9233   4  10   0.7809   0.5030   0.9924   0.1330  -0.3690   0.3436   0.50    0.0
1651 465688.000   48.780887751    8.917925507   492.1995   4  10   0.7809   0.5030   0.9924   0.1331  -0.3689   0.3436   0.00    0.0
1651 465688.500   48.780887778    8.917925422   492.2013   4  10   0.7809   0.5030   0.9924   0.1333  -0.3688   0.3436   0.50    0.0
1651 465689.000   48.780889637    8.917929219   492.3225   4  10   0.7810   0.5029   0.9924   0.1334  -0.3688   0.3436   0.00    0.0
1651 465689.500   48.780889687    8.917929179   492.3205   4  10   0.7810   0.5029   0.9924   0.1335  -0.3687   0.3436   0.50    0.0
1651 465690.000   48.780887843    8.917929744   492.0146   4  10   0.7810   0.5029   0.9924   0.1337  -0.3687   0.3436   0.00    0.0
1651 465690.500   48.780887863    8.917929767   492.0142   4  10   0.7811   0.5028   0.9924   0.1338  -0.3686   0.3437   0.50    0.0
1651 465691.000   48.780891902    8.917929883   491.8925   4  10   0.7811   0.5028   0.9924   0.1339  -0.3685   0.3437   0.00    0.0
1651 465691.500   48.780891916    8.917929851   491.8897   4  10   0.7811   0.5027   0.9924   0.1341  -0.3685   0.3437   0.50    0.0
1651 465692.000   48.780890717    8.917930054   491.7009   4  10   0.7812   0.5027   0.9924   0.1342  -0.3684   0.3437   0.00    0.0
1651 465692.500   48.780890754    8.917930085   491.7093   4  10   0.7812   0.5027   0.9924   0.1343  -0.3684   0.3437   0.50    0.0
1651 465693.000   48.780886828    8.917933366   491.6841   4  10   0.7813   0.5026   0.9924   0.1345  -0.3683   0.3437   0.00    0.0
1651 465693.500   48.780886835    8.917933341   491.6892   4  10   0.7813   0.5026   0.9924   0.1346  -0.3682   0.3437   0.50    0.0
1651 465694.000   48.780887687    8.917928174   492.3191   4  10   0.7813   0.5026   0.9924   0.1347  -0.3682   0.3438   0.00    0.0
1651 465694.500   48.780887700    8.917928145   492.3202   4  10   0.7814   0.5025   0.9924   0.1349  -0.3681   0.3438   0.50    0.0
1651 465695.000   48.780886824    8.917927505   492.0437   4  10   0.7814   0.5025   0.9924   0.1350  -0.3681   0.3438   0.00    0.0
1651 465695.500   48.780886821    8.917927482   492.0362   4  10   0.7814   0.5025   0.9925   0.1351  -0.3680   0.3438   0.50    0.0
1651 465696.000   48.780887370    8.917930226   492.4430   4  10   0.7815   0.5024   0.9925   0.1353  -0.3679   0.3438   0.00    0.0
1651 465696.500   48.780887406    8.917930170   492.4415   4  10   0.7815   0.5024   0.9925   0.1354  -0.3679   0.3438   0.50    0.0
1651 465697.000   48.780886125    8.917928723   492.2416   4  10   0.7815   0.5023   0.9925   0.1355  -0.3678   0.3438   0.00    0.0
1651 465697.500   48.780886099    8.917928714   492.2357   4  10   0.7816   0.5023   0.9925   0.1357  -0.3678   0.3439   0.50    0.0
1651 465698.000   48.780887086    8.917930146   492.1546   4  10   0.7816   0.5023   0.9925   0.1358  -0.3677   0.3439   0.00    0.0
1651 465698.500   48.780887053    8.917930192   492.1529   4  10   0.7816   0.5022   0.9925   0.1359  -0.3676   0.3439   0.50    0.0
1651 465699.000   48.780886829    8.917928605   491.6383   4  10   0.7817   0.5022   0.9925   0.1361  -0.3676   0.3439   0.00    0.0
1651 465699.500   48.780886892    8.917928564   491.6284   4  10   0.7817   0.5022   0.9925   0.1362  -0.3675   0.3439   0.50    0.0
1651 465700.000   48.780887792    8.917931291   492.2307   4  10   0.7817   0.5021   0.9925   0.1363  -0.3675   0.3439   0.00    0.0
1651 465700.500   48.780887794    8.917931315   492.2299   4  10   0.7818   0.5021   0.9925   0.1365  -0.3674   0.3439   0.50    0.0
1651 465701.000   48.780887096    8.917930829   492.3011   4  10   0.7818   0.5021   0.9925   0.1366  -0.3674   0.3440   0.00    0.0
1651 465701.500   48.780887188    8.917930719   492.3030   4  10   0.7818   0.5020   0.9925   0.1367  -0.3673   0.3440   0.50    0.0
1651 465702.000   48.780886267    8.917928535   492.4860   4  10   0.7819   0.5020   0.9925   0.1369  -0.3672   0.3440   0.00    0.0
1651 465702.500   48.780886214    8.917928583   492.4889   4  10   0.7819   0.5019   0.9925   0.1370  -0.3672   0.3440   0.50    0.0
1651 465703.000   48.780885358    8.917931811   492.0433   4  10   0.7820   0.5019   0.9925   0.1371  -0.3671   0.3440   0.00    0.0
1651 465703.500   48.780885321    8.917931861   492.0569   4  10   0.7820   0.5019   0.9926   0.1372  -0.3671   0.3440   0.50    0.0
1651 465704.000   48.780887157    8.917931218   492.0008   4  10   0.7820   0.5018   0.9926   0.1374  -0.3670   0.3440   0.00    0.0
1651 465704.500   48.780887174    8.917931159   492.0026   4  10   0.7821   0.5018   0.9926   0.1375  -0.3669   0.3441   0.50    0.0
1651 465705.000   48.780886104    8.917929369   491.6480   4  10   0.7821   0.5018   0.9926   0.1376  -0.3669   0.3441   0.00    0.0
1651 465705.500   48.780886149    8.917929394   491.6560   4  10   0.7821   0.5017   0.9926   0.1378  -0.3668   0.3441   0.50    0.0
1651 465706.000   48.780882881    8.917928862   492.3404   4  10   0.7822   0.5017   0.9926   0.1379  -0.3668   0.3441   0.00    0.0
1651 465706.500   48.780882910    8.917928835   492.3419   4  10   0.7822   0.5017   0.9926   0.1380  -0.3667   0.3441   0.50    0.0
1651 465707.000   48.780886915    8.917928055   492.1475   4  10   0.7822   0.5016   0.9926   0.1382  -0.3666   0.3441   0.00    0.0
1651 465707.500   48.780886897    8.917928109   492.1395   4  10   0.7823   0.5016   0.9926   0.1383  -0.3666   0.3442   0.50    0.0
1651 465708.000   48.780885151    8.917929719   491.9816   4  10   0.7823   0.5015   0.9926   0.1384  -0.3665   0.3442   0.00    0.0
1651 465708.500   48.780885174    8.917929773   491.9789   4  10   0.7823   0.5015   0.9926   0.1386  -0.3665   0.3442   0.50    0.0
1651 465709.000   48.780885203    8.917929564   492.1047   4  10   0.7824   0.5015   0.9926   0.1387  -0.3664   0.3442   0.00    0.0
1651 465709.500   48.780885282    8.917929531   492.1034   4  10   0.7824   0.5014   0.9926   0.1388  -0.3663   0.3442   0.50    0.0
1651 465710.000   48.780888046    8.917931440   492.1553   4  10   0.7824   0.5014   0.9926   0.1390  -0.3663   0.3442   0.00    0.0
1651 465710.500   48.780888056    8.917931468   492.1513   4  10   0.7825   0.5014   0.9927   0.1391  -0.3662   0.3442   0.50    0.0
1651 465711.000   48.780885716    8.917930483   491.4439   4  10   0.7825   0.5013   0.9927   0.1392  -0.3662   0.3443   0.00    0.0
1651 465711.500   48.780885707    8.917930420   491.4507   4  10   0.7826   0.5013   0.9927   0.1393  -0.3661   0.3443   0.50    0.0
1651 465712.000   48.780888669    8.917927592   492.4201   4  10   0.7826   0.5013   0.9927   0.1395  -0.3660   0.3443   0.00    0.0
1651 465712.500   48.780888650    8.917927533   492.4246   4  10   0.7826   0.5012   0.9927   0.1396  -0.3660   0.3443   0.50    0.0
1651 465713.000   48.780888076    8.917927330   492.4399   4  10   0.7827   0.5012   0.9927   0.1397  -0.3659   0.3443   0.00    0.0
1651 465713.500   48.780888063    8.917927395   492.4387   4  10   0.7827   0.5011   0.9927   0.1399  -0.3659   0.3443   0.50    0.0
1651 465714.000   48.780889676    8.917928843   492.1651   4  10   0.7827   0.5011   0.9927   0.1400  -0.3658   0.3443   0.00    0.0
1651 465714.500   48.780889686    8.917928877   492.1675   4  10   0.7828   0.5011   0.9927   0.1401  -0.3657   0.3444   0.50    0.0
1651 465715.000   48.780890680    8.917929069   491.9627   4  10   0.7828   0.5010   0.9927   0.1402  -0.3657   0.3444   0.00    0.0
1651 465715.500   48.780890734    8.917929091   491.9560   4  10   0.7828   0.5010   0.9927   0.1404  -0.3656   0.3444   0.50    0.0
1651 465716.000   48.780887114    8.917929654   492.1910   4  10   0.7829   0.5010   0.9927   0.1405  -0.3656   0.3444   0.00    0.0
1651 465716.500   48.780887048    8.917929673   492.1918   4  10   0.7829   0.5009   0.9927   0.1406  -0.3655   0.3444   0.50    0.0
1651 465717.000   48.780888405    8.917928125   492.2229   4  10   0.7829   0.5009   0.9927   0.1408  -0.3654   0.3444   0.00    0.0
1651 465717.500   48.780888429    8.917928112   492.2184   4  10   0.7830   0.5009   0.9928   0.1409  -0.3654   0.3445   0.50    0.0
1651 465718.000   48.780888044    8.917930628   491.9587   4  10   0.7830   0.5008   0.9928   0.1410  -0.3653   0.3445   0.00    0.0
1651 465718.500   48.780888101    8.917930639   491.9540   4  10   0.7830   0.5008   0.9928   0.1411  -0.3653   0.3445   0.50    0.0
1651 465719.000   48.780885202    8.917928234   492.2575   4  10   0.7831   0.5008   0.9928   0.1413  -0.3652   0.3445   0.00    0.0
1651 465719.500   48.780885261    8.917928265   492.2514   4  10   0.7831   0.5007   0.9928   0.1414  -0.3651   0.3445   0.50    0.0
1651 465720.000   48.780885820    8.917929402   492.0638   4  10   0.7832   0.5007   0.9928   0.1415  -0.3651   0.3445   0.00    0.0
1651 465720.500   48.780885899    8.917929395   492.0638   4  10   0.7832   0.5006   0.9928   0.1417  -0.3650   0.3445   0.50    0.0
1651 465721.000   48.780888313    8.917930462   492.3796   4  10   0.7832   0.5006   0.9928   0.1418  -0.3650   0.3446   0.00    0.0
1651 465721.500   48.780888297    8.917930570   492.3709   4  10   0.7833   0.5006   0.9928   0.1419  -0.3649   0.3446   0.50    0.0
1651 465722.000   48.780890224    8.917926483   492.1546   4  10   0.7833   0.5005   0.9928   0.1420  -0.3648   0.3446   0.00    0.0
1651 465722.500   48.780890289    8.917926513   492.1631   4  10   0.7833   0.5005   0.9928   0.1422  -0.3648   0.3446   0.50    0.0
1651 465723.000   48.780887133    8.917928754   492.2971   4  10   0.7834   0.5005   0.9928   0.1423  -0.3647   0.3446   0.00    0.0
1651 465723.500   48.780887133    8.917928773   492.2946   4  10   0.7834   0.5004   0.9928   0.1424  -0.3647   0.3446   0.50    0.0
1651 465724.000   48.780891618    8.917931498   492.0331   4  10   0.7834   0.5004   0.9928   0.1426  -0.3646   0.3447   0.00    0.0
1651 465724.500   48.780891658    8.917931545   492.0230   4  10   0.7835   0.5004   0.9929   0.1427  -0.3645   0.3447   0.50    0.0
1651 465725.000   48.780886240    8.917929508   491.7980   4  10   0.7835   0.5003   0.9929   0.1428  -0.3645   0.3447   0.00    0.0
1651 465725.500   48.780886182    8.917929476   491.8003   4  10   0.7835   0.5003   0.9929   0.1429  -0.3644   0.3447   0.50    0.0
1651 465726.000   48.780887620    8.917931775   491.8419   4  10   0.7836   0.5002   0.9929   0.1431  -0.3644   0.3447   0.00    0.0
1651 465726.500   48.780887591    8.917931821   491.8396   4  10   0.7836   0.5002   0.9929   0.1432  -0.3643   0.3447   0.50    0.0
1651 465727.000   48.780889983    8.917930491   491.8603   4  10   0.7837   0.5002   0.9929   0.1433  -0.3642   0.3447   0.00    0.0
1651 465727.500   48.780890048    8.917930442   491.8657   4  10   0.7837   0.5001   0.9929   0.1434  -0.3642   0.3448   0.50    0.0
1651 465728.000   48.780888748    8.917928755   491.4252   4  10   0.7837   0.5001   0.9929   0.1436  -0.3641   0.3448   0.00    0.0
1651 465728.500   48.780888762    8.917928756   491.4301   4  10   0.7838   0.5001   0.9929   0.1437  -0.3641   0.3448   0.50    0.0
1651 465729.000   48.780890102    8.917928486   491.4953   4  10   0.7838   0.5000   0.9929   0.1438  -0.3640   0.3448   0.00    0.0
1651 465729.500   48.780890112    8.917928486   491.5038   4  10   0.7838   0.5000   0.9929   0.1439  -0.3639   0.3448   0.50    0.0
1651 465730.000   48.780889526    8.917927641   491.9004   4  10   0.7839   0.5000   0.9929   0.1441  -0.3639   0.3448   0.00    0.0
1651 465730.500   48.780889553    8.917927594   491.8929   4  10   0.7839   0.4999   0.9929   0.1442  -0.3638   0.3449   0.50    0.0
1651 465731.000   48.780888279    8.917928213   491.8558   4  10   0.7839   0.4999   0.9930   0.1443  -0.3638   0.3449   0.00    0.0
1651 465731.500   48.780888256    8.917928218   491.8616   4  10   0.7840   0.4999   0.9930   0.1445  -0.3637   0.3449   0.50    0.0
1651 465732.000   48.780887472    8.917927427   491.8000   4  10   0.7840   0.4998   0.9930   0.1446  -0.3636   0.3449   0.00    0.0
1651 465732.500   48.780887436    8.917927425   491.8009   4  10   0.7840   0.4998   0.9930   0.1447  -0.3636   0.3449   0.50    0.0
1651 465733.000   48.780889446    8.917928097   492.2721   4  10   0.7841   0.4997   0.9930   0.1448  -0.3635   0.3449   0.00    0.0
1651 465733.500   48.780889423    8.917928100   492.2808   4  10   0.7841   0.4997   0.9930   0.1450  -0.3635   0.3449   0.50    0.0
1651 465734.000   48.780889386    8.917929128   492.1027   4  10   0.7842   0.4997   0.9930   0.1451  -0.3634   0.3450   0.00    0.0
1651 465734.500   48.780889415    8.917929150   492.1077   4  10   0.7842   0.4996   0.9930   0.1452  -0.3633   0.3450   0.50    0.0
1651 465735.000   48.780888841    8.917928317   492.1449   4  10   0.7842   0.4996   0.9930   0.1453  -0.3633   0.3450   0.00    0.0
1651 465735.500   48.780888882    8.917928344   492.1439   4  10   0.7843   0.4996   0.9930   0.1455  -0.3632   0.3450   0.50    0.0
1651 465736.000   48.780890056    8.917927956   492.1247   4  10   0.7843   0.4995   0.9930   0.1456  -0.3632   0.3450   0.00    0.0
1651 465736.500   48.780890133    8.917927994   492.1287   4  10   0.7843   0.4995   0.9930   0.1457  -0.3631   0.3450   0.50    0.0
1651 465737.000   48.780888868    8.917925398   492.2160   4  10   0.7844   0.4995   0.9931   0.1458  -0.3630   0.3451   0.00    0.0
1651 465737.500   48.780888885    8.917925369   492.2076   4  10   0.7844   0.4994   0.9931   0.1460  -0.3630   0.3451   0.50    0.0
1651 465738.000   48.780887804    8.917923604   492.3862   4  10   0.7844   0.4994   0.9931   0.1461  -0.3629   0.3451   0.00    0.0
1651 465738.500   48.780887793    8.917923564   492.3771   4  10   0.7845   0.4994   0.9931   0.1462  -0.3628   0.3451   0.50    0.0
1651 465739.000   48.780888376    8.917926505   492.2979   4  10   0.7845   0.4993   0.9931   0.1463  -0.3628   0.3451   0.00    0.0
1651 465739.500   48.780888380    8.917926498   492.2942   4  10   0.7846   0.4993   0.9931   0.1465  -0.3627   0.3451   0.50    0.0
1651 465740.000   48.780886337    8.917926955   491.9653   4  10   0.7846   0.4992   0.9931   0.1466  -0.3627   0.3452   0.00    0.0
1651 465740.500   48.780886376    8.917927011   491.9673   4  10   0.7846   0.4992   0.9931   0.1467  -0.3626   0.3452   0.50    0.0
1651 465741.000   48.780886180    8.917928669   491.9017   4  10   0.7847   0.4992   0.9931   0.1468  -0.3625   0.3452   0.00    0.0
1651 465741.500   48.780886274    8.917928703   491.9027   4  10   0.7847   0.4991   0.9931   0.1469  -0.3625   0.3452   0.50    0.0
1651 465742.000   48.780889854    8.917928349   492.1247   4  10   0.7847   0.4991   0.9931   0.1471  -0.3624   0.3452   0.00    0.0
1651 465742.500   48.780889917    8.917928303   492.1323   4  10   0.7848   0.4991   0.9931   0.1472  -0.3624   0.3452   0.50    0.0
1651 465743.000   48.780887521    8.917925294   492.2351   4  10   0.7848   0.4990   0.9932   0.1473  -0.3623   0.3453   0.00    0.0
1651 465743.500   48.780887476    8.917925296   492.2334   4  10   0.7848   0.4990   0.9932   0.1474  -0.3622   0.3453   0.50    0.0
1651 465744.000   48.780889125    8.917928493   492.3302   4  10   0.7849   0.4990   0.9932   0.1476  -0.3622   0.3453   0.00    0.0
1651 465744.500   48.780889089    8.917928591   492.3358   4  10   0.7849   0.4989   0.9932   0.1477  -0.3621   0.3453   0.50    0.0
1651 465745.000   48.780890244    8.917926848   492.6513   4  10   0.7850   0.4989   0.9932   0.1478  -0.3621   0.3453   0.00    0.0
1651 465745.500   48.780890289    8.917926776   492.6516   4  10   0.7850   0.4989   0.9932   0.1479  -0.3620   0.3453   0.50    0.0
1651 465746.000   48.780890796    8.917928267   492.2506   4  10   0.7850   0.4988   0.9932   0.1481  -0.3619   0.3453   0.00    0.0
1651 465746.500   48.780890805    8.917928305   492.2540   4  10   0.7851   0.4988   0.9932   0.1482  -0.3619   0.3454   0.50    0.0
1651 465747.000   48.780889668    8.917928464   492.2565   4  10   0.7851   0.4988   0.9932   0.1483  -0.3618   0.3454   0.00    0.0
1651 465747.500   48.780889716    8.917928402   492.2499   4  10   0.7851   0.4987   0.9932   0.1484  -0.3618   0.3454   0.50    0.0
1651 465748.000   48.780889368    8.917930080   491.8301   4  10   0.7852   0.4987   0.9932   0.1485  -0.3617   0.3454   0.00    0.0
1651 465748.500   48.780889362    8.917930020   491.8353   4  10   0.7852   0.4986   0.9932   0.1487  -0.3616   0.3454   0.50    0.0
1651 465749.000   48.780890600    8.917927731   491.6286   4  10   0.7852   0.4986   0.9933   0.1488  -0.3616   0.3454   0.00    0.0
1651 465749.500   48.780890619    8.917927759   491.6252   4  10   0.7853   0.4986   0.9933   0.1489  -0.3615   0.3455   0.50    0.0
1651 465750.000   48.780890427    8.917927864   491.5216   4  10   0.7853   0.4985   0.9933   0.1490  -0.3615   0.3455   0.00    0.0
1651 465750.500   48.780890436    8.917927857   491.5190   4  10   0.7854   0.4985   0.9933   0.1492  -0.3614   0.3455   0.50    0.0
1651 465751.000   48.780891476    8.917927252   492.2922   4  10   0.7854   0.4985   0.9933   0.1493  -0.3613   0.3455   0.00    0.0
1651 465751.500   48.780891411    8.917927217   492.2919   4  10   0.7854   0.4984   0.9933   0.1494  -0.3613   0.3455   0.50    0.0
1651 465752.000   48.780889157    8.917926384   492.2330   4  10   0.7855   0.4984   0.9933   0.1495  -0.3612   0.3455   0.00    0.0
1651 465752.500   48.780889151    8.917926382   492.2318   4  10   0.7855   0.4984   0.9933   0.1497  -0.3612   0.3456   0.50    0.0
1651 465753.000   48.780887981    8.917928055   492.1925   4  10   0.7855   0.4983   0.9933   0.1498  -0.3611   0.3456   0.00    0.0
1651 465753.500   48.780887980    8.917927966   492.1927   4  10   0.7856   0.4983   0.9933   0.1499  -0.3610   0.3456   0.50    0.0
1651 465754.000   48.780888737    8.917928062   491.8751   4  10   0.7856   0.4983   0.9933   0.1500  -0.3610   0.3456   0.00    0.0
1651 465754.500   48.780888758    8.917928058   491.8630   4  10   0.7856   0.4982   0.9934   0.1501  -0.3609   0.3456   0.50    0.0
1651 465755.000   48.780887258    8.917927766   492.0798   4  10   0.7857   0.4982   0.9934   0.1503  -0.3609   0.3456   0.00    0.0
1651 465755.500   48.780887263    8.917927843   492.0829   4  10   0.7857   0.4981   0.9934   0.1504  -0.3608   0.3457   0.50    0.0
1651 465756.000   48.780889034    8.917928985   492.0412   4  10   0.7858   0.4981   0.9934   0.1505  -0.3607   0.3457   0.00    0.0
1651 465756.500   48.780889037    8.917928935   492.0452   4  10   0.7858   0.4981   0.9934   0.1506  -0.3607   0.3457   0.50    0.0
1651 465757.000   48.780890687    8.917927230   491.9675   4  10   0.7858   0.4980   0.9934   0.1507  -0.3606   0.3457   0.00    0.0
1651 465757.500   48.780890647    8.917927150   491.9491   4  10   0.7859   0.4980   0.9934   0.1509  -0.3605   0.3457   0.50    0.0
1651 465758.000   48.780888427    8.917928125   492.2392   4  10   0.7859   0.4980   0.9934   0.1510  -0.3605   0.3457   0.00    0.0
1651 465758.500   48.780888430    8.917928110   492.2510   4  10   0.7859   0.4979   0.9934   0.1511  -0.3604   0.3458   0.50    0.0
1651 465759.000   48.780891328    8.917929774   492.2021   4  10   0.7860   0.4979   0.9934   0.1512  -0.3604   0.3458   0.00    0.0
1651 465759.500   48.780891300    8.917929770   492.2110   4  10   0.7860   0.4979   0.9934   0.1514  -0.3603   0.3458   0.50    0.0
1651 465760.000   48.780890144    8.917927040   492.1962   4  10   0.7860   0.4978   0.9934   0.1515  -0.3602   0.3458   0.00    0.0
1651 465760.500   48.780890250    8.917926973   492.2054   4  10   0.7861   0.4978   0.9935   0.1516  -0.3602   0.3458   0.50    0.0
1651 465761.000   48.780890516    8.917929874   491.8268   4  10   0.7861   0.4978   0.9935   0.1517  -0.3601   0.3458   0.00    0.0
1651 465761.500   48.780890485    8.917929837   491.8258   4  10   0.7862   0.4977   0.9935   0.1518  -0.3601   0.3459   0.50    0.0
1651 465762.000   48.780888655    8.917929089   491.9961   4  10   0.7862   0.4977   0.9935   0.1520  -0.3600   0.3459   0.00    0.0
1651 465762.500   48.780888649    8.917929003   491.9915   4  10   0.7862   0.4977   0.9935   0.1521  -0.3599   0.3459   0.50    0.0
1651 465763.000   48.780888500    8.917926820   492.2981   4  10   0.7863   0.4976   0.9935   0.1522  -0.3599   0.3459   0.00    0.0
1651 465763.500   48.780888517    8.917926879   492.2905   4  10   0.7863   0.4976   0.9935   0.1523  -0.3598   0.3459   0.50    0.0
1651 465764.000   48.780891785    8.917929607   491.8281   4  10   0.7863   0.4976   0.9935   0.1524  -0.3598   0.3459   0.00    0.0
1651 465764.500   48.780891824    8.917929616   491.8274   4  10   0.7864   0.4975   0.9935   0.1526  -0.3597   0.3460   0.50    0.0
1651 465765.000   48.780891125    8.917931556   492.2477   4  10   0.7864   0.4975   0.9935   0.1527  -0.3596   0.3460   0.00    0.0
1651 465765.500   48.780891179    8.917931528   492.2499   4  10   0.7865   0.4974   0.9936   0.1528  -0.3596   0.3460   0.50    0.0
1651 465766.000   48.780888185    8.917927079   492.1710   4  10   0.7865   0.4974   0.9936   0.1529  -0.3595   0.3460   0.00    0.0
1651 465766.500   48.780888204    8.917927074   492.1769   4  10   0.7865   0.4974   0.9936   0.1530  -0.3595   0.3460   0.50    0.0
1651 465767.000   48.780890670    8.917930077   491.8714   4  10   0.7866   0.4973   0.9936   0.1532  -0.3594   0.3461   0.00    0.0
1651 465767.500   48.780890758    8.917930019   491.8723   4  10   0.7866   0.4973   0.9936   0.1533  -0.3593   0.3461   0.50    0.0
1651 465768.000   48.780888588    8.917925625   492.2184   4  10   0.7866   0.4973   0.9936   0.1534  -0.3593   0.3461   0.00    0.0
1651 465768.500   48.780888584    8.917925610   492.2058   4  10   0.7867   0.4972   0.9936   0.1535  -0.3592   0.3461   0.50    0.0
1651 465769.000   48.780888378    8.917930349   492.1249   4  10   0.7867   0.4972   0.9936   0.1536  -0.3591   0.3461   0.00    0.0
1651 465769.500   48.780888361    8.917930235   492.1282   4  10   0.7867   0.4972   0.9936   0.1537  -0.3591   0.3461   0.50    0.0
1651 465770.000   48.780890228    8.917926715   492.1141   4  10   0.7868   0.4971   0.9936   0.1539  -0.3590   0.3462   0.00    0.0
1651 465770.500   48.780890213    8.917926736   492.1153   4  10   0.7868   0.4971   0.9936   0.1540  -0.3590   0.3462   0.50    0.0
1651 465771.000   48.780889821    8.917929016   492.3720   4  10   0.7869   0.4971   0.9937   0.1541  -0.3589   0.3462   0.00    0.0
1651 465771.500   48.780889843    8.917929082   492.3734   4  10   0.7869   0.4970   0.9937   0.1542  -0.3588   0.3462   0.50    0.0
1651 465772.000   48.780890178    8.917928216   492.1613   4  10   0.7869   0.4970   0.9937   0.1543  -0.3588   0.3462   0.00    0.0
1651 465772.500   48.780890195    8.917928134   492.1562   4  10   0.7870   0.4970   0.9937   0.1545  -0.3587   0.3462   0.50    0.0
1651 465773.000   48.780888131    8.917927700   492.0944   4  10   0.7870   0.4969   0.9937   0.1546  -0.3587   0.3463   0.00    0.0
1651 465773.500   48.780888164    8.917927696   492.1013   4  10   0.7870   0.4969   0.9937   0.1547  -0.3586   0.3463   0.50    0.0
1651 465774.000   48.780887246    8.917929080   492.0210   4  10   0.7871   0.4969   0.9937   0.1548  -0.3585   0.3463   0.00    0.0
1651 465774.500   48.780887253    8.917929106   492.0070   4  10   0.7871   0.4968   0.9937   0.1549  -0.3585   0.3463   0.50    0.0
1651 465775.000   48.780888782    8.917927544   492.1083   4  10   0.7872   0.4968   0.9937   0.1551  -0.3584   0.3463   0.00    0.0
1651 465775.500   48.780888836    8.917927522   492.1134   4  10   0.7872   0.4967   0.9937   0.1552  -0.3584   0.3463   0.50    0.0
1651 465776.000   48.780889575    8.917925367   491.9222   4  10   0.7872   0.4967   0.9937   0.1553  -0.3583   0.3464   0.00    0.0
1651 465776.500   48.780889550    8.917925364   491.9145   4  10   0.7873   0.4967   0.9938   0.1554  -0.3582   0.3464   0.50    0.0
1651 465777.000   48.780889605    8.917927103   492.2100   4  10   0.7873   0.4966   0.9938   0.1555  -0.3582   0.3464   0.00    0.0
1651 465777.500   48.780889539    8.917927129   492.2145   4  10   0.7873   0.4966   0.9938   0.1556  -0.3581   0.3464   0.50    0.0
1651 465778.000   48.780890094    8.917929089   491.9148   4  10   0.7874   0.4966   0.9938   0.1558  -0.3580   0.3464   0.00    0.0
1651 465778.500   48.780890079    8.917929046   491.9130   4  10   0.7874   0.4965   0.9938   0.1559  -0.3580   0.3464   0.50    0.0
1651 465779.000   48.780889635    8.917928064   492.6641   4  10   0.7875   0.4965   0.9938   0.1560  -0.3579   0.3465   0.00    0.0
1651 465779.500   48.780889631    8.917928104   492.6621   4  10   0.7875   0.4965   0.9938   0.1561  -0.3579   0.3465   0.50    0.0
1651 465780.000   48.780887074    8.917927179   492.3207   4  10   0.7875   0.4964   0.9938   0.1562  -0.3578   0.3465   0.00    0.0
1651 465780.500   48.780887061    8.917927132   492.3248   4  10   0.7876   0.4964   0.9938   0.1564  -0.3577   0.3465   0.50    0.0
1651 465781.000   48.780889858    8.917924305   491.9725   4  10   0.7876   0.4964   0.9938   0.1565  -0.3577   0.3465   0.00    0.0
1651 465781.500   48.780889896    8.917924278   491.9685   4  10   0.7876   0.4963   0.9939   0.1566  -0.3576   0.3466   0.50    0.0
1651 465782.000   48.780892532    8.917926556   492.2010   4  10   0.7877   0.4963   0.9939   0.1567  -0.3576   0.3466   0.00    0.0
1651 465782.500   48.780892519    8.917926529   492.2094   4  10   0.7877   0.4963   0.9939   0.1568  -0.3575   0.3466   0.50    0.0
1651 465783.000   48.780887095    8.917926236   492.3458   4  10   0.7877   0.4962   0.9939   0.1569  -0.3574   0.3466   0.00    0.0
1651 465783.500   48.780887122    8.917926231   492.3434   4  10   0.7878   0.4962   0.9939   0.1571  -0.3574   0.3466   0.50    0.0
1651 465784.000   48.780889209    8.917927333   491.7458   4  10   0.7878   0.4962   0.9939   0.1572  -0.3573   0.3466   0.00    0.0
1651 465784.500   48.780889182    8.917927308   491.7480   4  10   0.7879   0.4961   0.9939   0.1573  -0.3573   0.3467   0.50    0.0
1651 465785.000   48.780889301    8.917927923   492.4980   4  10   0.7879   0.4961   0.9939   0.1574  -0.3572   0.3467   0.00    0.0
1651 465785.500   48.780889299    8.917927880   492.4903   4  10   0.7879   0.4960   0.9939   0.1575  -0.3571   0.3467   0.50    0.0
1651 465786.000   48.780888753    8.917927839   492.3739   4  10   0.7880   0.4960   0.9939   0.1576  -0.3571   0.3467   0.00    0.0
1651 465786.500   48.780888756    8.917927899   492.3826   4  10   0.7880   0.4960   0.9940   0.1578  -0.3570   0.3467   0.50    0.0
1651 465787.000   48.780888135    8.917925900   491.8601   4  10   0.7880   0.4959   0.9940   0.1579  -0.3569   0.3468   0.00    0.0
1651 465787.500   48.780888145    8.917925896   491.8656   4  10   0.7881   0.4959   0.9940   0.1580  -0.3569   0.3468   0.50    0.0
1651 465788.000   48.780890912    8.917927748   492.1768   4  10   0.7881   0.4959   0.9940   0.1581  -0.3568   0.3468   0.00    0.0
1651 465788.500   48.780890887    8.917927748   492.1638   4  10   0.7882   0.4958   0.9940   0.1582  -0.3568   0.3468   0.50    0.0
1651 465789.000   48.780887514    8.917925983   492.1799   4  10   0.7882   0.4958   0.9940   0.1583  -0.3567   0.3468   0.00    0.0
1651 465789.500   48.780887522    8.917926043   492.1774   4  10   0.7882   0.4958   0.9940   0.1585  -0.3566   0.3468   0.50    0.0
1651 465790.000   48.780887450    8.917924770   492.2508   4  10   0.7883   0.4957   0.9940   0.1586  -0.3566   0.3469   0.00    0.0
1651 465790.500   48.780887534    8.917924815   492.2580   4  10   0.7883   0.4957   0.9940   0.1587  -0.3565   0.3469   0.50    0.0
1651 465791.000   48.780890393    8.917925379   492.0336   4  10   0.7883   0.4957   0.9941   0.1588  -0.3565   0.3469   0.00    0.0
1651 465791.500   48.780890390    8.917925422   492.0205   4  10   0.7884   0.4956   0.9941   0.1589  -0.3564   0.3469   0.50    0.0
1651 465792.000   48.780891048    8.917927881   492.6489   4  10   0.7884   0.4956   0.9941   0.1590  -0.3563   0.3469   0.00    0.0
1651 465792.500   48.780891067    8.917927889   492.6394   4  10   0.7885   0.4956   0.9941   0.1591  -0.3563   0.3470   0.50    0.0
1651 465793.000   48.780888255    8.917930056   492.4174   4  10   0.7885   0.4955   0.9941   0.1593  -0.3562   0.3470   0.00    0.0
1651 465793.500   48.780888273    8.917930046   492.4129   4  10   0.7885   0.4955   0.9941   0.1594  -0.3561   0.3470   0.50    0.0
1651 465794.000   48.780888199    8.917926996   491.9522   4  10   0.7886   0.4955   0.9941   0.1595  -0.3561   0.3470   0.00    0.0
1651 465794.500   48.780888183    8.917926951   491.9596   4  10   0.7886   0.4954   0.9941   0.1596  -0.3560   0.3470   0.50    0.0
1651 465795.000   48.780890140    8.917930809   491.9834   4  10   0.7886   0.4954   0.9941   0.1597  -0.3560   0.3470   0.00    0.0
1651 465795.500   48.780890087    8.917930791   491.9786   4  10   0.7887   0.4954   0.9941   0.1598  -0.3559   0.3471   0.50    0.0
1651 465796.000   48.780890151    8.917928988   492.0041   4  10   0.7887   0.4953   0.9942   0.1600  -0.3558   0.3471   0.00    0.0
1651 465796.500   48.780890129    8.917928940   492.0123   4  10   0.7888   0.4953   0.9942   0.1601  -0.3558   0.3471   0.50    0.0
1651 465797.000   48.780891717    8.917928200   492.0848   4  10   0.7888   0.4953   0.9942   0.1602  -0.3557   0.3471   0.00    0.0
1651 465797.500   48.780891722    8.917928203   492.0852   4  10   0.7888   0.4952   0.9942   0.1603  -0.3557   0.3471   0.50    0.0
1651 465798.000   48.780890134    8.917930296   492.2403   4  10   0.7889   0.4952   0.9942   0.1604  -0.3556   0.3472   0.00    0.0
1651 465798.500   48.780890144    8.917930300   492.2450   4  10   0.7889   0.4952   0.9942   0.1605  -0.3555   0.3472   0.50    0.0
1651 465799.000   48.780890768    8.917927468   492.2325   4  10   0.7890   0.4951   0.9942   0.1606  -0.3555   0.3472   0.00    0.0
1651 465799.500   48.780890769    8.917927435   492.2322   4  10   0.7890   0.4951   0.9942   0.1608  -0.3554   0.3472   0.50    0.0
1651 465800.000   48.780888815    8.917928135   491.8822   4  10   0.7890   0.4950   0.9942   0.1609  -0.3553   0.3472   0.00    0.0
1651 465800.500   48.780888787    8.917928063   491.8893   4  10   0.7891   0.4950   0.9943   0.1610  -0.3553   0.3472   0.50    0.0
1651 465801.000   48.780891798    8.917926186   492.3188   4  10   0.7891   0.4950   0.9943   0.1611  -0.3552   0.3473   0.00    0.0
1651 465801.500   48.780891791    8.917926235   492.3109   4  10   0.7891   0.4949   0.9943   0.1612  -0.3552   0.3473   0.50    0.0
1651 465802.000   48.780887741    8.917929449   492.1530   4  10   0.7892   0.4949   0.9943   0.1613  -0.3551   0.3473   0.00    0.0
1651 465802.500   48.780887808    8.917929461   492.1438   4  10   0.7892   0.4949   0.9943   0.1614  -0.3550   0.3473   0.50    0.0
1651 465803.000   48.780890660    8.917925024   492.4592   4  10   0.7893   0.4948   0.9943   0.1616  -0.3550   0.3473   0.00    0.0
1651 465803.500   48.780890596    8.917925070   492.4648   4  10   0.7893   0.4948   0.9943   0.1617  -0.3549   0.3474   0.50    0.0
1651 465804.000   48.780888938    8.917927935   492.2573   4  10   0.7893   0.4948   0.9943   0.1618  -0.3549   0.3474   0.00    0.0
1651 465804.500   48.780888949    8.917927943   492.2527   4  10   0.7894   0.4947   0.9943   0.1619  -0.3548   0.3474   0.50    0.0
1651 465805.000   48.780887716    8.917928434   492.1649   4  10   0.7894   0.4947   0.9944   0.1620  -0.3547   0.3474   0.00    0.0
1651 465805.500   48.780887692    8.917928469   492.1723   4  10   0.7894   0.4947   0.9944   0.1621  -0.3547   0.3474   0.50    0.0
1651 465806.000   48.780891496    8.917927164   492.0643   4  10   0.7895   0.4946   0.9944   0.1622  -0.3546   0.3474   0.00    0.0
1651 465806.500   48.780891452    8.917927184   492.0639   4  10   0.7895   0.4946   0.9944   0.1624  -0.3545   0.3475   0.50    0.0
1651 465807.000   48.780892410    8.917925760   491.8388   4  10   0.7896   0.4946   0.9944   0.1625  -0.3545   0.3475   0.00    0.0
1651 465807.500   48.780892397    8.917925721   491.8473   4  10   0.7896   0.4945   0.9944   0.1626  -0.3544   0.3475   0.50    0.0
1651 465808.000   48.780888015    8.917927722   492.0476   4  10   0.7896   0.4945   0.9944   0.1627  -0.3544   0.3475   0.00    0.0
1651 465808.500   48.780888014    8.917927713   492.0487   4  10   0.7897   0.4945   0.9944   0.1628  -0.3543   0.3475   0.50    0.0
1651 465809.000   48.780890576    8.917927613   492.4772   4  10   0.7897   0.4944   0.9944   0.1629  -0.3542   0.3476   0.00    0.0
1651 465809.500   48.780890539    8.917927613   492.4729   4  10   0.7897   0.4944   0.9945   0.1630  -0.3542   0.3476   0.50    0.0
1651 465810.000   48.780891457    8.917929559   492.2552   4  10   0.7898   0.4944   0.9945   0.1632  -0.3541   0.3476   0.00    0.0
1651 465810.500   48.780891413    8.917929569   492.2561   4  10   0.7898   0.4943   0.9945   0.1633  -0.3541   0.3476   0.50    0.0
1651 465811.000   48.780888877    8.917929132   492.2712   4  10   0.7899   0.4943   0.9945   0.1634  -0.3540   0.3476   0.00    0.0
1651 465811.500   48.780888773    8.917929212   492.2648   4  10   0.7899   0.4943   0.9945   0.1635  -0.3539   0.3477   0.50    0.0
1651 465812.000   48.780891038    8.917928926   491.7578   4  10   0.7899   0.4942   0.9945   0.1636  -0.3539   0.3477   0.00    0.0
1651 465812.500   48.780891041    8.917928944   491.7503   4  10   0.7900   0.4942   0.9945   0.1637  -0.3538   0.3477   0.50    0.0
1651 465813.000   48.780892068    8.917930831   492.2704   4  10   0.7900   0.4942   0.9945   0.1638  -0.3537   0.3477   0.00    0.0
1651 465813.500   48.780892014    8.917930802   492.2734   4  10   0.7901   0.4941   0.9945   0.1639  -0.3537   0.3477   0.50    0.0
1651 465814.000   48.780891760    8.917930728   491.8727   4  10   0.7901   0.4941   0.9946   0.1641  -0.3536   0.3478   0.00    0.0
1651 465814.500   48.780891766    8.917930758   491.8804   4  10   0.7901   0.4941   0.9946   0.1642  -0.3536   0.3478   0.50    0.0
1651 465815.000   48.780890113    8.917929297   491.8320   4  10   0.7902   0.4940   0.9946   0.1643  -0.3535   0.3478   0.00    0.0
1651 465815.500   48.780890115    8.917929319   491.8231   4  10   0.7902   0.4940   0.9946   0.1644  -0.3534   0.3478   0.50    0.0
1651 465816.000   48.780885770    8.917931283   492.0436   4  10   0.7902   0.4940   0.9946   0.1645  -0.3534   0.3478   0.00    0.0
1651 465816.500   48.780885776    8.917931264   492.0417   4  10   0.7903   0.4939   0.9946   0.1646  -0.3533   0.3478   0.50    0.0
1651 465817.000   48.780888693    8.917928998   491.7247   4  10   0.7903   0.4939   0.9946   0.1647  -0.3532   0.3479   0.00    0.0
1651 465817.500   48.780888710    8.917929043   491.7174   4  10   0.7904   0.4938   0.9946   0.1648  -0.3532   0.3479   0.50    0.0
1651 465818.000   48.780887880    8.917927212   492.0846   4  10   0.7904   0.4938   0.9946   0.1650  -0.3531   0.3479   0.00    0.0
1651 465818.500   48.780887861    8.917927315   492.0815   4  10   0.7904   0.4938   0.9947   0.1651  -0.3531   0.3479   0.50    0.0
1651 465819.000   48.780886320    8.917927136   492.2502   4  10   0.7905   0.4937   0.9947   0.1652  -0.3530   0.3479   0.00    0.0
1651 465819.500   48.780886274    8.917927195   492.2501   4  10   0.7905   0.4937   0.9947   0.1653  -0.3529   0.3480   0.50    0.0
1651 465820.000   48.780888775    8.917927460   492.5944   4  10   0.7905   0.4937   0.9947   0.1654  -0.3529   0.3480   0.00    0.0
1651 465820.500   48.780888759    8.917927382   492.5983   4  10   0.7906   0.4936   0.9947   0.1655  -0.3528   0.3480   0.50    0.0
1651 465821.000   48.780887782    8.917928286   491.7457   4  10   0.7906   0.4936   0.9947   0.1656  -0.3527   0.3480   0.00    0.0
1651 465821.500   48.780887872    8.917928200   491.7516   4  10   0.7907   0.4936   0.9947   0.1657  -0.3527   0.3480   0.50    0.0
1651 465822.000   48.780888282    8.917929032   492.0681   4  10   0.7907   0.4935   0.9947   0.1659  -0.3526   0.3481   0.00    0.0
1651 465822.500   48.780888240    8.917929060   492.0582   4  10   0.7907   0.4935   0.9948   0.1660  -0.3526   0.3481   0.50    0.0
1651 465823.000   48.780885974    8.917926778   491.8694   4  10   0.7908   0.4935   0.9948   0.1661  -0.3525   0.3481   0.00    0.0
1651 465823.500   48.780885942    8.917926664   491.8708   4  10   0.7908   0.4934   0.9948   0.1662  -0.3524   0.3481   0.50    0.0
1651 465824.000   48.780889901    8.917926866   491.9774   4  10   0.7909   0.4934   0.9948   0.1663  -0.3524   0.3481   0.00    0.0
1651 465824.500   48.780889943    8.917926794   491.9777   4  10   0.7909   0.4934   0.9948   0.1664  -0.3523   0.3482   0.50    0.0
1651 465825.000   48.780889244    8.917929443   492.1904   4  10   0.7909   0.4933   0.9948   0.1665  -0.3523   0.3482   0.00    0.0
1651 465825.500   48.780889263    8.917929414   492.1988   4  10   0.7910   0.4933   0.9948   0.1666  -0.3522   0.3482   0.50    0.0
1651 465826.000   48.780889045    8.917929431   492.1913   4  10   0.7910   0.4933   0.9948   0.1668  -0.3521   0.3482   0.00    0.0
1651 465826.500   48.780889025    8.917929345   492.1977   4  10   0.7910   0.4932   0.9948   0.1669  -0.3521   0.3482   0.50    0.0
1651 465827.000   48.780886613    8.917931804   492.1235   4  10   0.7911   0.4932   0.9949   0.1670  -0.3520   0.3483   0.00    0.0
1651 465827.500   48.780886622    8.917931838   492.1312   4  10   0.7911   0.4932   0.9949   0.1671  -0.3519   0.3483   0.50    0.0
1651 465828.000   48.780886552    8.917930131   491.9227   4  10   0.7912   0.4931   0.9949   0.1672  -0.3519   0.3483   0.00    0.0
1651 465828.500   48.780886543    8.917930182   491.9183   4  10   0.7912   0.4931   0.9949   0.1673  -0.3518   0.3483   0.50    0.0
1651 465829.000   48.780885781    8.917929349   492.1068   4  10   0.7912   0.4931   0.9949   0.1674  -0.3518   0.3483   0.00    0.0
1651 465829.500   48.780885810    8.917929386   492.1219   4  10   0.7913   0.4930   0.9949   0.1675  -0.3517   0.3484   0.50    0.0
1651 465830.000   48.780886448    8.917928543   492.0224   4  10   0.7913   0.4930   0.9949   0.1676  -0.3516   0.3484   0.00    0.0
1651 465830.500   48.780886461    8.917928508   492.0201   4  10   0.7914   0.4930   0.9949   0.1677  -0.3516   0.3484   0.50    0.0
1651 465831.000   48.780889460    8.917930493   492.1398   4  10   0.7914   0.4929   0.9950   0.1679  -0.3515   0.3484   0.00    0.0
1651 465831.500   48.780889377    8.917930490   492.1421   4  10   0.7914   0.4929   0.9950   0.1680  -0.3514   0.3484   0.50    0.0
1651 465832.000   48.780889332    8.917929829   492.1561   4  10   0.7915   0.4929   0.9950   0.1681  -0.3514   0.3485   0.00    0.0
1651 465832.500   48.780889279    8.917929835   492.1432   4  10   0.7915   0.4928   0.9950   0.1682  -0.3513   0.3485   0.50    0.0
1651 465833.000   48.780887497    8.917925469   492.5320   4  10   0.7916   0.4928   0.9950   0.1683  -0.3513   0.3485   0.00    0.0
1651 465833.500   48.780887424    8.917925493   492.5314   4  10   0.7916   0.4928   0.9950   0.1684  -0.3512   0.3485   0.50    0.0
1651 465834.000   48.780888124    8.917927147   492.0600   4  10   0.7916   0.4927   0.9950   0.1685  -0.3511   0.3485   0.00    0.0
1651 465834.500   48.780888079    8.917927097   492.0570   4  10   0.7917   0.4927   0.9950   0.1686  -0.3511   0.3485   0.50    0.0
1651 465835.000   48.780891135    8.917928585   492.2316   4  10   0.7917   0.4927   0.9951   0.1687  -0.3510   0.3486   0.00    0.0
1651 465835.500   48.780891147    8.917928520   492.2344   4  10   0.7917   0.4926   0.9951   0.1689  -0.3509   0.3486   0.50    0.0
1651 465836.000   48.780885916    8.917929053   492.2394   4  10   0.7918   0.4926   0.9951   0.1690  -0.3509   0.3486   0.00    0.0
1651 465836.500   48.780885906    8.917929066   492.2311   4  10   0.7918   0.4926   0.9951   0.1691  -0.3508   0.3486   0.50    0.0
1651 465837.000   48.780889624    8.917927612   491.8361   4  10   0.7919   0.4925   0.9951   0.1692  -0.3508   0.3486   0.00    0.0
1651 465837.500   48.780889638    8.917927619   491.8417   4  10   0.7919   0.4925   0.9951   0.1693  -0.3507   0.3487   0.50    0.0
1651 465838.000   48.780889411    8.917930762   492.0702   4  10   0.7919   0.4925   0.9951   0.1694  -0.3506   0.3487   0.00    0.0
1651 465838.500   48.780889376    8.917930763   492.0775   4  10   0.7920   0.4924   0.9951   0.1695  -0.3506   0.3487   0.50    0.0
1651 465839.000   48.780886473    8.917927539   491.6606   4  10   0.7920   0.4924   0.9951   0.1696  -0.3505   0.3487   0.00    0.0
1651 465839.500   48.780886463    8.917927544   491.6703   4  10   0.7921   0.4924   0.9952   0.1697  -0.3504   0.3487   0.50    0.0
1651 465840.000   48.780884815    8.917928244   491.9305   4  10   0.7921   0.4923   0.9952   0.1698  -0.3504   0.3488   0.00    0.0
1651 465840.500   48.780884781    8.917928250   491.9314   4  10   0.7921   0.4923   0.9952   0.1700  -0.3503   0.3488   0.50    0.0
1651 465841.000   48.780889423    8.917928735   492.2904   4  10   0.7922   0.4923   0.9952   0.1701  -0.3503   0.3488   0.00    0.0
1651 465841.500   48.780889344    8.917928752   492.2984   4  10   0.7922   0.4922   0.9952   0.1702  -0.3502   0.3488   0.50    0.0
1651 465842.000   48.780886082    8.917929117   491.8866   4  10   0.7923   0.4922   0.9952   0.1703  -0.3501   0.3489   0.00    0.0
1651 465842.500   48.780886001    8.917929081   491.8809   4  10   0.7923   0.4922   0.9952   0.1704  -0.3501   0.3489   0.50    0.0
1651 465843.000   48.780891518    8.917930143   491.8754   4  10   0.7923   0.4921   0.9953   0.1705  -0.3500   0.3489   0.00    0.0
1651 465843.500   48.780891447    8.917930181   491.8672   4  10   0.7924   0.4921   0.9953   0.1706  -0.3499   0.3489   0.50    0.0
1651 465844.000   48.780887490    8.917931655   492.1567   4  10   0.7924   0.4921   0.9953   0.1707  -0.3499   0.3489   0.00    0.0
1651 465844.500   48.780887493    8.917931555   492.1665   4  10   0.7924   0.4920   0.9953   0.1708  -0.3498   0.3490   0.50    0.0
1651 465845.000   48.780884356    8.917932129   491.9570   4  10   0.7925   0.4920   0.9953   0.1709  -0.3498   0.3490   0.00    0.0
1651 465845.500   48.780884394    8.917932136   491.9647   4  10   0.7925   0.4920   0.9953   0.1710  -0.3497   0.3490   0.50    0.0
1651 465846.000   48.780887829    8.917930479   491.6517   4  10   0.7926   0.4919   0.9953   0.1712  -0.3496   0.3490   0.00    0.0
1651 465846.500   48.780887804    8.917930497   491.6607   4  10   0.7926   0.4919   0.9953   0.1713  -0.3496   0.3490   0.50    0.0
1651 465847.000   48.780887753    8.917928250   491.5791   4  10   0.7926   0.4919   0.9954   0.1714  -0.3495   0.3491   0.00    0.0
1651 465847.500   48.780887773    8.917928254   491.5802   4  10   0.7927   0.4918   0.9954   0.1715  -0.3494   0.3491   0.50    0.0
1651 465848.000   48.780887649    8.917931296   492.0770   4  10   0.7927   0.4918   0.9954   0.1716  -0.3494   0.3491   0.00    0.0
1651 465848.500   48.780887687    8.917931318   492.0831   4  10   0.7928   0.4918   0.9954   0.1717  -0.3493   0.3491   0.50    0.0
1651 465849.000   48.780889411    8.917930185   492.0263   4  10   0.7928   0.4917   0.9954   0.1718  -0.3493   0.3491   0.00    0.0
1651 465849.500   48.780889364    8.917930133   492.0268   4  10   0.7928   0.4917   0.9954   0.1719  -0.3492   0.3492   0.50    0.0
1651 465850.000   48.780889197    8.917929040   492.1891   4  10   0.7929   0.4917   0.9954   0.1720  -0.3491   0.3492   0.00    0.0
1651 465850.500   48.780889189    8.917929045   492.1919   4  10   0.7929   0.4916   0.9954   0.1721  -0.3491   0.3492   0.50    0.0
1651 465851.000   48.780886074    8.917930055   491.7984   4  10   0.7930   0.4916   0.9955   0.1722  -0.3490   0.3492   0.00    0.0
1651 465851.500   48.780886026    8.917930110   491.8110   4  10   0.7930   0.4916   0.9955   0.1723  -0.3489   0.3492   0.50    0.0
1651 465852.000   48.780885177    8.917930109   492.0289   4  10   0.7930   0.4915   0.9955   0.1725  -0.3489   0.3493   0.00    0.0
1651 465852.500   48.780885137    8.917930115   492.0300   4  10   0.7931   0.4915   0.9955   0.1726  -0.3488   0.3493   0.50    0.0
1651 465853.000   48.780887737    8.917930729   492.1306   4  10   0.7931   0.4915   0.9955   0.1727  -0.3488   0.3493   0.00    0.0
1651 465853.500   48.780887712    8.917930791   492.1265   4  10   0.7932   0.4914   0.9955   0.1728  -0.3487   0.3493   0.50    0.0
1651 465854.000   48.780884089    8.917931761   491.9732   4  10   0.7932   0.4914   0.9955   0.1729  -0.3486   0.3493   0.00    0.0
1651 465854.500   48.780884116    8.917931776   491.9743   4  10   0.7932   0.4914   0.9955   0.1730  -0.3486   0.3494   0.50    0.0
1651 465855.000   48.780887265    8.917929324   491.8512   4  10   0.7933   0.4913   0.9956   0.1731  -0.3485   0.3494   0.00    0.0
1651 465855.500   48.780887228    8.917929312   491.8544   4  10   0.7933   0.4913   0.9956   0.1732  -0.3484   0.3494   0.50    0.0
1651 465856.000   48.780889766    8.917931458   492.3292   4  10   0.7933   0.4913   0.9956   0.1733  -0.3484   0.3494   0.00    0.0
1651 465856.500   48.780889719    8.917931468   492.3236   4  10   0.7934   0.4912   0.9956   0.1734  -0.3483   0.3494   0.50    0.0
1651 465857.000   48.780885514    8.917931542   491.9246   4  10   0.7934   0.4912   0.9956   0.1735  -0.3483   0.3495   0.00    0.0
1651 465857.500   48.780885486    8.917931594   491.9246   4  10   0.7935   0.4912   0.9956   0.1736  -0.3482   0.3495   0.50    0.0
1651 465858.000   48.780884532    8.917931389   492.0298   4  10   0.7935   0.4911   0.9956   0.1738  -0.3481   0.3495   0.00    0.0
1651 465858.500   48.780884474    8.917931378   492.0387   4  10   0.7935   0.4911   0.9957   0.1739  -0.3481   0.3495   0.50    0.0
1651 465859.000   48.780888691    8.917929731   491.8937   4  10   0.7936   0.4911   0.9957   0.1740  -0.3480   0.3496   0.00    0.0
1651 465859.500   48.780888696    8.917929678   491.8878   4  10   0.7936   0.4910   0.9957   0.1741  -0.3479   0.3496   0.50    0.0
1651 465860.000   48.780888887    8.917927685   492.2218   4  10   0.7937   0.4910   0.9957   0.1742  -0.3479   0.3496   0.00    0.0
1651 465860.500   48.780888931    8.917927792   492.2306   4  10   0.7937   0.4910   0.9957   0.1743  -0.3478   0.3496   0.50    0.0
1651 465861.000   48.780888779    8.917931312   492.1928   4  10   0.7937   0.4909   0.9957   0.1744  -0.3477   0.3496   0.00    0.0
1651 465861.500   48.780888855    8.917931360   492.1942   4  10   0.7938   0.4909   0.9957   0.1745  -0.3477   0.3497   0.50    0.0
1651 465862.000   48.780888624    8.917933251   492.4770   4  10   0.7938   0.4909   0.9957   0.1746  -0.3476   0.3497   0.00    0.0
1651 465862.500   48.780888617    8.917933278   492.4680   4  10   0.7939   0.4908   0.9958   0.1747  -0.3476   0.3497   0.50    0.0
1651 465863.000   48.780890131    8.917929203   492.2136   4  10   0.7939   0.4908   0.9958   0.1748  -0.3475   0.3497   0.00    0.0
1651 465863.500   48.780890136    8.917929207   492.2075   4  10   0.7939   0.4908   0.9958   0.1749  -0.3474   0.3497   0.50    0.0
1651 465864.000   48.780890472    8.917932077   492.0281   4  10   0.7940   0.4907   0.9958   0.1750  -0.3474   0.3498   0.00    0.0
1651 465864.500   48.780890435    8.917932066   492.0247   4  10   0.7940   0.4907   0.9958   0.1751  -0.3473   0.3498   0.50    0.0
1651 465865.000   48.780889140    8.917933275   492.1793   4  10   0.7941   0.4907   0.9958   0.1753  -0.3472   0.3498   0.00    0.0
1651 465865.500   48.780889104    8.917933229   492.1699   4  10   0.7941   0.4906   0.9958   0.1754  -0.3472   0.3498   0.50    0.0
1651 465866.000   48.780885288    8.917929547   492.1573   4  10   0.7941   0.4906   0.9959   0.1755  -0.3471   0.3498   0.00    0.0
1651 465866.500   48.780885362    8.917929545   492.1618   4  10   0.7942   0.4906   0.9959   0.1756  -0.3471   0.3499   0.50    0.0
1651 465867.000   48.780887493    8.917932130   492.3566   4  10   0.7942   0.4905   0.9959   0.1757  -0.3470   0.3499   0.00    0.0
1651 465867.500   48.780887431    8.917932140   492.3499   4  10   0.7943   0.4905   0.9959   0.1758  -0.3469   0.3499   0.50    0.0
1651 465868.000   48.780888448    8.917932695   492.0082   4  10   0.7943   0.4905   0.9959   0.1759  -0.3469   0.3499   0.00    0.0
1651 465868.500   48.780888357    8.917932729   492.0078   4  10   0.7943   0.4904   0.9959   0.1760  -0.3468   0.3500   0.50    0.0
1651 465869.000   48.780888195    8.917930722   492.1701   4  10   0.7944   0.4904   0.9959   0.1761  -0.3467   0.3500   0.00    0.0
1651 465869.500   48.780888147    8.917930776   492.1656   4  10   0.7944   0.4904   0.9960   0.1762  -0.3467   0.3500   0.50    0.0
1651 465870.000   48.780886469    8.917931970   491.8061   4  10   0.7945   0.4903   0.9960   0.1763  -0.3466   0.3500   0.00    0.0
1651 465870.500   48.780886456    8.917931973   491.8118   4  10   0.7945   0.4903   0.9960   0.1764  -0.3465   0.3500   0.50    0.0
1651 465871.000   48.780889698    8.917931646   491.6565   4  10   0.7945   0.4903   0.9960   0.1765  -0.3465   0.3501   0.00    0.0
1651 465871.500   48.780889706    8.917931719   491.6667   4  10   0.7946   0.4902   0.9960   0.1766  -0.3464   0.3501   0.50    0.0
1651 465872.000   48.780890418    8.917930000   492.1511   4  10   0.7946   0.4902   0.9960   0.1767  -0.3464   0.3501   0.00    0.0
1651 465872.500   48.780890403    8.917929988   492.1435   4  10   0.7947   0.4902   0.9960   0.1769  -0.3463   0.3501   0.50    0.0
1651 465873.000   48.780890470    8.917930258   492.6266   4  10   0.7947   0.4901   0.9960   0.1770  -0.3462   0.3501   0.00    0.0
1651 465873.500   48.780890366    8.917930328   492.6223   4  10   0.7947   0.4901   0.9961   0.1771  -0.3462   0.3502   0.50    0.0
1651 465874.000   48.780891874    8.917933765   492.0677   4  10   0.7948   0.4901   0.9961   0.1772  -0.3461   0.3502   0.00    0.0
1651 465874.500   48.780891852    8.917933735   492.0594   4  10   0.7948   0.4900   0.9961   0.1773  -0.3460   0.3502   0.50    0.0
1651 465875.000   48.780887753    8.917931610   492.1560   4  10   0.7949   0.4900   0.9961   0.1774  -0.3460   0.3502   0.00    0.0
1651 465875.500   48.780887713    8.917931571   492.1632   4  10   0.7949   0.4900   0.9961   0.1775  -0.3459   0.3503   0.50    0.0
1651 465876.000   48.780888031    8.917934591   492.1377   4  10   0.7949   0.4899   0.9961   0.1776  -0.3459   0.3503   0.00    0.0
1651 465876.500   48.780888025    8.917934617   492.1432   4  10   0.7950   0.4899   0.9961   0.1777  -0.3458   0.3503   0.50    0.0
1651 465877.000   48.780887097    8.917933970   492.5948   4  10   0.7950   0.4899   0.9962   0.1778  -0.3457   0.3503   0.00    0.0
1651 465877.500   48.780887090    8.917933958   492.5926   4  10   0.7951   0.4898   0.9962   0.1779  -0.3457   0.3503   0.50    0.0
1651 465878.000   48.780890527    8.917932558   491.9125   4  10   0.7951   0.4898   0.9962   0.1780  -0.3456   0.3504   0.00    0.0
1651 465878.500   48.780890563    8.917932578   491.9087   4  10   0.7951   0.4898   0.9962   0.1781  -0.3455   0.3504   0.50    0.0
1651 465879.000   48.780890511    8.917932889   492.2455   4  10   0.7952   0.4897   0.9962   0.1782  -0.3455   0.3504   0.00    0.0
1651 465879.500   48.780890532    8.917932889   492.2421   4  10   0.7952   0.4897   0.9962   0.1783  -0.3454   0.3504   0.50    0.0
1651 465880.000   48.780889072    8.917929995   492.2560   4  10   0.7953   0.4897   0.9962   0.1784  -0.3453   0.3504   0.00    0.0
1651 465880.500   48.780889027    8.917930003   492.2511   4  10   0.7953   0.4896   0.9963   0.1785  -0.3453   0.3505   0.50    0.0
1651 465881.000   48.780887749    8.917929537   492.5191   4  10   0.7953   0.4896   0.9963   0.1786  -0.3452   0.3505   0.00    0.0
1651 465881.500   48.780887780    8.917929570   492.5149   4  10   0.7954   0.4896   0.9963   0.1788  -0.3452   0.3505   0.50    0.0
1651 465882.000   48.780890138    8.917930647   492.2497   4  10   0.7954   0.4895   0.9963   0.1789  -0.3451   0.3505   0.00    0.0
