% program   : RTKPOST ver.2.4.3 b33
% inp file  : E:\Study\master\semester 3\Satellite Navigation\lab5\data_sets\110902_092045.obs
% inp file  : E:\Study\master\semester 3\Satellite Navigation\lab5\data_sets\INSA245gA.OBS
% inp file  : E:\Study\master\semester 3\Satellite Navigation\lab5\data_sets\INSA245gA.NAV
% obs start : 2011/09/02 09:21:01.0 GPST (week1651 465661.0s)
% obs end   : 2011/09/02 10:27:55.5 GPST (week1651 469675.5s)
% pos mode  : dgps
% freqs     : L1+L2
% solution  : forward
% elev mask : 5.0 deg
% dynamics  : off
% tidecorr  : off
% ionos opt : broadcast
% tropo opt : saastamoinen
% ephemeris : broadcast
% antenna1  :                       ( 0.0000  0.0000  0.0000)
% antenna2  :                       ( 0.0000  0.0000  0.0000)
% ref pos   :  4157188.4394    671203.2023   4774768.8167
%
% (x/y/z-ecef=WGS84,Q=1:fix,2:float,3:sbas,4:dgps,5:single,6:ppp,ns=# of satellites)
%  GPST              x-ecef(m)      y-ecef(m)      z-ecef(m)   Q  ns   sdx(m)   sdy(m)   sdz(m)  sdxy(m)  sdyz(m)  sdzx(m) age(s)  ratio
1651 465661.000   4160212.6956    652805.9860   4774907.7525   4   9   0.8254   0.4896   1.0066  -0.2070  -0.2977   0.4511   0.00    0.0
1651 465661.500   4160212.6962    652805.9868   4774907.7546   4   9   0.8254   0.4896   1.0066  -0.2069  -0.2976   0.4511   0.50    0.0
1651 465662.000   4160212.4855    652805.7703   4774907.9230   4  10   0.8236   0.4857   0.9872  -0.1986  -0.2765   0.4390   0.00    0.0
1651 465662.500   4160212.4857    652805.7614   4774907.9344   4  10   0.8236   0.4857   0.9873  -0.1986  -0.2764   0.4390   0.50    0.0
1651 465663.000   4160212.1828    652805.6903   4774907.6698   4  10   0.8224   0.4826   0.9680  -0.1923  -0.2565   0.4288   0.00    0.0
1651 465663.500   4160212.1905    652805.6753   4774907.7141   4  10   0.8224   0.4825   0.9680  -0.1922  -0.2564   0.4287   0.50    0.0
1651 465664.000   4160212.0599    652805.6897   4774907.5191   4  10   0.8224   0.4825   0.9681  -0.1922  -0.2563   0.4287   0.00    0.0
1651 465664.500   4160212.0604    652805.6903   4774907.5185   4  10   0.8224   0.4825   0.9681  -0.1922  -0.2562   0.4287   0.50    0.0
1651 465665.000   4160211.8957    652805.9089   4774907.7022   4  10   0.8224   0.4824   0.9681  -0.1922  -0.2561   0.4286   0.00    0.0
1651 465665.500   4160211.8860    652805.9007   4774907.7095   4  10   0.8224   0.4824   0.9681  -0.1921  -0.2560   0.4286   0.50    0.0
1651 465666.000   4160211.9847    652805.7869   4774907.7630   4  10   0.8224   0.4824   0.9681  -0.1921  -0.2559   0.4286   0.00    0.0
1651 465666.500   4160211.9865    652805.7830   4774907.7778   4  10   0.8225   0.4823   0.9681  -0.1921  -0.2558   0.4285   0.50    0.0
1651 465667.000   4160211.9124    652805.7648   4774907.6495   4  10   0.8225   0.4823   0.9682  -0.1920  -0.2557   0.4285   0.00    0.0
1651 465667.500   4160211.9062    652805.7652   4774907.6336   4  10   0.8225   0.4823   0.9682  -0.1920  -0.2556   0.4285   0.50    0.0
1651 465668.000   4160212.0724    652805.6211   4774907.6723   4  10   0.8225   0.4822   0.9682  -0.1920  -0.2555   0.4284   0.00    0.0
1651 465668.500   4160212.0717    652805.6223   4774907.6582   4  10   0.8225   0.4822   0.9682  -0.1919  -0.2554   0.4284   0.50    0.0
1651 465669.000   4160211.9320    652805.6865   4774907.4364   4  10   0.8225   0.4821   0.9682  -0.1919  -0.2553   0.4284   0.00    0.0
1651 465669.500   4160211.9247    652805.6917   4774907.4248   4  10   0.8225   0.4821   0.9683  -0.1919  -0.2552   0.4283   0.50    0.0
1651 465670.000   4160212.0102    652805.7608   4774908.0111   4  10   0.8226   0.4821   0.9683  -0.1919  -0.2551   0.4283   0.00    0.0
1651 465670.500   4160212.0145    652805.7576   4774908.0357   4  10   0.8226   0.4820   0.9683  -0.1918  -0.2550   0.4282   0.50    0.0
1651 465671.000   4160211.9794    652805.8845   4774907.6212   4  10   0.8226   0.4820   0.9683  -0.1918  -0.2549   0.4282   0.00    0.0
1651 465671.500   4160211.9793    652805.8837   4774907.6348   4  10   0.8226   0.4820   0.9683  -0.1918  -0.2548   0.4282   0.50    0.0
1651 465672.000   4160212.2974    652806.0029   4774907.8898   4  10   0.8226   0.4819   0.9684  -0.1917  -0.2547   0.4281   0.00    0.0
1651 465672.500   4160212.2936    652805.9961   4774907.8872   4  10   0.8226   0.4819   0.9684  -0.1917  -0.2546   0.4281   0.50    0.0
1651 465673.000   4160212.3368    652805.9451   4774907.4285   4  10   0.8226   0.4819   0.9684  -0.1917  -0.2545   0.4281   0.00    0.0
1651 465673.500   4160212.3370    652805.9427   4774907.4391   4  10   0.8227   0.4818   0.9684  -0.1916  -0.2544   0.4280   0.50    0.0
1651 465674.000   4160212.1753    652805.6919   4774907.7305   4  10   0.8227   0.4818   0.9684  -0.1916  -0.2543   0.4280   0.00    0.0
1651 465674.500   4160212.1737    652805.6897   4774907.7407   4  10   0.8227   0.4817   0.9685  -0.1916  -0.2542   0.4280   0.50    0.0
1651 465675.000   4160212.0969    652805.8409   4774907.5872   4  10   0.8227   0.4817   0.9685  -0.1916  -0.2541   0.4279   0.00    0.0
1651 465675.500   4160212.0999    652805.8424   4774907.5726   4  10   0.8227   0.4817   0.9685  -0.1915  -0.2540   0.4279   0.50    0.0
1651 465676.000   4160212.3703    652805.7244   4774907.5847   4  10   0.8227   0.4816   0.9685  -0.1915  -0.2539   0.4278   0.00    0.0
1651 465676.500   4160212.3740    652805.7200   4774907.5864   4  10   0.8227   0.4816   0.9685  -0.1915  -0.2538   0.4278   0.50    0.0
1651 465677.000   4160212.1643    652805.8758   4774907.6072   4  10   0.8228   0.4816   0.9686  -0.1914  -0.2537   0.4278   0.00    0.0
1651 465677.500   4160212.1617    652805.8744   4774907.6162   4  10   0.8228   0.4815   0.9686  -0.1914  -0.2536   0.4277   0.50    0.0
1651 465678.000   4160211.4699    652805.8699   4774907.2466   4  10   0.8228   0.4815   0.9686  -0.1914  -0.2535   0.4277   0.00    0.0
1651 465678.500   4160211.4741    652805.8637   4774907.2429   4  10   0.8228   0.4815   0.9686  -0.1913  -0.2534   0.4277   0.50    0.0
1651 465679.000   4160212.1655    652805.8148   4774907.8010   4  10   0.8228   0.4814   0.9686  -0.1913  -0.2532   0.4276   0.00    0.0
1651 465679.500   4160212.1736    652805.8140   4774907.8025   4  10   0.8228   0.4814   0.9687  -0.1913  -0.2531   0.4276   0.50    0.0
1651 465680.000   4160211.5541    652805.7943   4774907.3151   4  10   0.8228   0.4813   0.9687  -0.1913  -0.2530   0.4276   0.00    0.0
1651 465680.500   4160211.5568    652805.7958   4774907.3186   4  10   0.8229   0.4813   0.9687  -0.1912  -0.2529   0.4275   0.50    0.0
1651 465681.000   4160211.6863    652805.7781   4774907.7549   4  10   0.8229   0.4813   0.9687  -0.1912  -0.2528   0.4275   0.00    0.0
1651 465681.500   4160211.6863    652805.7760   4774907.7588   4  10   0.8229   0.4812   0.9687  -0.1912  -0.2527   0.4275   0.50    0.0
1651 465682.000   4160212.0632    652805.6986   4774907.5945   4  10   0.8229   0.4812   0.9688  -0.1911  -0.2526   0.4274   0.00    0.0
1651 465682.500   4160212.0589    652805.6974   4774907.5940   4  10   0.8229   0.4812   0.9688  -0.1911  -0.2525   0.4274   0.50    0.0
1651 465683.000   4160212.2806    652805.9274   4774908.2640   4  10   0.8229   0.4811   0.9688  -0.1911  -0.2524   0.4273   0.00    0.0
1651 465683.500   4160212.2854    652805.9289   4774908.2641   4  10   0.8230   0.4811   0.9688  -0.1910  -0.2523   0.4273   0.50    0.0
1651 465684.000   4160211.4862    652805.6760   4774907.7692   4  10   0.8230   0.4811   0.9689  -0.1910  -0.2522   0.4273   0.00    0.0
1651 465684.500   4160211.4832    652805.6745   4774907.7707   4  10   0.8230   0.4810   0.9689  -0.1910  -0.2521   0.4272   0.50    0.0
1651 465685.000   4160212.1921    652805.8851   4774907.7263   4  10   0.8230   0.4810   0.9689  -0.1910  -0.2520   0.4272   0.00    0.0
1651 465685.500   4160212.1812    652805.8788   4774907.7252   4  10   0.8230   0.4809   0.9689  -0.1909  -0.2519   0.4272   0.50    0.0
1651 465686.000   4160211.9216    652805.8216   4774907.7883   4  10   0.8230   0.4809   0.9689  -0.1909  -0.2518   0.4271   0.00    0.0
1651 465686.500   4160211.9144    652805.8189   4774907.7862   4  10   0.8230   0.4809   0.9690  -0.1909  -0.2517   0.4271   0.50    0.0
1651 465687.000   4160212.0407    652805.6988   4774907.3761   4  10   0.8231   0.4808   0.9690  -0.1908  -0.2516   0.4271   0.00    0.0
1651 465687.500   4160212.0432    652805.7018   4774907.3866   4  10   0.8231   0.4808   0.9690  -0.1908  -0.2515   0.4270   0.50    0.0
1651 465688.000   4160212.1617    652805.4734   4774907.6822   4  10   0.8231   0.4808   0.9690  -0.1908  -0.2514   0.4270   0.00    0.0
1651 465688.500   4160212.1616    652805.4670   4774907.6856   4  10   0.8231   0.4807   0.9690  -0.1908  -0.2513   0.4269   0.50    0.0
1651 465689.000   4160212.0436    652805.7310   4774907.9129   4  10   0.8231   0.4807   0.9691  -0.1907  -0.2512   0.4269   0.00    0.0
1651 465689.500   4160212.0386    652805.7273   4774907.9152   4  10   0.8231   0.4807   0.9691  -0.1907  -0.2511   0.4269   0.50    0.0
1651 465690.000   4160211.9855    652805.7610   4774907.5499   4  10   0.8231   0.4806   0.9691  -0.1907  -0.2510   0.4268   0.00    0.0
1651 465690.500   4160211.9833    652805.7624   4774907.5510   4  10   0.8232   0.4806   0.9691  -0.1906  -0.2508   0.4268   0.50    0.0
1651 465691.000   4160211.5690    652805.7059   4774907.7555   4  10   0.8232   0.4806   0.9691  -0.1906  -0.2507   0.4268   0.00    0.0
1651 465691.500   4160211.5663    652805.7031   4774907.7545   4  10   0.8232   0.4805   0.9692  -0.1906  -0.2506   0.4267   0.50    0.0
1651 465692.000   4160211.5402    652805.7142   4774907.5245   4  10   0.8232   0.4805   0.9692  -0.1905  -0.2505   0.4267   0.00    0.0
1651 465692.500   4160211.5422    652805.7168   4774907.5336   4  10   0.8232   0.4804   0.9692  -0.1905  -0.2504   0.4267   0.50    0.0
1651 465693.000   4160211.8129    652806.0033   4774907.2269   4  10   0.8232   0.4804   0.9692  -0.1905  -0.2503   0.4266   0.00    0.0
1651 465693.500   4160211.8159    652806.0020   4774907.2312   4  10   0.8232   0.4804   0.9692  -0.1905  -0.2502   0.4266   0.50    0.0
1651 465694.000   4160212.2144    652805.6801   4774907.7675   4  10   0.8233   0.4803   0.9693  -0.1904  -0.2501   0.4266   0.00    0.0
1651 465694.500   4160212.2145    652805.6780   4774907.7693   4  10   0.8233   0.4803   0.9693  -0.1904  -0.2500   0.4265   0.50    0.0
1651 465695.000   4160212.1141    652805.6145   4774907.4971   4  10   0.8233   0.4803   0.9693  -0.1904  -0.2499   0.4265   0.00    0.0
1651 465695.500   4160212.1098    652805.6122   4774907.4913   4  10   0.8233   0.4802   0.9693  -0.1903  -0.2498   0.4264   0.50    0.0
1651 465696.000   4160212.2980    652805.8459   4774907.8375   4  10   0.8233   0.4802   0.9693  -0.1903  -0.2497   0.4264   0.00    0.0
1651 465696.500   4160212.2946    652805.8411   4774907.8390   4  10   0.8233   0.4802   0.9694  -0.1903  -0.2496   0.4264   0.50    0.0
1651 465697.000   4160212.2869    652805.7323   4774907.5947   4  10   0.8234   0.4801   0.9694  -0.1902  -0.2495   0.4263   0.00    0.0
1651 465697.500   4160212.2853    652805.7314   4774907.5884   4  10   0.8234   0.4801   0.9694  -0.1902  -0.2494   0.4263   0.50    0.0
1651 465698.000   4160212.1346    652805.8142   4774907.5997   4  10   0.8234   0.4800   0.9694  -0.1902  -0.2493   0.4263   0.00    0.0
1651 465698.500   4160212.1357    652805.8178   4774907.5961   4  10   0.8234   0.4800   0.9695  -0.1902  -0.2492   0.4262   0.50    0.0
1651 465699.000   4160211.8373    652805.6529   4774907.1925   4  10   0.8234   0.4800   0.9695  -0.1901  -0.2491   0.4262   0.00    0.0
1651 465699.500   4160211.8261    652805.6482   4774907.1897   4  10   0.8234   0.4799   0.9695  -0.1901  -0.2490   0.4262   0.50    0.0
1651 465700.000   4160212.1127    652805.8961   4774907.7087   4  10   0.8234   0.4799   0.9695  -0.1901  -0.2488   0.4261   0.00    0.0
1651 465700.500   4160212.1118    652805.8976   4774907.7082   4  10   0.8235   0.4799   0.9695  -0.1900  -0.2487   0.4261   0.50    0.0
1651 465701.000   4160212.2213    652805.8787   4774907.7107   4  10   0.8235   0.4798   0.9696  -0.1900  -0.2486   0.4261   0.00    0.0
1651 465701.500   4160212.2162    652805.8697   4774907.7188   4  10   0.8235   0.4798   0.9696  -0.1900  -0.2485   0.4260   0.50    0.0
1651 465702.000   4160212.4363    652805.7418   4774907.7890   4  10   0.8235   0.4798   0.9696  -0.1899  -0.2484   0.4260   0.00    0.0
1651 465702.500   4160212.4421    652805.7462   4774907.7873   4  10   0.8235   0.4797   0.9696  -0.1899  -0.2483   0.4259   0.50    0.0
1651 465703.000   4160212.1860    652805.9462   4774907.3894   4  10   0.8235   0.4797   0.9696  -0.1899  -0.2482   0.4259   0.00    0.0
1651 465703.500   4160212.1973    652805.9517   4774907.3969   4  10   0.8235   0.4797   0.9697  -0.1899  -0.2481   0.4259   0.50    0.0
1651 465704.000   4160212.0164    652805.8755   4774907.4892   4  10   0.8236   0.4796   0.9697  -0.1898  -0.2480   0.4258   0.00    0.0
1651 465704.500   4160212.0168    652805.8711   4774907.4919   4  10   0.8236   0.4796   0.9697  -0.1898  -0.2479   0.4258   0.50    0.0
1651 465705.000   4160211.8948    652805.7189   4774907.1467   4  10   0.8236   0.4795   0.9697  -0.1898  -0.2478   0.4258   0.00    0.0
1651 465705.500   4160211.8960    652805.7209   4774907.1560   4  10   0.8236   0.4795   0.9698  -0.1897  -0.2477   0.4257   0.50    0.0
1651 465706.000   4160212.6177    652805.7945   4774907.4313   4  10   0.8236   0.4795   0.9698  -0.1897  -0.2476   0.4257   0.00    0.0
1651 465706.500   4160212.6165    652805.7923   4774907.4346   4  10   0.8236   0.4794   0.9698  -0.1897  -0.2475   0.4257   0.50    0.0
1651 465707.000   4160212.1680    652805.6640   4774907.5819   4  10   0.8237   0.4794   0.9698  -0.1896  -0.2474   0.4256   0.00    0.0
1651 465707.500   4160212.1635    652805.6673   4774907.5745   4  10   0.8237   0.4794   0.9698  -0.1896  -0.2473   0.4256   0.50    0.0
1651 465708.000   4160212.1867    652805.7907   4774907.3278   4  10   0.8237   0.4793   0.9699  -0.1896  -0.2471   0.4256   0.00    0.0
1651 465708.500   4160212.1824    652805.7940   4774907.3275   4  10   0.8237   0.4793   0.9699  -0.1896  -0.2470   0.4255   0.50    0.0
1651 465709.000   4160212.2643    652805.7913   4774907.4242   4  10   0.8237   0.4793   0.9699  -0.1895  -0.2469   0.4255   0.00    0.0
1651 465709.500   4160212.2573    652805.7878   4774907.4290   4  10   0.8237   0.4792   0.9699  -0.1895  -0.2468   0.4254   0.50    0.0
1651 465710.000   4160212.0410    652805.8958   4774907.6707   4  10   0.8237   0.4792   0.9699  -0.1895  -0.2467   0.4254   0.00    0.0
1651 465710.500   4160212.0372    652805.8974   4774907.6683   4  10   0.8238   0.4792   0.9700  -0.1894  -0.2466   0.4254   0.50    0.0
1651 465711.000   4160211.7813    652805.7839   4774906.9648   4  10   0.8238   0.4791   0.9700  -0.1894  -0.2465   0.4253   0.00    0.0
1651 465711.500   4160211.7872    652805.7801   4774906.9692   4  10   0.8238   0.4791   0.9700  -0.1894  -0.2464   0.4253   0.50    0.0
1651 465712.000   4160212.2057    652805.6354   4774907.9154   4  10   0.8238   0.4790   0.9700  -0.1893  -0.2463   0.4253   0.00    0.0
1651 465712.500   4160212.2109    652805.6319   4774907.9175   4  10   0.8238   0.4790   0.9701  -0.1893  -0.2462   0.4252   0.50    0.0
1651 465713.000   4160212.2705    652805.6261   4774907.8869   4  10   0.8238   0.4790   0.9701  -0.1893  -0.2461   0.4252   0.00    0.0
1651 465713.500   4160212.2701    652805.6309   4774907.8850   4  10   0.8239   0.4789   0.9701  -0.1893  -0.2460   0.4252   0.50    0.0
1651 465714.000   4160211.9422    652805.6872   4774907.7974   4  10   0.8239   0.4789   0.9701  -0.1892  -0.2459   0.4251   0.00    0.0
1651 465714.500   4160211.9426    652805.6897   4774907.8000   4  10   0.8239   0.4789   0.9701  -0.1892  -0.2458   0.4251   0.50    0.0
1651 465715.000   4160211.7249    652805.6699   4774907.7187   4  10   0.8239   0.4788   0.9702  -0.1892  -0.2457   0.4251   0.00    0.0
1651 465715.500   4160211.7158    652805.6701   4774907.7177   4  10   0.8239   0.4788   0.9702  -0.1891  -0.2455   0.4250   0.50    0.0
1651 465716.000   4160212.1616    652805.7819   4774907.6292   4  10   0.8239   0.4788   0.9702  -0.1891  -0.2454   0.4250   0.00    0.0
1651 465716.500   4160212.1673    652805.7842   4774907.6249   4  10   0.8239   0.4787   0.9702  -0.1891  -0.2453   0.4249   0.50    0.0
1651 465717.000   4160212.0931    652805.6574   4774907.7478   4  10   0.8240   0.4787   0.9703  -0.1890  -0.2452   0.4249   0.00    0.0
1651 465717.500   4160212.0883    652805.6557   4774907.7461   4  10   0.8240   0.4787   0.9703  -0.1890  -0.2451   0.4249   0.50    0.0
1651 465718.000   4160211.9224    652805.8168   4774907.5226   4  10   0.8240   0.4786   0.9703  -0.1890  -0.2450   0.4248   0.00    0.0
1651 465718.500   4160211.9145    652805.8164   4774907.5233   4  10   0.8240   0.4786   0.9703  -0.1890  -0.2449   0.4248   0.50    0.0
1651 465719.000   4160212.3790    652805.7104   4774907.5391   4  10   0.8240   0.4785   0.9703  -0.1889  -0.2448   0.4248   0.00    0.0
1651 465719.500   4160212.3699    652805.7112   4774907.5388   4  10   0.8240   0.4785   0.9704  -0.1889  -0.2447   0.4247   0.50    0.0
1651 465720.000   4160212.1885    652805.7674   4774907.4387   4  10   0.8241   0.4785   0.9704  -0.1889  -0.2446   0.4247   0.00    0.0
1651 465720.500   4160212.1821    652805.7659   4774907.4445   4  10   0.8241   0.4784   0.9704  -0.1888  -0.2445   0.4247   0.50    0.0
1651 465721.000   4160212.1760    652805.8443   4774907.8589   4  10   0.8241   0.4784   0.9704  -0.1888  -0.2444   0.4246   0.00    0.0
1651 465721.500   4160212.1705    652805.8514   4774907.8511   4  10   0.8241   0.4784   0.9705  -0.1888  -0.2443   0.4246   0.50    0.0
1651 465722.000   4160211.9170    652805.5076   4774907.8297   4  10   0.8241   0.4783   0.9705  -0.1888  -0.2441   0.4246   0.00    0.0
1651 465722.500   4160211.9167    652805.5098   4774907.8408   4  10   0.8241   0.4783   0.9705  -0.1887  -0.2440   0.4245   0.50    0.0
1651 465723.000   4160212.2393    652805.7272   4774907.7104   4  10   0.8241   0.4783   0.9705  -0.1887  -0.2439   0.4245   0.00    0.0
1651 465723.500   4160212.2374    652805.7283   4774907.7085   4  10   0.8242   0.4782   0.9705  -0.1887  -0.2438   0.4244   0.50    0.0
1651 465724.000   4160211.6656    652805.8412   4774907.8405   4  10   0.8242   0.4782   0.9706  -0.1886  -0.2437   0.4244   0.00    0.0
1651 465724.500   4160211.6552    652805.8431   4774907.8358   4  10   0.8242   0.4782   0.9706  -0.1886  -0.2436   0.4244   0.50    0.0
1651 465725.000   4160211.9796    652805.7425   4774907.2695   4  10   0.8242   0.4781   0.9706  -0.1886  -0.2435   0.4243   0.00    0.0
1651 465725.500   4160211.9863    652805.7412   4774907.2670   4  10   0.8242   0.4781   0.9706  -0.1885  -0.2434   0.4243   0.50    0.0
1651 465726.000   4160211.8683    652805.8937   4774907.4037   4  10   0.8242   0.4780   0.9707  -0.1885  -0.2433   0.4243   0.00    0.0
1651 465726.500   4160211.8686    652805.8972   4774907.3998   4  10   0.8243   0.4780   0.9707  -0.1885  -0.2432   0.4242   0.50    0.0
1651 465727.000   4160211.6997    652805.7717   4774907.5906   4  10   0.8243   0.4780   0.9707  -0.1885  -0.2431   0.4242   0.00    0.0
1651 465727.500   4160211.6984    652805.7678   4774907.5995   4  10   0.8243   0.4779   0.9707  -0.1884  -0.2429   0.4242   0.50    0.0
1651 465728.000   4160211.5383    652805.6172   4774907.1729   4  10   0.8243   0.4779   0.9707  -0.1884  -0.2428   0.4241   0.00    0.0
1651 465728.500   4160211.5403    652805.6176   4774907.1776   4  10   0.8243   0.4779   0.9708  -0.1884  -0.2427   0.4241   0.50    0.0
1651 465729.000   4160211.4751    652805.5873   4774907.3249   4  10   0.8243   0.4778   0.9708  -0.1883  -0.2426   0.4241   0.00    0.0
1651 465729.500   4160211.4797    652805.5880   4774907.3320   4  10   0.8243   0.4778   0.9708  -0.1883  -0.2425   0.4240   0.50    0.0
1651 465730.000   4160211.7960    652805.5748   4774907.5874   4  10   0.8244   0.4778   0.9708  -0.1883  -0.2424   0.4240   0.00    0.0
1651 465730.500   4160211.7894    652805.5702   4774907.5837   4  10   0.8244   0.4777   0.9709  -0.1882  -0.2423   0.4239   0.50    0.0
1651 465731.000   4160211.8635    652805.6279   4774907.4624   4  10   0.8244   0.4777   0.9709  -0.1882  -0.2422   0.4239   0.00    0.0
1651 465731.500   4160211.8691    652805.6291   4774907.4651   4  10   0.8244   0.4777   0.9709  -0.1882  -0.2421   0.4239   0.50    0.0
1651 465732.000   4160211.9029    652805.5756   4774907.3613   4  10   0.8244   0.4776   0.9709  -0.1882  -0.2420   0.4238   0.00    0.0
1651 465732.500   4160211.9064    652805.5760   4774907.3593   4  10   0.8244   0.4776   0.9709  -0.1881  -0.2419   0.4238   0.50    0.0
1651 465733.000   4160212.0394    652805.6469   4774907.8610   4  10   0.8245   0.4776   0.9710  -0.1881  -0.2418   0.4238   0.00    0.0
1651 465733.500   4160212.0469    652805.6483   4774907.8659   4  10   0.8245   0.4775   0.9710  -0.1881  -0.2416   0.4237   0.50    0.0
1651 465734.000   4160211.9223    652805.7052   4774907.7292   4  10   0.8245   0.4775   0.9710  -0.1880  -0.2415   0.4237   0.00    0.0
1651 465734.500   4160211.9229    652805.7069   4774907.7352   4  10   0.8245   0.4774   0.9710  -0.1880  -0.2414   0.4237   0.50    0.0
1651 465735.000   4160212.0040    652805.6577   4774907.7210   4  10   0.8245   0.4774   0.9711  -0.1880  -0.2413   0.4236   0.00    0.0
1651 465735.500   4160211.9997    652805.6590   4774907.7233   4  10   0.8245   0.4774   0.9711  -0.1879  -0.2412   0.4236   0.50    0.0
1651 465736.000   4160211.8945    652805.6137   4774907.7949   4  10   0.8246   0.4773   0.9711  -0.1879  -0.2411   0.4236   0.00    0.0
1651 465736.500   4160211.8904    652805.6158   4774907.8036   4  10   0.8246   0.4773   0.9711  -0.1879  -0.2410   0.4235   0.50    0.0
1651 465737.000   4160212.0814    652805.4527   4774907.7766   4  10   0.8246   0.4773   0.9712  -0.1879  -0.2409   0.4235   0.00    0.0
1651 465737.500   4160212.0748    652805.4495   4774907.7714   4  10   0.8246   0.4772   0.9712  -0.1878  -0.2408   0.4234   0.50    0.0
1651 465738.000   4160212.3006    652805.3536   4774907.8266   4  10   0.8246   0.4772   0.9712  -0.1878  -0.2407   0.4234   0.00    0.0
1651 465738.500   4160212.2960    652805.3499   4774907.8189   4  10   0.8246   0.4772   0.9712  -0.1878  -0.2405   0.4234   0.50    0.0
1651 465739.000   4160212.1628    652805.5478   4774907.8020   4  10   0.8246   0.4771   0.9712  -0.1877  -0.2404   0.4233   0.00    0.0
1651 465739.500   4160212.1601    652805.5468   4774907.7995   4  10   0.8247   0.4771   0.9713  -0.1877  -0.2403   0.4233   0.50    0.0
1651 465740.000   4160212.1096    652805.5729   4774907.4025   4  10   0.8247   0.4771   0.9713  -0.1877  -0.2402   0.4233   0.00    0.0
1651 465740.500   4160212.1070    652805.5767   4774907.4068   4  10   0.8247   0.4770   0.9713  -0.1876  -0.2401   0.4232   0.50    0.0
1651 465741.000   4160212.0616    652805.6930   4774907.3432   4  10   0.8247   0.4770   0.9713  -0.1876  -0.2400   0.4232   0.00    0.0
1651 465741.500   4160212.0541    652805.6943   4774907.3507   4  10   0.8247   0.4770   0.9714  -0.1876  -0.2399   0.4232   0.50    0.0
1651 465742.000   4160211.9069    652805.6449   4774907.7801   4  10   0.8247   0.4769   0.9714  -0.1876  -0.2398   0.4231   0.00    0.0
1651 465742.500   4160211.9071    652805.6414   4774907.7904   4  10   0.8248   0.4769   0.9714  -0.1875  -0.2397   0.4231   0.50    0.0
1651 465743.000   4160212.2063    652805.4646   4774907.6922   4  10   0.8248   0.4768   0.9714  -0.1875  -0.2396   0.4231   0.00    0.0
1651 465743.500   4160212.2089    652805.4651   4774907.6876   4  10   0.8248   0.4768   0.9715  -0.1875  -0.2394   0.4230   0.50    0.0
1651 465744.000   4160212.0992    652805.6858   4774907.8812   4  10   0.8248   0.4768   0.9715  -0.1874  -0.2393   0.4230   0.00    0.0
1651 465744.500   4160212.1047    652805.6939   4774907.8828   4  10   0.8248   0.4767   0.9715  -0.1874  -0.2392   0.4230   0.50    0.0
1651 465745.000   4160212.2345    652805.5846   4774908.2048   4  10   0.8248   0.4767   0.9715  -0.1874  -0.2391   0.4229   0.00    0.0
1651 465745.500   4160212.2318    652805.5788   4774908.2083   4  10   0.8249   0.4767   0.9715  -0.1873  -0.2390   0.4229   0.50    0.0
1651 465746.000   4160211.9119    652805.6396   4774907.9439   4  10   0.8249   0.4766   0.9716  -0.1873  -0.2389   0.4228   0.00    0.0
1651 465746.500   4160211.9128    652805.6425   4774907.9470   4  10   0.8249   0.4766   0.9716  -0.1873  -0.2388   0.4228   0.50    0.0
1651 465747.000   4160212.0067    652805.6690   4774907.8656   4  10   0.8249   0.4766   0.9716  -0.1873  -0.2387   0.4228   0.00    0.0
1651 465747.500   4160211.9991    652805.6633   4774907.8642   4  10   0.8249   0.4765   0.9716  -0.1872  -0.2386   0.4227   0.50    0.0
1651 465748.000   4160211.7354    652805.7467   4774907.5229   4  10   0.8249   0.4765   0.9717  -0.1872  -0.2384   0.4227   0.00    0.0
1651 465748.500   4160211.7401    652805.7430   4774907.5264   4  10   0.8249   0.4765   0.9717  -0.1872  -0.2383   0.4227   0.50    0.0
1651 465749.000   4160211.5293    652805.5397   4774907.4616   4  10   0.8250   0.4764   0.9717  -0.1871  -0.2382   0.4226   0.00    0.0
1651 465749.500   4160211.5252    652805.5411   4774907.4605   4  10   0.8250   0.4764   0.9717  -0.1871  -0.2381   0.4226   0.50    0.0
1651 465750.000   4160211.4724    652805.5406   4774907.3684   4  10   0.8250   0.4764   0.9718  -0.1871  -0.2380   0.4226   0.00    0.0
1651 465750.500   4160211.4701    652805.5397   4774907.3672   4  10   0.8250   0.4763   0.9718  -0.1871  -0.2379   0.4225   0.50    0.0
1651 465751.000   4160211.8943    652805.5613   4774908.0250   4  10   0.8250   0.4763   0.9718  -0.1870  -0.2378   0.4225   0.00    0.0
1651 465751.500   4160211.8999    652805.5595   4774908.0199   4  10   0.8250   0.4763   0.9718  -0.1870  -0.2377   0.4225   0.50    0.0
1651 465752.000   4160212.0574    652805.5223   4774907.8105   4  10   0.8251   0.4762   0.9718  -0.1870  -0.2376   0.4224   0.00    0.0
1651 465752.500   4160212.0570    652805.5221   4774907.8091   4  10   0.8251   0.4762   0.9719  -0.1869  -0.2374   0.4224   0.50    0.0
1651 465753.000   4160212.1091    652805.6547   4774907.6939   4  10   0.8251   0.4761   0.9719  -0.1869  -0.2373   0.4224   0.00    0.0
1651 465753.500   4160212.1103    652805.6483   4774907.6939   4  10   0.8251   0.4761   0.9719  -0.1869  -0.2372   0.4223   0.50    0.0
1651 465754.000   4160211.8399    652805.6130   4774907.5105   4  10   0.8251   0.4761   0.9719  -0.1868  -0.2371   0.4223   0.00    0.0
1651 465754.500   4160211.8303    652805.6112   4774907.5029   4  10   0.8251   0.4760   0.9720  -0.1868  -0.2370   0.4222   0.50    0.0
1651 465755.000   4160212.0988    652805.6316   4774907.5561   4  10   0.8252   0.4760   0.9720  -0.1868  -0.2369   0.4222   0.00    0.0
1651 465755.500   4160212.0995    652805.6374   4774907.5587   4  10   0.8252   0.4760   0.9720  -0.1868  -0.2368   0.4222   0.50    0.0
1651 465756.000   4160211.9130    652805.6931   4774907.6572   4  10   0.8252   0.4759   0.9720  -0.1867  -0.2367   0.4221   0.00    0.0
1651 465756.500   4160211.9159    652805.6899   4774907.6604   4  10   0.8252   0.4759   0.9721  -0.1867  -0.2365   0.4221   0.50    0.0
1651 465757.000   4160211.7484    652805.5367   4774907.7229   4  10   0.8252   0.4759   0.9721  -0.1867  -0.2364   0.4221   0.00    0.0
1651 465757.500   4160211.7406    652805.5295   4774907.7061   4  10   0.8252   0.4758   0.9721  -0.1866  -0.2363   0.4220   0.50    0.0
1651 465758.000   4160212.1019    652805.6588   4774907.7617   4  10   0.8253   0.4758   0.9721  -0.1866  -0.2362   0.4220   0.00    0.0
1651 465758.500   4160212.1094    652805.6589   4774907.7708   4  10   0.8253   0.4758   0.9722  -0.1866  -0.2361   0.4220   0.50    0.0
1651 465759.000   4160211.8192    652805.7371   4774907.9463   4  10   0.8253   0.4757   0.9722  -0.1865  -0.2360   0.4219   0.00    0.0
1651 465759.500   4160211.8273    652805.7381   4774907.9510   4  10   0.8253   0.4757   0.9722  -0.1865  -0.2359   0.4219   0.50    0.0
1651 465760.000   4160211.9443    652805.5533   4774907.8551   4  10   0.8253   0.4757   0.9722  -0.1865  -0.2358   0.4219   0.00    0.0
1651 465760.500   4160211.9423    652805.5481   4774907.8698   4  10   0.8253   0.4756   0.9723  -0.1865  -0.2356   0.4218   0.50    0.0
1651 465761.000   4160211.6408    652805.7165   4774907.6045   4  10   0.8254   0.4756   0.9723  -0.1864  -0.2355   0.4218   0.00    0.0
1651 465761.500   4160211.6431    652805.7142   4774907.6015   4  10   0.8254   0.4756   0.9723  -0.1864  -0.2354   0.4217   0.50    0.0
1651 465762.000   4160211.9138    652805.7010   4774907.5955   4  10   0.8254   0.4755   0.9723  -0.1864  -0.2353   0.4217   0.00    0.0
1651 465762.500   4160211.9122    652805.6944   4774907.5916   4  10   0.8254   0.4755   0.9724  -0.1863  -0.2352   0.4217   0.50    0.0
1651 465763.000   4160212.1490    652805.5691   4774907.8113   4  10   0.8254   0.4755   0.9724  -0.1863  -0.2351   0.4216   0.00    0.0
1651 465763.500   4160212.1420    652805.5724   4774907.8068   4  10   0.8254   0.4754   0.9724  -0.1863  -0.2350   0.4216   0.50    0.0
1651 465764.000   4160211.5398    652805.6809   4774907.6985   4  10   0.8255   0.4754   0.9724  -0.1862  -0.2349   0.4216   0.00    0.0
1651 465764.500   4160211.5360    652805.6809   4774907.7008   4  10   0.8255   0.4753   0.9724  -0.1862  -0.2347   0.4215   0.50    0.0
1651 465765.000   4160211.8453    652805.8737   4774907.9658   4  10   0.8255   0.4753   0.9725  -0.1862  -0.2346   0.4215   0.00    0.0
1651 465765.500   4160211.8426    652805.8713   4774907.9713   4  10   0.8255   0.4753   0.9725  -0.1862  -0.2345   0.4215   0.50    0.0
1651 465766.000   4160212.0893    652805.5790   4774907.6926   4  10   0.8255   0.4752   0.9725  -0.1861  -0.2344   0.4214   0.00    0.0
1651 465766.500   4160212.0917    652805.5790   4774907.6984   4  10   0.8255   0.4752   0.9725  -0.1861  -0.2343   0.4214   0.50    0.0
1651 465767.000   4160211.6548    652805.7339   4774907.6493   4  10   0.8256   0.4752   0.9726  -0.1861  -0.2342   0.4214   0.00    0.0
1651 465767.500   4160211.6488    652805.7286   4774907.6565   4  10   0.8256   0.4751   0.9726  -0.1860  -0.2341   0.4213   0.50    0.0
1651 465768.000   4160212.1035    652805.4730   4774907.7578   4  10   0.8256   0.4751   0.9726  -0.1860  -0.2340   0.4213   0.00    0.0
1651 465768.500   4160212.0957    652805.4707   4774907.7480   4  10   0.8256   0.4751   0.9726  -0.1860  -0.2338   0.4213   0.50    0.0
1651 465769.000   4160212.0062    652805.8092   4774907.6721   4  10   0.8256   0.4750   0.9727  -0.1860  -0.2337   0.4212   0.00    0.0
1651 465769.500   4160212.0110    652805.8015   4774907.6734   4  10   0.8256   0.4750   0.9727  -0.1859  -0.2336   0.4212   0.50    0.0
1651 465770.000   4160211.8877    652805.5202   4774907.7995   4  10   0.8257   0.4750   0.9727  -0.1859  -0.2335   0.4212   0.00    0.0
1651 465770.500   4160211.8894    652805.5221   4774907.7993   4  10   0.8257   0.4749   0.9727  -0.1859  -0.2334   0.4211   0.50    0.0
1651 465771.000   4160212.0629    652805.7189   4774907.9638   4  10   0.8257   0.4749   0.9728  -0.1858  -0.2333   0.4211   0.00    0.0
1651 465771.500   4160212.0613    652805.7236   4774907.9664   4  10   0.8257   0.4749   0.9728  -0.1858  -0.2332   0.4210   0.50    0.0
1651 465772.000   4160211.9054    652805.6347   4774907.8314   4  10   0.8257   0.4748   0.9728  -0.1858  -0.2330   0.4210   0.00    0.0
1651 465772.500   4160211.9016    652805.6280   4774907.8287   4  10   0.8257   0.4748   0.9728  -0.1857  -0.2329   0.4210   0.50    0.0
1651 465773.000   4160212.0369    652805.6169   4774907.6310   4  10   0.8258   0.4748   0.9729  -0.1857  -0.2328   0.4209   0.00    0.0
1651 465773.500   4160212.0387    652805.6169   4774907.6387   4  10   0.8258   0.4747   0.9729  -0.1857  -0.2327   0.4209   0.50    0.0
1651 465774.000   4160212.0465    652805.7211   4774907.5109   4  10   0.8258   0.4747   0.9729  -0.1857  -0.2326   0.4209   0.00    0.0
1651 465774.500   4160212.0365    652805.7215   4774907.5009   4  10   0.8258   0.4747   0.9729  -0.1856  -0.2325   0.4208   0.50    0.0
1651 465775.000   4160211.9939    652805.5986   4774907.6892   4  10   0.8258   0.4746   0.9730  -0.1856  -0.2324   0.4208   0.00    0.0
1651 465775.500   4160211.9930    652805.5968   4774907.6970   4  10   0.8258   0.4746   0.9730  -0.1856  -0.2322   0.4208   0.50    0.0
1651 465776.000   4160211.8320    652805.4113   4774907.6073   4  10   0.8259   0.4746   0.9730  -0.1855  -0.2321   0.4207   0.00    0.0
1651 465776.500   4160211.8291    652805.4105   4774907.5997   4  10   0.8259   0.4745   0.9730  -0.1855  -0.2320   0.4207   0.50    0.0
1651 465777.000   4160211.9971    652805.5663   4774907.8260   4  10   0.8259   0.4745   0.9731  -0.1855  -0.2319   0.4207   0.00    0.0
1651 465777.500   4160212.0052    652805.5695   4774907.8246   4  10   0.8259   0.4744   0.9731  -0.1854  -0.2318   0.4206   0.50    0.0
1651 465778.000   4160211.7419    652805.6740   4774907.6398   4  10   0.8259   0.4744   0.9731  -0.1854  -0.2317   0.4206   0.00    0.0
1651 465778.500   4160211.7425    652805.6709   4774907.6373   4  10   0.8259   0.4744   0.9731  -0.1854  -0.2316   0.4206   0.50    0.0
1651 465779.000   4160212.2793    652805.6821   4774908.1697   4  10   0.8260   0.4743   0.9732  -0.1854  -0.2314   0.4205   0.00    0.0
1651 465779.500   4160212.2779    652805.6849   4774908.1680   4  10   0.8260   0.4743   0.9732  -0.1853  -0.2313   0.4205   0.50    0.0
1651 465780.000   4160212.2775    652805.6159   4774907.7237   4  10   0.8260   0.4743   0.9732  -0.1853  -0.2312   0.4204   0.00    0.0
1651 465780.500   4160212.2818    652805.6131   4774907.7259   4  10   0.8260   0.4742   0.9732  -0.1853  -0.2311   0.4204   0.50    0.0
1651 465781.000   4160211.8535    652805.3356   4774907.6659   4  10   0.8260   0.4742   0.9733  -0.1852  -0.2310   0.4204   0.00    0.0
1651 465781.500   4160211.8481    652805.3328   4774907.6657   4  10   0.8260   0.4742   0.9733  -0.1852  -0.2309   0.4203   0.50    0.0
1651 465782.000   4160211.7556    652805.4877   4774908.0337   4  10   0.8261   0.4741   0.9733  -0.1852  -0.2307   0.4203   0.00    0.0
1651 465782.500   4160211.7625    652805.4867   4774908.0391   4  10   0.8261   0.4741   0.9733  -0.1851  -0.2306   0.4203   0.50    0.0
1651 465783.000   4160212.3028    652805.5498   4774907.7442   4  10   0.8261   0.4741   0.9734  -0.1851  -0.2305   0.4202   0.00    0.0
1651 465783.500   4160212.2991    652805.5488   4774907.7444   4  10   0.8261   0.4740   0.9734  -0.1851  -0.2304   0.4202   0.50    0.0
1651 465784.000   4160211.7250    652805.5407   4774907.4478   4  10   0.8261   0.4740   0.9734  -0.1851  -0.2303   0.4202   0.00    0.0
1651 465784.500   4160211.7290    652805.5395   4774907.4475   4  10   0.8261   0.4740   0.9734  -0.1850  -0.2302   0.4201   0.50    0.0
1651 465785.000   4160212.2003    652805.6592   4774908.0203   4  10   0.8262   0.4739   0.9735  -0.1850  -0.2301   0.4201   0.00    0.0
1651 465785.500   4160212.1960    652805.6553   4774908.0144   4  10   0.8262   0.4739   0.9735  -0.1850  -0.2299   0.4201   0.50    0.0
1651 465786.000   4160212.1659    652805.6475   4774907.8868   4  10   0.8262   0.4739   0.9735  -0.1849  -0.2298   0.4200   0.00    0.0
1651 465786.500   4160212.1706    652805.6528   4774907.8936   4  10   0.8262   0.4738   0.9735  -0.1849  -0.2297   0.4200   0.50    0.0
1651 465787.000   4160211.9045    652805.4623   4774907.4551   4  10   0.8262   0.4738   0.9736  -0.1849  -0.2296   0.4200   0.00    0.0
1651 465787.500   4160211.9074    652805.4624   4774907.4599   4  10   0.8262   0.4738   0.9736  -0.1849  -0.2295   0.4199   0.50    0.0
1651 465788.000   4160211.8602    652805.5928   4774907.8969   4  10   0.8263   0.4737   0.9736  -0.1848  -0.2294   0.4199   0.00    0.0
1651 465788.500   4160211.8537    652805.5918   4774907.8852   4  10   0.8263   0.4737   0.9736  -0.1848  -0.2292   0.4199   0.50    0.0
1651 465789.000   4160212.1631    652805.5090   4774907.6501   4  10   0.8263   0.4737   0.9737  -0.1848  -0.2291   0.4198   0.00    0.0
1651 465789.500   4160212.1601    652805.5130   4774907.6488   4  10   0.8263   0.4736   0.9737  -0.1847  -0.2290   0.4198   0.50    0.0
1651 465790.000   4160212.2283    652805.4290   4774907.6988   4  10   0.8263   0.4736   0.9737  -0.1847  -0.2289   0.4197   0.00    0.0
1651 465790.500   4160212.2256    652805.4319   4774907.7103   4  10   0.8263   0.4736   0.9737  -0.1847  -0.2288   0.4197   0.50    0.0
1651 465791.000   4160211.8368    652805.4129   4774907.7511   4  10   0.8264   0.4735   0.9738  -0.1846  -0.2287   0.4197   0.00    0.0
1651 465791.500   4160211.8281    652805.4148   4774907.7410   4  10   0.8264   0.4735   0.9738  -0.1846  -0.2285   0.4196   0.50    0.0
1651 465792.000   4160212.1547    652805.6489   4774908.2619   4  10   0.8264   0.4735   0.9738  -0.1846  -0.2284   0.4196   0.00    0.0
1651 465792.500   4160212.1469    652805.6483   4774908.2562   4  10   0.8264   0.4734   0.9738  -0.1846  -0.2283   0.4196   0.50    0.0
1651 465793.000   4160212.2100    652805.8194   4774907.8831   4  10   0.8264   0.4734   0.9739  -0.1845  -0.2282   0.4195   0.00    0.0
1651 465793.500   4160212.2058    652805.8180   4774907.8810   4  10   0.8264   0.4734   0.9739  -0.1845  -0.2281   0.4195   0.50    0.0
1651 465794.000   4160211.9468    652805.5505   4774907.5291   4  10   0.8265   0.4733   0.9739  -0.1845  -0.2280   0.4195   0.00    0.0
1651 465794.500   4160211.9533    652805.5481   4774907.5335   4  10   0.8265   0.4733   0.9740  -0.1844  -0.2278   0.4194   0.50    0.0
1651 465795.000   4160211.7632    652805.8053   4774907.6947   4  10   0.8265   0.4732   0.9740  -0.1844  -0.2277   0.4194   0.00    0.0
1651 465795.500   4160211.7646    652805.8042   4774907.6873   4  10   0.8265   0.4732   0.9740  -0.1844  -0.2276   0.4194   0.50    0.0
1651 465796.000   4160211.7965    652805.6751   4774907.7112   4  10   0.8265   0.4732   0.9740  -0.1843  -0.2275   0.4193   0.00    0.0
1651 465796.500   4160211.8042    652805.6727   4774907.7157   4  10   0.8265   0.4731   0.9741  -0.1843  -0.2274   0.4193   0.50    0.0
1651 465797.000   4160211.7286    652805.6058   4774907.8866   4  10   0.8266   0.4731   0.9741  -0.1843  -0.2273   0.4193   0.00    0.0
1651 465797.500   4160211.7284    652805.6060   4774907.8873   4  10   0.8266   0.4731   0.9741  -0.1843  -0.2271   0.4192   0.50    0.0
1651 465798.000   4160211.9368    652805.7944   4774907.8876   4  10   0.8266   0.4730   0.9741  -0.1842  -0.2270   0.4192   0.00    0.0
1651 465798.500   4160211.9389    652805.7950   4774907.8919   4  10   0.8266   0.4730   0.9742  -0.1842  -0.2269   0.4192   0.50    0.0
1651 465799.000   4160211.9115    652805.5800   4774907.9282   4  10   0.8266   0.4730   0.9742  -0.1842  -0.2268   0.4191   0.00    0.0
1651 465799.500   4160211.9116    652805.5776   4774907.9280   4  10   0.8266   0.4729   0.9742  -0.1841  -0.2267   0.4191   0.50    0.0
1651 465800.000   4160211.8372    652805.6180   4774907.5216   4  10   0.8267   0.4729   0.9742  -0.1841  -0.2266   0.4190   0.00    0.0
1651 465800.500   4160211.8450    652805.6139   4774907.5248   4  10   0.8267   0.4729   0.9743  -0.1841  -0.2264   0.4190   0.50    0.0
1651 465801.000   4160211.8972    652805.4824   4774908.0685   4  10   0.8267   0.4728   0.9743  -0.1841  -0.2263   0.4190   0.00    0.0
1651 465801.500   4160211.8921    652805.4853   4774908.0621   4  10   0.8267   0.4728   0.9743  -0.1840  -0.2262   0.4189   0.50    0.0
1651 465802.000   4160212.0873    652805.7550   4774907.6465   4  10   0.8267   0.4728   0.9743  -0.1840  -0.2261   0.4189   0.00    0.0
1651 465802.500   4160212.0757    652805.7541   4774907.6445   4  10   0.8268   0.4727   0.9744  -0.1840  -0.2260   0.4189   0.50    0.0
1651 465803.000   4160212.0958    652805.4271   4774908.0908   4  10   0.8268   0.4727   0.9744  -0.1839  -0.2258   0.4188   0.00    0.0
1651 465803.500   4160212.1043    652805.4319   4774908.0903   4  10   0.8268   0.4727   0.9744  -0.1839  -0.2257   0.4188   0.50    0.0
1651 465804.000   4160212.0736    652805.6402   4774907.8127   4  10   0.8268   0.4726   0.9744  -0.1839  -0.2256   0.4188   0.00    0.0
1651 465804.500   4160212.0696    652805.6402   4774907.8100   4  10   0.8268   0.4726   0.9745  -0.1838  -0.2255   0.4187   0.50    0.0
1651 465805.000   4160212.1087    652805.6828   4774907.6536   4  10   0.8268   0.4726   0.9745  -0.1838  -0.2254   0.4187   0.00    0.0
1651 465805.500   4160212.1151    652805.6865   4774907.6574   4  10   0.8269   0.4725   0.9745  -0.1838  -0.2253   0.4187   0.50    0.0
1651 465806.000   4160211.7452    652805.5314   4774907.8550   4  10   0.8269   0.4725   0.9746  -0.1838  -0.2251   0.4186   0.00    0.0
1651 465806.500   4160211.7484    652805.5333   4774907.8515   4  10   0.8269   0.4725   0.9746  -0.1837  -0.2250   0.4186   0.50    0.0
1651 465807.000   4160211.5390    652805.3945   4774907.7524   4  10   0.8269   0.4724   0.9746  -0.1837  -0.2249   0.4186   0.00    0.0
1651 465807.500   4160211.5460    652805.3927   4774907.7578   4  10   0.8269   0.4724   0.9746  -0.1837  -0.2248   0.4185   0.50    0.0
1651 465808.000   4160212.0157    652805.6153   4774907.5874   4  10   0.8269   0.4724   0.9747  -0.1836  -0.2247   0.4185   0.00    0.0
1651 465808.500   4160212.0167    652805.6147   4774907.5881   4  10   0.8270   0.4723   0.9747  -0.1836  -0.2245   0.4185   0.50    0.0
1651 465809.000   4160212.0850    652805.6180   4774908.0982   4  10   0.8270   0.4723   0.9747  -0.1836  -0.2244   0.4184   0.00    0.0
1651 465809.500   4160212.0852    652805.6181   4774908.0922   4  10   0.8270   0.4723   0.9747  -0.1835  -0.2243   0.4184   0.50    0.0
1651 465810.000   4160211.8456    652805.7253   4774907.9957   4  10   0.8270   0.4722   0.9748  -0.1835  -0.2242   0.4183   0.00    0.0
1651 465810.500   4160211.8496    652805.7267   4774907.9931   4  10   0.8270   0.4722   0.9748  -0.1835  -0.2241   0.4183   0.50    0.0
1651 465811.000   4160212.0740    652805.7293   4774907.8187   4  10   0.8270   0.4722   0.9748  -0.1835  -0.2239   0.4183   0.00    0.0
1651 465811.500   4160212.0775    652805.7358   4774907.8063   4  10   0.8271   0.4721   0.9748  -0.1834  -0.2238   0.4182   0.50    0.0
1651 465812.000   4160211.5635    652805.6339   4774907.5909   4  10   0.8271   0.4721   0.9749  -0.1834  -0.2237   0.4182   0.00    0.0
1651 465812.500   4160211.5582    652805.6344   4774907.5854   4  10   0.8271   0.4721   0.9749  -0.1834  -0.2236   0.4182   0.50    0.0
1651 465813.000   4160211.7904    652805.8113   4774908.0519   4  10   0.8271   0.4720   0.9749  -0.1833  -0.2235   0.4181   0.00    0.0
1651 465813.500   4160211.7972    652805.8101   4774908.0503   4  10   0.8271   0.4720   0.9749  -0.1833  -0.2233   0.4181   0.50    0.0
1651 465814.000   4160211.5581    652805.7671   4774907.7302   4  10   0.8272   0.4720   0.9750  -0.1833  -0.2232   0.4181   0.00    0.0
1651 465814.500   4160211.5623    652805.7700   4774907.7364   4  10   0.8272   0.4719   0.9750  -0.1833  -0.2231   0.4180   0.50    0.0
1651 465815.000   4160211.6841    652805.6804   4774907.5789   4  10   0.8272   0.4719   0.9750  -0.1832  -0.2230   0.4180   0.00    0.0
1651 465815.500   4160211.6778    652805.6811   4774907.5723   4  10   0.8272   0.4719   0.9751  -0.1832  -0.2229   0.4180   0.50    0.0
1651 465816.000   4160212.1581    652805.9025   4774907.4198   4  10   0.8272   0.4718   0.9751  -0.1832  -0.2227   0.4179   0.00    0.0
1651 465816.500   4160212.1566    652805.9009   4774907.4188   4  10   0.8272   0.4718   0.9751  -0.1831  -0.2226   0.4179   0.50    0.0
1651 465817.000   4160211.7349    652805.6662   4774907.3942   4  10   0.8273   0.4718   0.9751  -0.1831  -0.2225   0.4179   0.00    0.0
1651 465817.500   4160211.7283    652805.6684   4774907.3899   4  10   0.8273   0.4717   0.9752  -0.1831  -0.2224   0.4178   0.50    0.0
1651 465818.000   4160212.0568    652805.5838   4774907.6053   4  10   0.8273   0.4717   0.9752  -0.1830  -0.2223   0.4178   0.00    0.0
1651 465818.500   4160212.0552    652805.5912   4774907.6015   4  10   0.8273   0.4717   0.9752  -0.1830  -0.2221   0.4178   0.50    0.0
1651 465819.000   4160212.2944    652805.6154   4774907.6155   4  10   0.8273   0.4716   0.9752  -0.1830  -0.2220   0.4177   0.00    0.0
1651 465819.500   4160212.2975    652805.6203   4774907.6121   4  10   0.8273   0.4716   0.9753  -0.1830  -0.2219   0.4177   0.50    0.0
1651 465820.000   4160212.3119    652805.6422   4774908.0543   4  10   0.8274   0.4716   0.9753  -0.1829  -0.2218   0.4177   0.00    0.0
1651 465820.500   4160212.3166    652805.6372   4774908.0560   4  10   0.8274   0.4715   0.9753  -0.1829  -0.2217   0.4176   0.50    0.0
1651 465821.000   4160211.8321    652805.6284   4774907.3432   4  10   0.8274   0.4715   0.9754  -0.1829  -0.2215   0.4176   0.00    0.0
1651 465821.500   4160211.8294    652805.6216   4774907.3542   4  10   0.8274   0.4715   0.9754  -0.1828  -0.2214   0.4176   0.50    0.0
1651 465822.000   4160211.9921    652805.7090   4774907.6223   4  10   0.8274   0.4714   0.9754  -0.1828  -0.2213   0.4175   0.00    0.0
1651 465822.500   4160211.9888    652805.7106   4774907.6118   4  10   0.8275   0.4714   0.9754  -0.1828  -0.2212   0.4175   0.50    0.0
1651 465823.000   4160212.0792    652805.5550   4774907.3037   4  10   0.8275   0.4714   0.9755  -0.1827  -0.2211   0.4174   0.00    0.0
1651 465823.500   4160212.0841    652805.5473   4774907.3024   4  10   0.8275   0.4713   0.9755  -0.1827  -0.2209   0.4174   0.50    0.0
1651 465824.000   4160211.8240    652805.5215   4774907.6727   4  10   0.8275   0.4713   0.9755  -0.1827  -0.2208   0.4174   0.00    0.0
1651 465824.500   4160211.8214    652805.5157   4774907.6760   4  10   0.8275   0.4713   0.9755  -0.1827  -0.2207   0.4173   0.50    0.0
1651 465825.000   4160211.9875    652805.7389   4774907.7849   4  10   0.8275   0.4712   0.9756  -0.1826  -0.2206   0.4173   0.00    0.0
1651 465825.500   4160211.9918    652805.7374   4774907.7925   4  10   0.8276   0.4712   0.9756  -0.1826  -0.2205   0.4173   0.50    0.0
1651 465826.000   4160212.0047    652805.7407   4774907.7708   4  10   0.8276   0.4712   0.9756  -0.1826  -0.2203   0.4172   0.00    0.0
1651 465826.500   4160212.0115    652805.7354   4774907.7742   4  10   0.8276   0.4711   0.9757  -0.1825  -0.2202   0.4172   0.50    0.0
1651 465827.000   4160212.1345    652805.9376   4774907.5417   4  10   0.8276   0.4711   0.9757  -0.1825  -0.2201   0.4172   0.00    0.0
1651 465827.500   4160212.1384    652805.9407   4774907.5482   4  10   0.8276   0.4711   0.9757  -0.1825  -0.2200   0.4171   0.50    0.0
1651 465828.000   4160212.0279    652805.7964   4774907.3862   4  10   0.8276   0.4710   0.9757  -0.1825  -0.2198   0.4171   0.00    0.0
1651 465828.500   4160212.0252    652805.7998   4774907.3822   4  10   0.8277   0.4710   0.9758  -0.1824  -0.2197   0.4171   0.50    0.0
1651 465829.000   4160212.2204    652805.7684   4774907.4682   4  10   0.8277   0.4710   0.9758  -0.1824  -0.2196   0.4170   0.00    0.0
1651 465829.500   4160212.2273    652805.7723   4774907.4816   4  10   0.8277   0.4709   0.9758  -0.1824  -0.2195   0.4170   0.50    0.0
1651 465830.000   4160212.1195    652805.6926   4774907.4535   4  10   0.8277   0.4709   0.9758  -0.1823  -0.2194   0.4170   0.00    0.0
1651 465830.500   4160212.1174    652805.6897   4774907.4527   4  10   0.8277   0.4708   0.9759  -0.1823  -0.2192   0.4169   0.50    0.0
1651 465831.000   4160211.9248    652805.8072   4774907.7626   4  10   0.8278   0.4708   0.9759  -0.1823  -0.2191   0.4169   0.00    0.0
1651 465831.500   4160211.9331    652805.8083   4774907.7582   4  10   0.8278   0.4708   0.9759  -0.1822  -0.2190   0.4169   0.50    0.0
1651 465832.000   4160211.9535    652805.7623   4774907.7655   4  10   0.8278   0.4707   0.9760  -0.1822  -0.2189   0.4168   0.00    0.0
1651 465832.500   4160211.9494    652805.7621   4774907.7519   4  10   0.8278   0.4707   0.9760  -0.1822  -0.2187   0.4168   0.50    0.0
1651 465833.000   4160212.3996    652805.5079   4774907.9138   4  10   0.8278   0.4707   0.9760  -0.1822  -0.2186   0.4168   0.00    0.0
1651 465833.500   4160212.4049    652805.5105   4774907.9079   4  10   0.8278   0.4706   0.9760  -0.1821  -0.2185   0.4167   0.50    0.0
1651 465834.000   4160212.0214    652805.5734   4774907.6046   4  10   0.8279   0.4706   0.9761  -0.1821  -0.2184   0.4167   0.00    0.0
1651 465834.500   4160212.0237    652805.5700   4774907.5991   4  10   0.8279   0.4706   0.9761  -0.1821  -0.2183   0.4167   0.50    0.0
1651 465835.000   4160211.8679    652805.6563   4774907.9544   4  10   0.8279   0.4705   0.9761  -0.1820  -0.2181   0.4166   0.00    0.0
1651 465835.500   4160211.8694    652805.6517   4774907.9573   4  10   0.8279   0.4705   0.9761  -0.1820  -0.2180   0.4166   0.50    0.0
1651 465836.000   4160212.2989    652805.7587   4774907.5778   4  10   0.8279   0.4705   0.9762  -0.1820  -0.2179   0.4165   0.00    0.0
1651 465836.500   4160212.2941    652805.7589   4774907.5708   4  10   0.8280   0.4704   0.9762  -0.1819  -0.2178   0.4165   0.50    0.0
1651 465837.000   4160211.7464    652805.5648   4774907.5462   4  10   0.8280   0.4704   0.9762  -0.1819  -0.2176   0.4165   0.00    0.0
1651 465837.500   4160211.7488    652805.5658   4774907.5514   4  10   0.8280   0.4704   0.9763  -0.1819  -0.2175   0.4164   0.50    0.0
1651 465838.000   4160211.8805    652805.8202   4774907.7066   4  10   0.8280   0.4703   0.9763  -0.1819  -0.2174   0.4164   0.00    0.0
1651 465838.500   4160211.8881    652805.8215   4774907.7095   4  10   0.8280   0.4703   0.9763  -0.1818  -0.2173   0.4164   0.50    0.0
1651 465839.000   4160211.8934    652805.5825   4774907.1832   4  10   0.8280   0.4703   0.9763  -0.1818  -0.2171   0.4163   0.00    0.0
1651 465839.500   4160211.9005    652805.5839   4774907.1898   4  10   0.8281   0.4702   0.9764  -0.1818  -0.2170   0.4163   0.50    0.0
1651 465840.000   4160212.1981    652805.6827   4774907.2648   4  10   0.8281   0.4702   0.9764  -0.1817  -0.2169   0.4163   0.00    0.0
1651 465840.500   4160212.2014    652805.6837   4774907.2630   4  10   0.8281   0.4702   0.9764  -0.1817  -0.2168   0.4162   0.50    0.0
1651 465841.000   4160212.0459    652805.6954   4774907.8731   4  10   0.8281   0.4701   0.9765  -0.1817  -0.2166   0.4162   0.00    0.0
1651 465841.500   4160212.0575    652805.6984   4774907.8734   4  10   0.8281   0.4701   0.9765  -0.1817  -0.2165   0.4162   0.50    0.0
1651 465842.000   4160212.0548    652805.7252   4774907.3246   4  10   0.8281   0.4701   0.9765  -0.1816  -0.2164   0.4161   0.00    0.0
1651 465842.500   4160212.0582    652805.7230   4774907.3143   4  10   0.8282   0.4701   0.9765  -0.1816  -0.2163   0.4161   0.50    0.0
1651 465843.000   4160211.5866    652805.7280   4774907.7145   4  10   0.8282   0.4700   0.9766  -0.1816  -0.2162   0.4161   0.00    0.0
1651 465843.500   4160211.5867    652805.7309   4774907.7032   4  10   0.8282   0.4700   0.9766  -0.1815  -0.2160   0.4160   0.50    0.0
1651 465844.000   4160212.0854    652805.9188   4774907.6309   4  10   0.8282   0.4700   0.9766  -0.1815  -0.2159   0.4160   0.00    0.0
1651 465844.500   4160212.0926    652805.9125   4774907.6385   4  10   0.8282   0.4699   0.9767  -0.1815  -0.2158   0.4160   0.50    0.0
1651 465845.000   4160212.2089    652805.9734   4774907.2510   4  10   0.8283   0.4699   0.9767  -0.1814  -0.2157   0.4159   0.00    0.0
1651 465845.500   4160212.2107    652805.9743   4774907.2597   4  10   0.8283   0.4699   0.9767  -0.1814  -0.2155   0.4159   0.50    0.0
1651 465846.000   4160211.7420    652805.7774   4774907.2759   4  10   0.8283   0.4698   0.9767  -0.1814  -0.2154   0.4159   0.00    0.0
1651 465846.500   4160211.7497    652805.7800   4774907.2808   4  10   0.8283   0.4698   0.9768  -0.1814  -0.2153   0.4158   0.50    0.0
1651 465847.000   4160211.7264    652805.6092   4774907.2157   4  10   0.8283   0.4698   0.9768  -0.1813  -0.2152   0.4158   0.00    0.0
1651 465847.500   4160211.7254    652805.6093   4774907.2180   4  10   0.8283   0.4697   0.9768  -0.1813  -0.2150   0.4158   0.50    0.0
1651 465848.000   4160212.0244    652805.8826   4774907.5826   4  10   0.8284   0.4697   0.9769  -0.1813  -0.2149   0.4157   0.00    0.0
1651 465848.500   4160212.0250    652805.8843   4774907.5900   4  10   0.8284   0.4697   0.9769  -0.1812  -0.2148   0.4157   0.50    0.0
1651 465849.000   4160211.8585    652805.7739   4774907.6736   4  10   0.8284   0.4696   0.9769  -0.1812  -0.2147   0.4156   0.00    0.0
1651 465849.500   4160211.8633    652805.7707   4774907.6705   4  10   0.8284   0.4696   0.9769  -0.1812  -0.2145   0.4156   0.50    0.0
1651 465850.000   4160211.9952    652805.7101   4774907.7803   4  10   0.8284   0.4696   0.9770  -0.1811  -0.2144   0.4156   0.00    0.0
1651 465850.500   4160211.9976    652805.7109   4774907.7819   4  10   0.8285   0.4695   0.9770  -0.1811  -0.2143   0.4155   0.50    0.0
1651 465851.000   4160211.9874    652805.7844   4774907.2577   4  10   0.8285   0.4695   0.9770  -0.1811  -0.2142   0.4155   0.00    0.0
1651 465851.500   4160211.9989    652805.7903   4774907.2636   4  10   0.8285   0.4695   0.9771  -0.1811  -0.2140   0.4155   0.50    0.0
1651 465852.000   4160212.2109    652805.8235   4774907.3653   4  10   0.8285   0.4694   0.9771  -0.1810  -0.2139   0.4154   0.00    0.0
1651 465852.500   4160212.2149    652805.8246   4774907.3632   4  10   0.8285   0.4694   0.9771  -0.1810  -0.2138   0.4154   0.50    0.0
1651 465853.000   4160212.0585    652805.8457   4774907.6294   4  10   0.8286   0.4694   0.9771  -0.1810  -0.2137   0.4154   0.00    0.0
1651 465853.500   4160212.0572    652805.8501   4774907.6244   4  10   0.8286   0.4693   0.9772  -0.1809  -0.2135   0.4153   0.50    0.0
1651 465854.000   4160212.2458    652805.9518   4774907.2437   4  10   0.8286   0.4693   0.9772  -0.1809  -0.2134   0.4153   0.00    0.0
1651 465854.500   4160212.2441    652805.9527   4774907.2464   4  10   0.8286   0.4693   0.9772  -0.1809  -0.2133   0.4153   0.50    0.0
1651 465855.000   4160211.9316    652805.7212   4774907.3846   4  10   0.8286   0.4692   0.9773  -0.1809  -0.2131   0.4152   0.00    0.0
1651 465855.500   4160211.9368    652805.7212   4774907.3843   4  10   0.8286   0.4692   0.9773  -0.1808  -0.2130   0.4152   0.50    0.0
1651 465856.000   4160212.0118    652805.8926   4774907.9275   4  10   0.8287   0.4692   0.9773  -0.1808  -0.2129   0.4152   0.00    0.0
1651 465856.500   4160212.0120    652805.8934   4774907.9198   4  10   0.8287   0.4691   0.9773  -0.1808  -0.2128   0.4151   0.50    0.0
1651 465857.000   4160212.0988    652805.9125   4774907.3115   4  10   0.8287   0.4691   0.9774  -0.1807  -0.2126   0.4151   0.00    0.0
1651 465857.500   4160212.1006    652805.9167   4774907.3095   4  10   0.8287   0.4691   0.9774  -0.1807  -0.2125   0.4151   0.50    0.0
1651 465858.000   4160212.2502    652805.9249   4774907.3187   4  10   0.8287   0.4690   0.9774  -0.1807  -0.2124   0.4150   0.00    0.0
1651 465858.500   4160212.2609    652805.9258   4774907.3212   4  10   0.8288   0.4690   0.9775  -0.1806  -0.2123   0.4150   0.50    0.0
1651 465859.000   4160211.8369    652805.7367   4774907.5211   4  10   0.8288   0.4690   0.9775  -0.1806  -0.2121   0.4150   0.00    0.0
1651 465859.500   4160211.8331    652805.7321   4774907.5170   4  10   0.8288   0.4689   0.9775  -0.1806  -0.2120   0.4149   0.50    0.0
1651 465860.000   4160212.0575    652805.6191   4774907.7822   4  10   0.8288   0.4689   0.9775  -0.1806  -0.2119   0.4149   0.00    0.0
1651 465860.500   4160212.0583    652805.6272   4774907.7921   4  10   0.8288   0.4689   0.9776  -0.1805  -0.2118   0.4149   0.50    0.0
1651 465861.000   4160212.0063    652805.8809   4774907.7526   4  10   0.8288   0.4688   0.9776  -0.1805  -0.2116   0.4148   0.00    0.0
1651 465861.500   4160212.0004    652805.8835   4774907.7592   4  10   0.8289   0.4688   0.9776  -0.1805  -0.2115   0.4148   0.50    0.0
1651 465862.000   4160212.1820    652806.0527   4774907.9549   4  10   0.8289   0.4688   0.9777  -0.1804  -0.2114   0.4148   0.00    0.0
1651 465862.500   4160212.1763    652806.0538   4774907.9477   4  10   0.8289   0.4687   0.9777  -0.1804  -0.2112   0.4147   0.50    0.0
1651 465863.000   4160211.9321    652805.7124   4774907.8673   4  10   0.8289   0.4687   0.9777  -0.1804  -0.2111   0.4147   0.00    0.0
1651 465863.500   4160211.9276    652805.7119   4774907.8631   4  10   0.8289   0.4687   0.9777  -0.1804  -0.2110   0.4147   0.50    0.0
1651 465864.000   4160211.7504    652805.8976   4774907.7527   4  10   0.8290   0.4686   0.9778  -0.1803  -0.2109   0.4146   0.00    0.0
1651 465864.500   4160211.7513    652805.8970   4774907.7475   4  10   0.8290   0.4686   0.9778  -0.1803  -0.2107   0.4146   0.50    0.0
1651 465865.000   4160211.9453    652806.0173   4774907.7688   4  10   0.8290   0.4686   0.9778  -0.1803  -0.2106   0.4146   0.00    0.0
1651 465865.500   4160211.9426    652806.0135   4774907.7591   4  10   0.8290   0.4685   0.9779  -0.1802  -0.2105   0.4145   0.50    0.0
1651 465866.000   4160212.2918    652805.7944   4774907.4700   4  10   0.8290   0.4685   0.9779  -0.1802  -0.2104   0.4145   0.00    0.0
1651 465866.500   4160212.2886    652805.7937   4774907.4788   4  10   0.8291   0.4685   0.9779  -0.1802  -0.2102   0.4144   0.50    0.0
1651 465867.000   4160212.2099    652805.9737   4774907.7815   4  10   0.8291   0.4684   0.9780  -0.1801  -0.2101   0.4144   0.00    0.0
1651 465867.500   4160212.2105    652805.9745   4774907.7719   4  10   0.8291   0.4684   0.9780  -0.1801  -0.2100   0.4144   0.50    0.0
1651 465868.000   4160211.8977    652805.9667   4774907.5894   4  10   0.8291   0.4684   0.9780  -0.1801  -0.2098   0.4143   0.00    0.0
1651 465868.500   4160211.9046    652805.9703   4774907.5825   4  10   0.8291   0.4683   0.9780  -0.1801  -0.2097   0.4143   0.50    0.0
1651 465869.000   4160212.0465    652805.8433   4774907.6927   4  10   0.8291   0.4683   0.9781  -0.1800  -0.2096   0.4143   0.00    0.0
1651 465869.500   4160212.0468    652805.8474   4774907.6857   4  10   0.8292   0.4683   0.9781  -0.1800  -0.2095   0.4142   0.50    0.0
1651 465870.000   4160211.9379    652805.9191   4774907.2924   4  10   0.8292   0.4682   0.9781  -0.1800  -0.2093   0.4142   0.00    0.0
1651 465870.500   4160211.9427    652805.9200   4774907.2957   4  10   0.8292   0.4682   0.9782  -0.1799  -0.2092   0.4142   0.50    0.0
1651 465871.000   4160211.5774    652805.8384   4774907.4165   4  10   0.8292   0.4682   0.9782  -0.1799  -0.2091   0.4141   0.00    0.0
1651 465871.500   4160211.5826    652805.8447   4774907.4247   4  10   0.8292   0.4681   0.9782  -0.1799  -0.2089   0.4141   0.50    0.0
1651 465872.000   4160211.8586    652805.7601   4774907.8412   4  10   0.8293   0.4681   0.9782  -0.1799  -0.2088   0.4141   0.00    0.0
1651 465872.500   4160211.8550    652805.7587   4774907.8344   4  10   0.8293   0.4681   0.9783  -0.1798  -0.2087   0.4140   0.50    0.0
1651 465873.000   4160212.1609    652805.8267   4774908.2028   4  10   0.8293   0.4680   0.9783  -0.1798  -0.2085   0.4140   0.00    0.0
1651 465873.500   4160212.1659    652805.8327   4774908.1919   4  10   0.8293   0.4680   0.9783  -0.1798  -0.2084   0.4140   0.50    0.0
1651 465874.000   4160211.6411    652806.0061   4774907.8852   4  10   0.8293   0.4680   0.9784  -0.1797  -0.2083   0.4139   0.00    0.0
1651 465874.500   4160211.6378    652806.0033   4774907.8774   4  10   0.8294   0.4679   0.9784  -0.1797  -0.2082   0.4139   0.50    0.0
1651 465875.000   4160212.0636    652805.9121   4774907.6496   4  10   0.8294   0.4679   0.9784  -0.1797  -0.2080   0.4139   0.00    0.0
1651 465875.500   4160212.0721    652805.9105   4774907.6522   4  10   0.8294   0.4679   0.9785  -0.1796  -0.2079   0.4138   0.50    0.0
