% program   : RTKPOST ver.2.4.3 b33
% inp file  : E:\Study\master\semester 3\Satellite Navigation\lab5\data_sets\INSA245gA.OBS
% inp file  : E:\Study\master\semester 3\Satellite Navigation\lab5\data_sets\INSA245gA.NAV
% obs start : 2011/09/02 06:00:00.0 GPST (week1651 453600.0s)
% obs end   : 2011/09/02 10:59:59.0 GPST (week1651 471599.0s)
% pos mode  : single
% elev mask : 5.0 deg
% ionos opt : off
% tropo opt : off
% ephemeris : broadcast
%
% (lat/lon/height=WGS84/ellipsoidal,Q=1:fix,2:float,3:sbas,4:dgps,5:single,6:ppp,ns=# of satellites)
%  GPST          latitude(deg) longitude(deg)  height(m)   Q  ns   sdn(m)   sde(m)   sdu(m)  sdne(m)  sdeu(m)  sdun(m) age(s)  ratio
1651 453600.000   48.780710081    9.171579168   342.5174   5   8   4.7910   3.7429   7.9734   1.9186  -2.0902  -2.8485   0.00    0.0
1651 453601.000   48.780714045    9.171578179   342.1523   5   8   4.7911   3.7428   7.9740   1.9185  -2.0898  -2.8489   0.00    0.0
1651 453602.000   48.780714618    9.171577201   342.1135   5   8   4.7913   3.7426   7.9746   1.9183  -2.0893  -2.8492   0.00    0.0
1651 453603.000   48.780710827    9.171577794   342.3524   5   8   4.7914   3.7425   7.9752   1.9182  -2.0889  -2.8495   0.00    0.0
1651 453604.000   48.780711005    9.171578874   342.5611   5   8   4.7916   3.7424   7.9758   1.9180  -2.0884  -2.8499   0.00    0.0
1651 453605.000   48.780712163    9.171580583   342.6705   5   8   4.7917   3.7422   7.9764   1.9179  -2.0880  -2.8502   0.00    0.0
1651 453606.000   48.780709633    9.171576346   342.3119   5   8   4.7919   3.7421   7.9770   1.9177  -2.0876  -2.8505   0.00    0.0
1651 453607.000   48.780709154    9.171577388   342.4145   5   8   4.7920   3.7419   7.9776   1.9176  -2.0871  -2.8509   0.00    0.0
1651 453608.000   48.780708065    9.171575059   343.0792   5   8   4.7922   3.7418   7.9782   1.9174  -2.0867  -2.8512   0.00    0.0
1651 453609.000   48.780708887    9.171574684   342.2566   5   8   4.7923   3.7417   7.9788   1.9173  -2.0862  -2.8515   0.00    0.0
1651 453610.000   48.780710928    9.171575348   342.1772   5   8   4.7925   3.7415   7.9794   1.9171  -2.0858  -2.8519   0.00    0.0
1651 453611.000   48.780709887    9.171578367   342.1228   5   8   4.7926   3.7414   7.9800   1.9170  -2.0853  -2.8522   0.00    0.0
1651 453612.000   48.780711386    9.171578411   342.0289   5   8   4.7928   3.7413   7.9806   1.9168  -2.0849  -2.8525   0.00    0.0
1651 453613.000   48.780711328    9.171576795   341.5680   5   8   4.7929   3.7411   7.9812   1.9167  -2.0845  -2.8529   0.00    0.0
1651 453614.000   48.780712359    9.171577776   342.0831   5   8   4.7931   3.7410   7.9818   1.9165  -2.0840  -2.8532   0.00    0.0
1651 453615.000   48.780710927    9.171578236   341.9641   5   8   4.7932   3.7408   7.9824   1.9164  -2.0836  -2.8535   0.00    0.0
1651 453616.000   48.780707814    9.171580419   342.9941   5   8   4.7934   3.7407   7.9830   1.9162  -2.0831  -2.8539   0.00    0.0
1651 453617.000   48.780708197    9.171580530   342.2625   5   8   4.7935   3.7406   7.9836   1.9161  -2.0827  -2.8542   0.00    0.0
1651 453618.000   48.780709687    9.171579199   341.6207   5   8   4.7937   3.7404   7.9842   1.9159  -2.0822  -2.8545   0.00    0.0
1651 453619.000   48.780707459    9.171582094   341.6955   5   8   4.7938   3.7403   7.9848   1.9158  -2.0818  -2.8549   0.00    0.0
1651 453620.000   48.780713089    9.171577140   341.4138   5   8   4.7940   3.7402   7.9855   1.9156  -2.0813  -2.8552   0.00    0.0
1651 453621.000   48.780707745    9.171577820   341.9414   5   8   4.7942   3.7400   7.9861   1.9155  -2.0809  -2.8555   0.00    0.0
1651 453622.000   48.780707040    9.171578856   342.6500   5   8   4.7943   3.7399   7.9867   1.9153  -2.0804  -2.8559   0.00    0.0
1651 453623.000   48.780708323    9.171577337   342.0107   5   8   4.7945   3.7398   7.9873   1.9152  -2.0800  -2.8562   0.00    0.0
1651 453624.000   48.780707546    9.171578858   341.7536   5   8   4.7946   3.7396   7.9879   1.9150  -2.0795  -2.8565   0.00    0.0
1651 453625.000   48.780710888    9.171579397   342.0781   5   8   4.7948   3.7395   7.9885   1.9149  -2.0791  -2.8569   0.00    0.0
1651 453626.000   48.780710494    9.171577959   342.3438   5   8   4.7949   3.7393   7.9891   1.9147  -2.0786  -2.8572   0.00    0.0
1651 453627.000   48.780710793    9.171578030   341.7232   5   8   4.7951   3.7392   7.9897   1.9146  -2.0782  -2.8575   0.00    0.0
1651 453628.000   48.780711139    9.171578372   341.9674   5   8   4.7952   3.7391   7.9903   1.9144  -2.0777  -2.8579   0.00    0.0
1651 453629.000   48.780710003    9.171578000   342.3919   5   8   4.7954   3.7389   7.9909   1.9143  -2.0773  -2.8582   0.00    0.0
1651 453630.000   48.780712171    9.171580427   342.5373   5   8   4.7955   3.7388   7.9915   1.9141  -2.0768  -2.8585   0.00    0.0
1651 453631.000   48.780711978    9.171577267   342.2240   5   8   4.7957   3.7387   7.9921   1.9140  -2.0764  -2.8589   0.00    0.0
1651 453632.000   48.780709667    9.171579240   342.0434   5   8   4.7958   3.7385   7.9927   1.9138  -2.0759  -2.8592   0.00    0.0
1651 453633.000   48.780707753    9.171577950   342.5074   5   8   4.7960   3.7384   7.9933   1.9137  -2.0755  -2.8595   0.00    0.0
1651 453634.000   48.780707418    9.171574987   342.0796   5   8   4.7961   3.7383   7.9939   1.9135  -2.0750  -2.8599   0.00    0.0
1651 453635.000   48.780710655    9.171576708   342.6494   5   8   4.7963   3.7381   7.9944   1.9134  -2.0746  -2.8602   0.00    0.0
1651 453636.000   48.780708844    9.171576579   342.2819   5   8   4.7964   3.7380   7.9950   1.9132  -2.0741  -2.8605   0.00    0.0
1651 453637.000   48.780710326    9.171576732   342.1077   5   8   4.7966   3.7378   7.9956   1.9131  -2.0737  -2.8609   0.00    0.0
1651 453638.000   48.780710478    9.171578077   342.3042   5   8   4.7968   3.7377   7.9962   1.9129  -2.0732  -2.8612   0.00    0.0
1651 453639.000   48.780710629    9.171574240   342.2268   5   8   4.7969   3.7376   7.9968   1.9128  -2.0728  -2.8615   0.00    0.0
1651 453640.000   48.780705726    9.171574067   342.2571   5   8   4.7971   3.7374   7.9974   1.9126  -2.0723  -2.8619   0.00    0.0
1651 453641.000   48.780709210    9.171574173   341.8948   5   8   4.7972   3.7373   7.9980   1.9125  -2.0719  -2.8622   0.00    0.0
1651 453642.000   48.780710278    9.171577785   342.5553   5   8   4.7974   3.7372   7.9986   1.9123  -2.0714  -2.8625   0.00    0.0
1651 453643.000   48.780709946    9.171580526   342.2045   5   8   4.7975   3.7370   7.9992   1.9122  -2.0710  -2.8628   0.00    0.0
1651 453644.000   48.780708479    9.171574016   341.9020   5   8   4.7977   3.7369   7.9998   1.9120  -2.0705  -2.8632   0.00    0.0
1651 453645.000   48.780707391    9.171576863   342.4561   5   8   4.7978   3.7368   8.0004   1.9119  -2.0700  -2.8635   0.00    0.0
1651 453646.000   48.780710083    9.171577478   342.6151   5   8   4.7980   3.7366   8.0010   1.9117  -2.0696  -2.8638   0.00    0.0
1651 453647.000   48.780707812    9.171578042   342.0502   5   8   4.7981   3.7365   8.0016   1.9116  -2.0691  -2.8642   0.00    0.0
1651 453648.000   48.780714630    9.171575510   342.3520   5   8   4.7983   3.7364   8.0022   1.9114  -2.0687  -2.8645   0.00    0.0
1651 453649.000   48.780708631    9.171575936   342.2775   5   8   4.7984   3.7362   8.0028   1.9113  -2.0682  -2.8648   0.00    0.0
1651 453650.000   48.780709144    9.171576499   342.3361   5   8   4.7986   3.7361   8.0034   1.9111  -2.0678  -2.8652   0.00    0.0
1651 453651.000   48.780712631    9.171577421   341.6408   5   8   4.7987   3.7360   8.0040   1.9110  -2.0673  -2.8655   0.00    0.0
1651 453652.000   48.780710947    9.171577479   341.7311   5   8   4.7989   3.7358   8.0046   1.9108  -2.0668  -2.8658   0.00    0.0
1651 453653.000   48.780711858    9.171577546   342.1686   5   8   4.7990   3.7357   8.0052   1.9107  -2.0664  -2.8662   0.00    0.0
1651 453654.000   48.780714489    9.171576685   341.7734   5   8   4.7992   3.7355   8.0058   1.9105  -2.0659  -2.8665   0.00    0.0
1651 453655.000   48.780707628    9.171578201   342.3140   5   8   4.7994   3.7354   8.0064   1.9104  -2.0655  -2.8668   0.00    0.0
1651 453656.000   48.780708151    9.171576709   342.2495   5   8   4.7995   3.7353   8.0069   1.9102  -2.0650  -2.8672   0.00    0.0
1651 453657.000   48.780711798    9.171579200   341.9449   5   8   4.7997   3.7351   8.0075   1.9101  -2.0645  -2.8675   0.00    0.0
1651 453658.000   48.780712981    9.171580410   341.4037   5   8   4.7998   3.7350   8.0081   1.9099  -2.0641  -2.8678   0.00    0.0
1651 453659.000   48.780712449    9.171580332   341.7454   5   8   4.8000   3.7349   8.0087   1.9098  -2.0636  -2.8681   0.00    0.0
1651 453660.000   48.780709228    9.171576719   342.1665   5   8   4.8001   3.7347   8.0093   1.9096  -2.0632  -2.8685   0.00    0.0
1651 453661.000   48.780711595    9.171578071   341.7499   5   8   4.8003   3.7346   8.0099   1.9095  -2.0627  -2.8688   0.00    0.0
1651 453662.000   48.780706584    9.171575094   342.1021   5   8   4.8004   3.7345   8.0105   1.9093  -2.0622  -2.8691   0.00    0.0
1651 453663.000   48.780706885    9.171576377   341.8698   5   8   4.8006   3.7343   8.0111   1.9092  -2.0618  -2.8695   0.00    0.0
1651 453664.000   48.780710142    9.171579770   341.7563   5   8   4.8007   3.7342   8.0117   1.9090  -2.0613  -2.8698   0.00    0.0
1651 453665.000   48.780707168    9.171580503   342.0245   5   8   4.8009   3.7341   8.0123   1.9089  -2.0609  -2.8701   0.00    0.0
1651 453666.000   48.780708951    9.171582012   341.7923   5   8   4.8010   3.7339   8.0129   1.9087  -2.0604  -2.8705   0.00    0.0
1651 453667.000   48.780711477    9.171577770   342.2864   5   8   4.8012   3.7338   8.0134   1.9086  -2.0599  -2.8708   0.00    0.0
1651 453668.000   48.780706104    9.171578691   342.4844   5   8   4.8013   3.7337   8.0140   1.9084  -2.0595  -2.8711   0.00    0.0
1651 453669.000   48.780709374    9.171578072   342.3404   5   8   4.8015   3.7335   8.0146   1.9083  -2.0590  -2.8715   0.00    0.0
1651 453670.000   48.780710891    9.171573448   342.1484   5   8   4.8017   3.7334   8.0152   1.9081  -2.0585  -2.8718   0.00    0.0
1651 453671.000   48.780706832    9.171575105   341.9111   5   8   4.8018   3.7333   8.0158   1.9080  -2.0581  -2.8721   0.00    0.0
1651 453672.000   48.780705899    9.171575373   341.7270   5   8   4.8020   3.7331   8.0164   1.9078  -2.0576  -2.8724   0.00    0.0
1651 453673.000   48.780706951    9.171576340   341.9317   5   8   4.8021   3.7330   8.0170   1.9077  -2.0571  -2.8728   0.00    0.0
1651 453674.000   48.780710069    9.171574540   342.5608   5   8   4.8023   3.7329   8.0176   1.9075  -2.0567  -2.8731   0.00    0.0
1651 453675.000   48.780706656    9.171578332   342.2767   5   8   4.8024   3.7327   8.0181   1.9074  -2.0562  -2.8734   0.00    0.0
1651 453676.000   48.780710457    9.171580249   341.9768   5   8   4.8026   3.7326   8.0187   1.9072  -2.0557  -2.8738   0.00    0.0
1651 453677.000   48.780714830    9.171575106   341.9856   5   8   4.8027   3.7325   8.0193   1.9071  -2.0553  -2.8741   0.00    0.0
1651 453678.000   48.780712293    9.171574303   341.3603   5   8   4.8029   3.7323   8.0199   1.9069  -2.0548  -2.8744   0.00    0.0
1651 453679.000   48.780712338    9.171575890   341.9094   5   8   4.8030   3.7322   8.0205   1.9068  -2.0543  -2.8748   0.00    0.0
1651 453680.000   48.780708899    9.171575159   341.9493   5   8   4.8032   3.7321   8.0211   1.9066  -2.0539  -2.8751   0.00    0.0
1651 453681.000   48.780708866    9.171574731   341.9575   5   8   4.8033   3.7319   8.0217   1.9065  -2.0534  -2.8754   0.00    0.0
1651 453682.000   48.780712205    9.171577240   341.5966   5   8   4.8035   3.7318   8.0222   1.9063  -2.0529  -2.8757   0.00    0.0
1651 453683.000   48.780706606    9.171577055   342.1896   5   8   4.8037   3.7317   8.0228   1.9062  -2.0525  -2.8761   0.00    0.0
1651 453684.000   48.780709133    9.171576808   342.3531   5   8   4.8038   3.7315   8.0234   1.9060  -2.0520  -2.8764   0.00    0.0
1651 453685.000   48.780708582    9.171578384   342.0585   5   8   4.8040   3.7314   8.0240   1.9059  -2.0515  -2.8767   0.00    0.0
1651 453686.000   48.780713545    9.171579954   342.1230   5   8   4.8041   3.7313   8.0246   1.9057  -2.0511  -2.8771   0.00    0.0
1651 453687.000   48.780709951    9.171575670   342.1824   5   8   4.8043   3.7311   8.0252   1.9056  -2.0506  -2.8774   0.00    0.0
1651 453688.000   48.780710226    9.171577409   341.5452   5   8   4.8044   3.7310   8.0257   1.9054  -2.0501  -2.8777   0.00    0.0
1651 453689.000   48.780709655    9.171573952   341.8431   5   8   4.8046   3.7309   8.0263   1.9053  -2.0496  -2.8781   0.00    0.0
1651 453690.000   48.780707583    9.171575976   341.6782   5   8   4.8047   3.7307   8.0269   1.9051  -2.0492  -2.8784   0.00    0.0
1651 453691.000   48.780709983    9.171576294   341.6288   5   8   4.8049   3.7306   8.0275   1.9050  -2.0487  -2.8787   0.00    0.0
1651 453692.000   48.780710895    9.171577522   341.9927   5   8   4.8050   3.7305   8.0281   1.9048  -2.0482  -2.8790   0.00    0.0
1651 453693.000   48.780710719    9.171580602   341.9051   5   8   4.8052   3.7303   8.0287   1.9047  -2.0478  -2.8794   0.00    0.0
1651 453694.000   48.780709065    9.171578882   342.0315   5   8   4.8053   3.7302   8.0292   1.9045  -2.0473  -2.8797   0.00    0.0
1651 453695.000   48.780711040    9.171577138   341.6248   5   8   4.8055   3.7301   8.0298   1.9044  -2.0468  -2.8800   0.00    0.0
1651 453696.000   48.780707389    9.171578842   341.9974   5   8   4.8057   3.7299   8.0304   1.9042  -2.0463  -2.8804   0.00    0.0
1651 453697.000   48.780711183    9.171581362   342.1831   5   8   4.8058   3.7298   8.0310   1.9041  -2.0459  -2.8807   0.00    0.0
1651 453698.000   48.780709551    9.171584184   341.8851   5   8   4.8060   3.7297   8.0316   1.9039  -2.0454  -2.8810   0.00    0.0
1651 453699.000   48.780711626    9.171581184   341.9856   5   8   4.8061   3.7295   8.0321   1.9038  -2.0449  -2.8813   0.00    0.0
1651 453700.000   48.780708695    9.171579125   341.9755   5   8   4.8063   3.7294   8.0327   1.9036  -2.0444  -2.8817   0.00    0.0
1651 453701.000   48.780712120    9.171577426   341.9734   5   8   4.8064   3.7293   8.0333   1.9035  -2.0440  -2.8820   0.00    0.0
1651 453702.000   48.780710964    9.171576039   341.9326   5   8   4.8066   3.7291   8.0339   1.9033  -2.0435  -2.8823   0.00    0.0
1651 453703.000   48.780710488    9.171578383   342.0725   5   8   4.8067   3.7290   8.0345   1.9032  -2.0430  -2.8827   0.00    0.0
1651 453704.000   48.780710532    9.171575874   342.2467   5   8   4.8069   3.7289   8.0350   1.9030  -2.0425  -2.8830   0.00    0.0
1651 453705.000   48.780709286    9.171582587   341.7847   5   8   4.8070   3.7287   8.0356   1.9029  -2.0421  -2.8833   0.00    0.0
1651 453706.000   48.780712073    9.171578979   341.7170   5   8   4.8072   3.7286   8.0362   1.9027  -2.0416  -2.8836   0.00    0.0
1651 453707.000   48.780707527    9.171582284   341.8809   5   8   4.8073   3.7285   8.0368   1.9026  -2.0411  -2.8840   0.00    0.0
1651 453708.000   48.780709850    9.171578791   341.9096   5   8   4.8075   3.7283   8.0373   1.9024  -2.0406  -2.8843   0.00    0.0
1651 453709.000   48.780710770    9.171581841   341.7399   5   8   4.8077   3.7282   8.0379   1.9023  -2.0401  -2.8846   0.00    0.0
1651 453710.000   48.780714223    9.171578693   342.0038   5   8   4.8078   3.7281   8.0385   1.9021  -2.0397  -2.8850   0.00    0.0
1651 453711.000   48.780713728    9.171579967   341.6768   5   8   4.8080   3.7279   8.0391   1.9020  -2.0392  -2.8853   0.00    0.0
1651 453712.000   48.780712592    9.171578666   341.9768   5   8   4.8081   3.7278   8.0397   1.9018  -2.0387  -2.8856   0.00    0.0
1651 453713.000   48.780711046    9.171579965   342.4260   5   8   4.8083   3.7277   8.0402   1.9017  -2.0382  -2.8859   0.00    0.0
1651 453714.000   48.780709614    9.171580860   341.4645   5   8   4.8084   3.7275   8.0408   1.9015  -2.0377  -2.8863   0.00    0.0
1651 453715.000   48.780711293    9.171579979   342.0517   5   8   4.8086   3.7274   8.0414   1.9014  -2.0373  -2.8866   0.00    0.0
1651 453716.000   48.780707273    9.171576217   342.3518   5   8   4.8087   3.7273   8.0420   1.9012  -2.0368  -2.8869   0.00    0.0
1651 453717.000   48.780706217    9.171572672   342.0983   5   8   4.8089   3.7271   8.0425   1.9011  -2.0363  -2.8873   0.00    0.0
1651 453718.000   48.780708330    9.171573949   341.8819   5   8   4.8090   3.7270   8.0431   1.9009  -2.0358  -2.8876   0.00    0.0
1651 453719.000   48.780708312    9.171578381   342.3918   5   8   4.8092   3.7269   8.0437   1.9008  -2.0353  -2.8879   0.00    0.0
1651 453720.000   48.780709381    9.171573485   342.0153   5   8   4.8094   3.7267   8.0443   1.9006  -2.0349  -2.8882   0.00    0.0
1651 453721.000   48.780710647    9.171577625   342.2414   5   8   4.8095   3.7266   8.0448   1.9005  -2.0344  -2.8886   0.00    0.0
1651 453722.000   48.780707008    9.171575182   342.2023   5   8   4.8097   3.7265   8.0454   1.9003  -2.0339  -2.8889   0.00    0.0
1651 453723.000   48.780709966    9.171578904   341.5476   5   8   4.8098   3.7264   8.0460   1.9002  -2.0334  -2.8892   0.00    0.0
1651 453724.000   48.780709936    9.171580037   341.4245   5   8   4.8100   3.7262   8.0465   1.9000  -2.0329  -2.8895   0.00    0.0
1651 453725.000   48.780706204    9.171577514   341.2480   5   8   4.8101   3.7261   8.0471   1.8999  -2.0324  -2.8899   0.00    0.0
1651 453726.000   48.780707520    9.171575514   341.7388   5   8   4.8103   3.7260   8.0477   1.8997  -2.0320  -2.8902   0.00    0.0
1651 453727.000   48.780712533    9.171578494   341.7526   5   8   4.8104   3.7258   8.0483   1.8996  -2.0315  -2.8905   0.00    0.0
1651 453728.000   48.780710069    9.171579630   342.1241   5   8   4.8106   3.7257   8.0488   1.8994  -2.0310  -2.8909   0.00    0.0
1651 453729.000   48.780713128    9.171576054   341.5354   5   8   4.8107   3.7256   8.0494   1.8993  -2.0305  -2.8912   0.00    0.0
1651 453730.000   48.780709768    9.171574862   341.8127   5   8   4.8109   3.7254   8.0500   1.8991  -2.0300  -2.8915   0.00    0.0
1651 453731.000   48.780703990    9.171574448   341.8520   5   8   4.8110   3.7253   8.0505   1.8990  -2.0295  -2.8918   0.00    0.0
1651 453732.000   48.780709370    9.171577298   341.2872   5   8   4.8112   3.7252   8.0511   1.8988  -2.0290  -2.8922   0.00    0.0
1651 453733.000   48.780708631    9.171578751   340.9892   5   8   4.8114   3.7250   8.0517   1.8987  -2.0286  -2.8925   0.00    0.0
1651 453734.000   48.780709227    9.171576373   341.7555   5   8   4.8115   3.7249   8.0523   1.8985  -2.0281  -2.8928   0.00    0.0
1651 453735.000   48.780707357    9.171581287   341.2901   5   8   4.8117   3.7248   8.0528   1.8984  -2.0276  -2.8931   0.00    0.0
1651 453736.000   48.780707611    9.171578683   341.6578   5   8   4.8118   3.7246   8.0534   1.8982  -2.0271  -2.8935   0.00    0.0
1651 453737.000   48.780706832    9.171580053   341.6004   5   8   4.8120   3.7245   8.0540   1.8981  -2.0266  -2.8938   0.00    0.0
1651 453738.000   48.780708793    9.171580622   341.6170   5   8   4.8121   3.7244   8.0545   1.8979  -2.0261  -2.8941   0.00    0.0
1651 453739.000   48.780711584    9.171583585   341.4692   5   8   4.8123   3.7242   8.0551   1.8978  -2.0256  -2.8944   0.00    0.0
1651 453740.000   48.780708720    9.171574585   342.3324   5   8   4.8124   3.7241   8.0557   1.8976  -2.0251  -2.8948   0.00    0.0
1651 453741.000   48.780709908    9.171576977   342.3024   5   8   4.8126   3.7240   8.0562   1.8975  -2.0246  -2.8951   0.00    0.0
1651 453742.000   48.780707951    9.171580296   341.4766   5   8   4.8127   3.7239   8.0568   1.8973  -2.0242  -2.8954   0.00    0.0
1651 453743.000   48.780709001    9.171579098   341.7444   5   8   4.8129   3.7237   8.0574   1.8972  -2.0237  -2.8958   0.00    0.0
1651 453744.000   48.780709918    9.171575435   341.7451   5   8   4.8131   3.7236   8.0579   1.8970  -2.0232  -2.8961   0.00    0.0
1651 453745.000   48.780711166    9.171579821   341.8455   5   8   4.8132   3.7235   8.0585   1.8969  -2.0227  -2.8964   0.00    0.0
1651 453746.000   48.780710248    9.171578899   341.8991   5   8   4.8134   3.7233   8.0591   1.8967  -2.0222  -2.8967   0.00    0.0
1651 453747.000   48.780711075    9.171580396   341.2941   5   8   4.8135   3.7232   8.0596   1.8966  -2.0217  -2.8971   0.00    0.0
1651 453748.000   48.780708754    9.171580888   341.5740   5   8   4.8137   3.7231   8.0602   1.8964  -2.0212  -2.8974   0.00    0.0
1651 453749.000   48.780706546    9.171579121   341.7855   5   8   4.8138   3.7229   8.0608   1.8963  -2.0207  -2.8977   0.00    0.0
1651 453750.000   48.780711619    9.171580775   341.7618   5   8   4.8140   3.7228   8.0613   1.8961  -2.0202  -2.8980   0.00    0.0
1651 453751.000   48.780709920    9.171579296   341.8220   5   8   4.8141   3.7227   8.0619   1.8960  -2.0197  -2.8984   0.00    0.0
1651 453752.000   48.780711980    9.171580650   340.7240   5   8   4.8143   3.7225   8.0625   1.8958  -2.0192  -2.8987   0.00    0.0
1651 453753.000   48.780708156    9.171578598   341.3125   5   8   4.8144   3.7224   8.0630   1.8957  -2.0187  -2.8990   0.00    0.0
1651 453754.000   48.780710897    9.171576662   341.7149   5   8   4.8146   3.7223   8.0636   1.8955  -2.0182  -2.8993   0.00    0.0
1651 453755.000   48.780712951    9.171577396   341.4310   5   8   4.8148   3.7222   8.0642   1.8954  -2.0177  -2.8997   0.00    0.0
1651 453756.000   48.780712407    9.171578104   341.6329   5   8   4.8149   3.7220   8.0647   1.8952  -2.0172  -2.9000   0.00    0.0
1651 453757.000   48.780710171    9.171576117   341.5465   5   8   4.8151   3.7219   8.0653   1.8951  -2.0167  -2.9003   0.00    0.0
1651 453758.000   48.780707813    9.171573220   341.7082   5   8   4.8152   3.7218   8.0658   1.8949  -2.0163  -2.9006   0.00    0.0
1651 453759.000   48.780706688    9.171573588   342.1120   5   8   4.8154   3.7216   8.0664   1.8948  -2.0158  -2.9010   0.00    0.0
1651 453760.000   48.780707120    9.171574871   342.0868   5   8   4.8155   3.7215   8.0670   1.8946  -2.0153  -2.9013   0.00    0.0
1651 453761.000   48.780706891    9.171577068   341.9547   5   8   4.8157   3.7214   8.0675   1.8945  -2.0148  -2.9016   0.00    0.0
1651 453762.000   48.780709177    9.171573960   342.3535   5   8   4.8158   3.7212   8.0681   1.8943  -2.0143  -2.9019   0.00    0.0
1651 453763.000   48.780709115    9.171575569   341.7650   5   8   4.8160   3.7211   8.0686   1.8941  -2.0138  -2.9023   0.00    0.0
1651 453764.000   48.780709123    9.171575232   341.6065   5   8   4.8162   3.7210   8.0692   1.8940  -2.0133  -2.9026   0.00    0.0
1651 453765.000   48.780710587    9.171576587   341.6068   5   8   4.8163   3.7209   8.0698   1.8938  -2.0128  -2.9029   0.00    0.0
1651 453766.000   48.780712470    9.171576712   341.7313   5   8   4.8165   3.7207   8.0703   1.8937  -2.0123  -2.9032   0.00    0.0
1651 453767.000   48.780712215    9.171581353   341.7652   5   8   4.8166   3.7206   8.0709   1.8935  -2.0118  -2.9036   0.00    0.0
1651 453768.000   48.780707505    9.171581717   341.9102   5   8   4.8168   3.7205   8.0714   1.8934  -2.0113  -2.9039   0.00    0.0
1651 453769.000   48.780710800    9.171576088   341.8110   5   8   4.8169   3.7203   8.0720   1.8932  -2.0108  -2.9042   0.00    0.0
1651 453770.000   48.780706992    9.171576779   342.1120   5   8   4.8171   3.7202   8.0726   1.8931  -2.0103  -2.9045   0.00    0.0
1651 453771.000   48.780711517    9.171578748   342.0517   5   8   4.8172   3.7201   8.0731   1.8929  -2.0098  -2.9049   0.00    0.0
1651 453772.000   48.780708451    9.171578195   341.9937   5   8   4.8174   3.7200   8.0737   1.8928  -2.0093  -2.9052   0.00    0.0
1651 453773.000   48.780710372    9.171574935   341.8237   5   8   4.8175   3.7198   8.0742   1.8926  -2.0088  -2.9055   0.00    0.0
1651 453774.000   48.780710309    9.171578442   341.7146   5   8   4.8177   3.7197   8.0748   1.8925  -2.0083  -2.9058   0.00    0.0
1651 453775.000   48.780708999    9.171577838   341.4438   5   8   4.8179   3.7196   8.0754   1.8923  -2.0078  -2.9062   0.00    0.0
1651 453776.000   48.780707497    9.171579068   341.4371   5   8   4.8180   3.7194   8.0759   1.8922  -2.0073  -2.9065   0.00    0.0
1651 453777.000   48.780710910    9.171581678   341.5865   5   8   4.8182   3.7193   8.0765   1.8920  -2.0067  -2.9068   0.00    0.0
1651 453778.000   48.780708601    9.171579665   341.7275   5   8   4.8183   3.7192   8.0770   1.8919  -2.0062  -2.9071   0.00    0.0
1651 453779.000   48.780706143    9.171577262   342.0251   5   8   4.8185   3.7190   8.0776   1.8917  -2.0057  -2.9075   0.00    0.0
1651 453780.000   48.780708993    9.171578805   341.6156   5   8   4.8186   3.7189   8.0781   1.8916  -2.0052  -2.9078   0.00    0.0
1651 453781.000   48.780713625    9.171577128   341.0285   5   8   4.8188   3.7188   8.0787   1.8914  -2.0047  -2.9081   0.00    0.0
1651 453782.000   48.780711119    9.171580522   341.5275   5   8   4.8189   3.7187   8.0792   1.8913  -2.0042  -2.9084   0.00    0.0
1651 453783.000   48.780710632    9.171582130   341.0114   5   8   4.8191   3.7185   8.0798   1.8911  -2.0037  -2.9088   0.00    0.0
1651 453784.000   48.780711890    9.171581615   341.1384   5   8   4.8192   3.7184   8.0804   1.8910  -2.0032  -2.9091   0.00    0.0
1651 453785.000   48.780711312    9.171579154   341.2932   5   8   4.8194   3.7183   8.0809   1.8908  -2.0027  -2.9094   0.00    0.0
1651 453786.000   48.780710051    9.171579113   341.1895   5   8   4.8196   3.7181   8.0815   1.8907  -2.0022  -2.9097   0.00    0.0
1651 453787.000   48.780712296    9.171577500   341.0283   5   8   4.8197   3.7180   8.0820   1.8905  -2.0017  -2.9101   0.00    0.0
1651 453788.000   48.780707846    9.171577069   341.3635   5   8   4.8199   3.7179   8.0826   1.8904  -2.0012  -2.9104   0.00    0.0
1651 453789.000   48.780708299    9.171577589   341.7336   5   8   4.8200   3.7178   8.0831   1.8902  -2.0007  -2.9107   0.00    0.0
1651 453790.000   48.780712273    9.171578485   341.5030   5   8   4.8202   3.7176   8.0837   1.8901  -2.0002  -2.9110   0.00    0.0
1651 453791.000   48.780712188    9.171576066   341.8158   5   8   4.8203   3.7175   8.0842   1.8899  -1.9997  -2.9113   0.00    0.0
1651 453792.000   48.780708336    9.171577330   341.6494   5   8   4.8205   3.7174   8.0848   1.8898  -1.9991  -2.9117   0.00    0.0
1651 453793.000   48.780711028    9.171578914   341.3287   5   8   4.8206   3.7172   8.0853   1.8896  -1.9986  -2.9120   0.00    0.0
1651 453794.000   48.780709762    9.171576648   341.6670   5   8   4.8208   3.7171   8.0859   1.8894  -1.9981  -2.9123   0.00    0.0
1651 453795.000   48.780711588    9.171577153   341.2582   5   8   4.8210   3.7170   8.0864   1.8893  -1.9976  -2.9126   0.00    0.0
1651 453796.000   48.780710581    9.171576931   341.6622   5   8   4.8211   3.7169   8.0870   1.8891  -1.9971  -2.9130   0.00    0.0
1651 453797.000   48.780710446    9.171576362   341.4461   5   8   4.8213   3.7167   8.0875   1.8890  -1.9966  -2.9133   0.00    0.0
1651 453798.000   48.780712201    9.171576303   341.1844   5   8   4.8214   3.7166   8.0881   1.8888  -1.9961  -2.9136   0.00    0.0
1651 453799.000   48.780709721    9.171571850   341.2155   5   8   4.8216   3.7165   8.0886   1.8887  -1.9956  -2.9139   0.00    0.0
1651 453800.000   48.780711582    9.171576267   341.8302   5   8   4.8217   3.7163   8.0892   1.8885  -1.9951  -2.9143   0.00    0.0
1651 453801.000   48.780711326    9.171578961   341.7265   5   8   4.8219   3.7162   8.0897   1.8884  -1.9945  -2.9146   0.00    0.0
1651 453802.000   48.780711019    9.171581046   341.1203   5   8   4.8220   3.7161   8.0903   1.8882  -1.9940  -2.9149   0.00    0.0
1651 453803.000   48.780712736    9.171580194   341.3167   5   8   4.8222   3.7160   8.0908   1.8881  -1.9935  -2.9152   0.00    0.0
1651 453804.000   48.780713692    9.171578366   341.6650   5   8   4.8224   3.7158   8.0914   1.8879  -1.9930  -2.9155   0.00    0.0
1651 453805.000   48.780707183    9.171573646   341.9369   5   8   4.8225   3.7157   8.0919   1.8878  -1.9925  -2.9159   0.00    0.0
1651 453806.000   48.780707445    9.171580999   341.6615   5   8   4.8227   3.7156   8.0925   1.8876  -1.9920  -2.9162   0.00    0.0
1651 453807.000   48.780711633    9.171578984   341.4181   5   8   4.8228   3.7155   8.0930   1.8875  -1.9915  -2.9165   0.00    0.0
1651 453808.000   48.780713319    9.171577729   341.2946   5   8   4.8230   3.7153   8.0936   1.8873  -1.9909  -2.9168   0.00    0.0
1651 453809.000   48.780715093    9.171574133   340.7678   5   8   4.8231   3.7152   8.0941   1.8872  -1.9904  -2.9172   0.00    0.0
1651 453810.000   48.780712788    9.171576597   341.4215   5   8   4.8233   3.7151   8.0947   1.8870  -1.9899  -2.9175   0.00    0.0
1651 453811.000   48.780710947    9.171578818   341.5135   5   8   4.8234   3.7149   8.0952   1.8869  -1.9894  -2.9178   0.00    0.0
1651 453812.000   48.780714366    9.171579515   341.0720   5   8   4.8236   3.7148   8.0957   1.8867  -1.9889  -2.9181   0.00    0.0
1651 453813.000   48.780713593    9.171575998   341.8690   5   8   4.8237   3.7147   8.0963   1.8866  -1.9884  -2.9184   0.00    0.0
1651 453814.000   48.780710886    9.171577330   341.6098   5   8   4.8239   3.7146   8.0968   1.8864  -1.9878  -2.9188   0.00    0.0
1651 453815.000   48.780711250    9.171574991   341.8612   5   8   4.8241   3.7144   8.0974   1.8863  -1.9873  -2.9191   0.00    0.0
1651 453816.000   48.780708226    9.171576362   341.9222   5   8   4.8242   3.7143   8.0979   1.8861  -1.9868  -2.9194   0.00    0.0
1651 453817.000   48.780711173    9.171580340   341.6154   5   8   4.8244   3.7142   8.0985   1.8860  -1.9863  -2.9197   0.00    0.0
1651 453818.000   48.780710703    9.171575485   342.2698   5   8   4.8245   3.7140   8.0990   1.8858  -1.9858  -2.9200   0.00    0.0
1651 453819.000   48.780711038    9.171578947   341.5825   5   8   4.8247   3.7139   8.0996   1.8856  -1.9852  -2.9204   0.00    0.0
1651 453820.000   48.780712082    9.171578258   341.5746   5   8   4.8248   3.7138   8.1001   1.8855  -1.9847  -2.9207   0.00    0.0
1651 453821.000   48.780711160    9.171575749   341.7728   5   8   4.8250   3.7137   8.1006   1.8853  -1.9842  -2.9210   0.00    0.0
1651 453822.000   48.780712429    9.171578855   341.5615   5   8   4.8251   3.7135   8.1012   1.8852  -1.9837  -2.9213   0.00    0.0
1651 453823.000   48.780710868    9.171578876   341.7524   5   8   4.8253   3.7134   8.1017   1.8850  -1.9832  -2.9217   0.00    0.0
1651 453824.000   48.780709740    9.171576191   341.8474   5   8   4.8255   3.7133   8.1023   1.8849  -1.9826  -2.9220   0.00    0.0
1651 453825.000   48.780709166    9.171576423   341.7111   5   8   4.8256   3.7132   8.1028   1.8847  -1.9821  -2.9223   0.00    0.0
1651 453826.000   48.780710606    9.171574848   341.8789   5   8   4.8258   3.7130   8.1034   1.8846  -1.9816  -2.9226   0.00    0.0
1651 453827.000   48.780712721    9.171581044   341.2029   5   8   4.8259   3.7129   8.1039   1.8844  -1.9811  -2.9229   0.00    0.0
1651 453828.000   48.780710021    9.171577103   341.3212   5   8   4.8261   3.7128   8.1044   1.8843  -1.9805  -2.9233   0.00    0.0
1651 453829.000   48.780709768    9.171578020   341.2269   5   8   4.8262   3.7127   8.1050   1.8841  -1.9800  -2.9236   0.00    0.0
1651 453830.000   48.780710774    9.171576530   341.4052   5   8   4.8264   3.7125   8.1055   1.8840  -1.9795  -2.9239   0.00    0.0
1651 453831.000   48.780712788    9.171576781   341.2664   5   8   4.8265   3.7124   8.1061   1.8838  -1.9790  -2.9242   0.00    0.0
1651 453832.000   48.780710754    9.171576798   341.3863   5   8   4.8267   3.7123   8.1066   1.8837  -1.9784  -2.9245   0.00    0.0
1651 453833.000   48.780712078    9.171578540   341.1233   5   8   4.8269   3.7121   8.1071   1.8835  -1.9779  -2.9249   0.00    0.0
1651 453834.000   48.780706785    9.171576189   341.2335   5   8   4.8270   3.7120   8.1077   1.8834  -1.9774  -2.9252   0.00    0.0
1651 453835.000   48.780712340    9.171577679   340.8787   5   8   4.8272   3.7119   8.1082   1.8832  -1.9769  -2.9255   0.00    0.0
1651 453836.000   48.780711923    9.171574918   341.1218   5   8   4.8273   3.7118   8.1087   1.8831  -1.9763  -2.9258   0.00    0.0
1651 453837.000   48.780707700    9.171574907   341.6943   5   8   4.8275   3.7116   8.1093   1.8829  -1.9758  -2.9261   0.00    0.0
1651 453838.000   48.780711716    9.171576904   341.5629   5   8   4.8276   3.7115   8.1098   1.8827  -1.9753  -2.9265   0.00    0.0
1651 453839.000   48.780710292    9.171575709   341.1323   5   8   4.8278   3.7114   8.1104   1.8826  -1.9748  -2.9268   0.00    0.0
1651 453840.000   48.780710181    9.171576899   341.7411   5   8   4.8279   3.7113   8.1109   1.8824  -1.9742  -2.9271   0.00    0.0
1651 453841.000   48.780709792    9.171581603   341.6863   5   8   4.8281   3.7111   8.1114   1.8823  -1.9737  -2.9274   0.00    0.0
1651 453842.000   48.780706760    9.171577710   341.3468   5   8   4.8283   3.7110   8.1120   1.8821  -1.9732  -2.9277   0.00    0.0
1651 453843.000   48.780709535    9.171577362   341.1050   5   8   4.8284   3.7109   8.1125   1.8820  -1.9726  -2.9281   0.00    0.0
1651 453844.000   48.780710552    9.171580082   341.6978   5   8   4.8286   3.7108   8.1130   1.8818  -1.9721  -2.9284   0.00    0.0
1651 453845.000   48.780710365    9.171575971   341.4020   5   8   4.8287   3.7106   8.1136   1.8817  -1.9716  -2.9287   0.00    0.0
1651 453846.000   48.780712418    9.171577228   341.0497   5   8   4.8289   3.7105   8.1141   1.8815  -1.9710  -2.9290   0.00    0.0
1651 453847.000   48.780709710    9.171574338   341.4351   5   8   4.8290   3.7104   8.1146   1.8814  -1.9705  -2.9293   0.00    0.0
1651 453848.000   48.780711214    9.171576821   341.1818   5   8   4.8292   3.7103   8.1152   1.8812  -1.9700  -2.9297   0.00    0.0
1651 453849.000   48.780712213    9.171579373   341.1423   5   8   4.8293   3.7101   8.1157   1.8811  -1.9695  -2.9300   0.00    0.0
1651 453850.000   48.780707549    9.171575680   341.3853   5   8   4.8295   3.7100   8.1162   1.8809  -1.9689  -2.9303   0.00    0.0
1651 453851.000   48.780710029    9.171574602   340.8970   5   8   4.8297   3.7099   8.1168   1.8808  -1.9684  -2.9306   0.00    0.0
1651 453852.000   48.780710034    9.171577200   341.1858   5   8   4.8298   3.7097   8.1173   1.8806  -1.9679  -2.9309   0.00    0.0
1651 453853.000   48.780707777    9.171579385   341.0934   5   8   4.8300   3.7096   8.1178   1.8805  -1.9673  -2.9313   0.00    0.0
1651 453854.000   48.780708771    9.171581312   341.0479   5   8   4.8301   3.7095   8.1184   1.8803  -1.9668  -2.9316   0.00    0.0
1651 453855.000   48.780711121    9.171578980   341.5518   5   8   4.8303   3.7094   8.1189   1.8801  -1.9663  -2.9319   0.00    0.0
1651 453856.000   48.780711000    9.171576588   341.3520   5   8   4.8304   3.7092   8.1194   1.8800  -1.9657  -2.9322   0.00    0.0
1651 453857.000   48.780712090    9.171579556   341.3773   5   8   4.8306   3.7091   8.1200   1.8798  -1.9652  -2.9325   0.00    0.0
1651 453858.000   48.780711240    9.171575105   341.2010   5   8   4.8307   3.7090   8.1205   1.8797  -1.9646  -2.9328   0.00    0.0
1651 453859.000   48.780711570    9.171577742   341.5370   5   8   4.8309   3.7089   8.1210   1.8795  -1.9641  -2.9332   0.00    0.0
1651 453860.000   48.780709824    9.171577541   340.7204   5   8   4.8311   3.7087   8.1216   1.8794  -1.9636  -2.9335   0.00    0.0
1651 453861.000   48.780713442    9.171579126   340.3372   5   8   4.8312   3.7086   8.1221   1.8792  -1.9630  -2.9338   0.00    0.0
1651 453862.000   48.780708502    9.171576825   341.5272   5   8   4.8314   3.7085   8.1226   1.8791  -1.9625  -2.9341   0.00    0.0
1651 453863.000   48.780710234    9.171578638   341.3166   5   8   4.8315   3.7084   8.1231   1.8789  -1.9620  -2.9344   0.00    0.0
1651 453864.000   48.780708747    9.171574860   341.9806   5   8   4.8317   3.7082   8.1237   1.8788  -1.9614  -2.9348   0.00    0.0
1651 453865.000   48.780708057    9.171574048   341.5514   5   8   4.8318   3.7081   8.1242   1.8786  -1.9609  -2.9351   0.00    0.0
1651 453866.000   48.780708300    9.171575669   341.8277   5   8   4.8320   3.7080   8.1247   1.8785  -1.9604  -2.9354   0.00    0.0
1651 453867.000   48.780710155    9.171578566   341.4526   5   8   4.8321   3.7079   8.1253   1.8783  -1.9598  -2.9357   0.00    0.0
1651 453868.000   48.780710692    9.171578364   341.0120   5   8   4.8323   3.7077   8.1258   1.8782  -1.9593  -2.9360   0.00    0.0
1651 453869.000   48.780709755    9.171579521   341.4276   5   8   4.8325   3.7076   8.1263   1.8780  -1.9587  -2.9363   0.00    0.0
1651 453870.000   48.780710969    9.171576000   341.2790   5   8   4.8326   3.7075   8.1268   1.8778  -1.9582  -2.9367   0.00    0.0
1651 453871.000   48.780713381    9.171577209   341.2088   5   8   4.8328   3.7074   8.1274   1.8777  -1.9577  -2.9370   0.00    0.0
1651 453872.000   48.780709650    9.171569888   341.3885   5   8   4.8329   3.7072   8.1279   1.8775  -1.9571  -2.9373   0.00    0.0
1651 453873.000   48.780709555    9.171572920   341.3404   5   8   4.8331   3.7071   8.1284   1.8774  -1.9566  -2.9376   0.00    0.0
1651 453874.000   48.780709127    9.171576489   341.5027   5   8   4.8332   3.7070   8.1289   1.8772  -1.9560  -2.9379   0.00    0.0
1651 453875.000   48.780710254    9.171578241   341.3180   5   8   4.8334   3.7069   8.1295   1.8771  -1.9555  -2.9383   0.00    0.0
1651 453876.000   48.780711272    9.171576133   341.1147   5   8   4.8335   3.7067   8.1300   1.8769  -1.9549  -2.9386   0.00    0.0
1651 453877.000   48.780710840    9.171577549   340.9167   5   8   4.8337   3.7066   8.1305   1.8768  -1.9544  -2.9389   0.00    0.0
1651 453878.000   48.780709100    9.171578767   341.3942   5   8   4.8339   3.7065   8.1310   1.8766  -1.9539  -2.9392   0.00    0.0
1651 453879.000   48.780711682    9.171578360   341.1877   5   8   4.8340   3.7064   8.1316   1.8765  -1.9533  -2.9395   0.00    0.0
1651 453880.000   48.780709991    9.171580214   341.9716   5   8   4.8342   3.7063   8.1321   1.8763  -1.9528  -2.9398   0.00    0.0
1651 453881.000   48.780707825    9.171578395   341.7482   5   8   4.8343   3.7061   8.1326   1.8762  -1.9522  -2.9402   0.00    0.0
1651 453882.000   48.780708810    9.171579476   341.3991   5   8   4.8345   3.7060   8.1331   1.8760  -1.9517  -2.9405   0.00    0.0
1651 453883.000   48.780704780    9.171572049   341.4387   5   8   4.8346   3.7059   8.1336   1.8759  -1.9511  -2.9408   0.00    0.0
1651 453884.000   48.780705120    9.171575903   342.0619   5   8   4.8348   3.7058   8.1342   1.8757  -1.9506  -2.9411   0.00    0.0
1651 453885.000   48.780712408    9.171576986   341.2286   5   8   4.8349   3.7056   8.1347   1.8755  -1.9500  -2.9414   0.00    0.0
1651 453886.000   48.780711488    9.171579816   340.9697   5   8   4.8351   3.7055   8.1352   1.8754  -1.9495  -2.9417   0.00    0.0
1651 453887.000   48.780711156    9.171578240   340.9479   5   8   4.8353   3.7054   8.1357   1.8752  -1.9489  -2.9421   0.00    0.0
1651 453888.000   48.780708870    9.171580625   341.2612   5   8   4.8354   3.7053   8.1363   1.8751  -1.9484  -2.9424   0.00    0.0
1651 453889.000   48.780710418    9.171579157   341.0208   5   8   4.8356   3.7051   8.1368   1.8749  -1.9478  -2.9427   0.00    0.0
1651 453890.000   48.780708621    9.171577891   341.2322   5   8   4.8357   3.7050   8.1373   1.8748  -1.9473  -2.9430   0.00    0.0
1651 453891.000   48.780707379    9.171580591   340.6431   5   8   4.8359   3.7049   8.1378   1.8746  -1.9467  -2.9433   0.00    0.0
1651 453892.000   48.780707452    9.171579205   341.3131   5   8   4.8360   3.7048   8.1383   1.8745  -1.9462  -2.9436   0.00    0.0
1651 453893.000   48.780706384    9.171581184   341.0741   5   8   4.8362   3.7046   8.1389   1.8743  -1.9456  -2.9440   0.00    0.0
1651 453894.000   48.780707913    9.171579837   340.7542   5   8   4.8363   3.7045   8.1394   1.8742  -1.9451  -2.9443   0.00    0.0
1651 453895.000   48.780712449    9.171580852   341.4189   5   8   4.8365   3.7044   8.1399   1.8740  -1.9445  -2.9446   0.00    0.0
1651 453896.000   48.780711507    9.171578689   341.4961   5   8   4.8367   3.7043   8.1404   1.8739  -1.9440  -2.9449   0.00    0.0
1651 453897.000   48.780709162    9.171581097   341.5828   5   8   4.8368   3.7041   8.1409   1.8737  -1.9434  -2.9452   0.00    0.0
1651 453898.000   48.780706079    9.171580371   341.3238   5   8   4.8370   3.7040   8.1414   1.8735  -1.9429  -2.9455   0.00    0.0
1651 453899.000   48.780709058    9.171578878   341.9339   5   8   4.8371   3.7039   8.1420   1.8734  -1.9423  -2.9458   0.00    0.0
1651 453900.000   48.780705518    9.171576477   341.8737   5   8   4.8373   3.7038   8.1425   1.8732  -1.9418  -2.9462   0.00    0.0
1651 453901.000   48.780710236    9.171577170   341.1949   5   8   4.8374   3.7037   8.1430   1.8731  -1.9412  -2.9465   0.00    0.0
1651 453902.000   48.780708683    9.171574688   341.4305   5   8   4.8376   3.7035   8.1435   1.8729  -1.9407  -2.9468   0.00    0.0
1651 453903.000   48.780709954    9.171577132   340.7221   5   8   4.8378   3.7034   8.1440   1.8728  -1.9401  -2.9471   0.00    0.0
1651 453904.000   48.780708588    9.171576521   341.4294   5   8   4.8379   3.7033   8.1445   1.8726  -1.9396  -2.9474   0.00    0.0
1651 453905.000   48.780712809    9.171579389   340.2746   5   8   4.8381   3.7032   8.1451   1.8725  -1.9390  -2.9477   0.00    0.0
1651 453906.000   48.780709183    9.171577780   341.1925   5   8   4.8382   3.7030   8.1456   1.8723  -1.9385  -2.9480   0.00    0.0
1651 453907.000   48.780708591    9.171576579   341.4546   5   8   4.8384   3.7029   8.1461   1.8722  -1.9379  -2.9484   0.00    0.0
1651 453908.000   48.780712427    9.171579718   341.2681   5   8   4.8385   3.7028   8.1466   1.8720  -1.9374  -2.9487   0.00    0.0
1651 453909.000   48.780707786    9.171577862   341.2711   5   8   4.8387   3.7027   8.1471   1.8718  -1.9368  -2.9490   0.00    0.0
1651 453910.000   48.780707628    9.171577961   341.2543   5   8   4.8388   3.7025   8.1476   1.8717  -1.9362  -2.9493   0.00    0.0
1651 453911.000   48.780712122    9.171579474   341.1349   5   8   4.8390   3.7024   8.1481   1.8715  -1.9357  -2.9496   0.00    0.0
1651 453912.000   48.780710498    9.171582048   341.2809   5   8   4.8392   3.7023   8.1486   1.8714  -1.9351  -2.9499   0.00    0.0
1651 453913.000   48.780708392    9.171580984   341.0020   5   8   4.8393   3.7022   8.1492   1.8712  -1.9346  -2.9503   0.00    0.0
1651 453914.000   48.780710269    9.171580621   341.1217   5   8   4.8395   3.7021   8.1497   1.8711  -1.9340  -2.9506   0.00    0.0
1651 453915.000   48.780707685    9.171578889   341.0254   5   8   4.8396   3.7019   8.1502   1.8709  -1.9334  -2.9509   0.00    0.0
1651 453916.000   48.780708323    9.171579611   341.5641   5   8   4.8398   3.7018   8.1507   1.8708  -1.9329  -2.9512   0.00    0.0
1651 453917.000   48.780707902    9.171579731   341.4083   5   8   4.8399   3.7017   8.1512   1.8706  -1.9323  -2.9515   0.00    0.0
1651 453918.000   48.780710760    9.171578222   340.9150   5   8   4.8401   3.7016   8.1517   1.8705  -1.9318  -2.9518   0.00    0.0
1651 453919.000   48.780709199    9.171580382   341.5792   5   8   4.8402   3.7014   8.1522   1.8703  -1.9312  -2.9521   0.00    0.0
1651 453920.000   48.780709605    9.171579865   340.9595   5   8   4.8404   3.7013   8.1527   1.8701  -1.9306  -2.9524   0.00    0.0
1651 453921.000   48.780708783    9.171581073   341.7052   5   8   4.8406   3.7012   8.1532   1.8700  -1.9301  -2.9528   0.00    0.0
1651 453922.000   48.780711885    9.171575690   341.2513   5   8   4.8407   3.7011   8.1537   1.8698  -1.9295  -2.9531   0.00    0.0
1651 453923.000   48.780710284    9.171582806   341.6872   5   8   4.8409   3.7010   8.1543   1.8697  -1.9290  -2.9534   0.00    0.0
1651 453924.000   48.780710862    9.171579672   341.2033   5   8   4.8410   3.7008   8.1548   1.8695  -1.9284  -2.9537   0.00    0.0
1651 453925.000   48.780713760    9.171577597   341.1762   5   8   4.8412   3.7007   8.1553   1.8694  -1.9278  -2.9540   0.00    0.0
1651 453926.000   48.780711285    9.171577869   340.8790   5   8   4.8413   3.7006   8.1558   1.8692  -1.9273  -2.9543   0.00    0.0
1651 453927.000   48.780710916    9.171576990   341.4714   5   8   4.8415   3.7005   8.1563   1.8691  -1.9267  -2.9546   0.00    0.0
1651 453928.000   48.780708602    9.171580194   341.4884   5   8   4.8417   3.7003   8.1568   1.8689  -1.9261  -2.9550   0.00    0.0
1651 453929.000   48.780710245    9.171576577   340.8855   5   8   4.8418   3.7002   8.1573   1.8688  -1.9256  -2.9553   0.00    0.0
1651 453930.000   48.780709318    9.171577806   341.5130   5   8   4.8420   3.7001   8.1578   1.8686  -1.9250  -2.9556   0.00    0.0
1651 453931.000   48.780712096    9.171576619   341.1854   5   8   4.8421   3.7000   8.1583   1.8684  -1.9244  -2.9559   0.00    0.0
1651 453932.000   48.780707689    9.171580029   341.4379   5   8   4.8423   3.6999   8.1588   1.8683  -1.9239  -2.9562   0.00    0.0
1651 453933.000   48.780706446    9.171579495   341.7295   5   8   4.8424   3.6997   8.1593   1.8681  -1.9233  -2.9565   0.00    0.0
1651 453934.000   48.780705049    9.171580073   342.1854   5   8   4.8426   3.6996   8.1598   1.8680  -1.9227  -2.9568   0.00    0.0
1651 453935.000   48.780704810    9.171575088   341.3012   5   8   4.8427   3.6995   8.1603   1.8678  -1.9222  -2.9571   0.00    0.0
1651 453936.000   48.780708170    9.171577740   341.1121   5   8   4.8429   3.6994   8.1608   1.8677  -1.9216  -2.9575   0.00    0.0
1651 453937.000   48.780708653    9.171577493   341.0959   5   8   4.8431   3.6992   8.1613   1.8675  -1.9210  -2.9578   0.00    0.0
1651 453938.000   48.780710700    9.171579934   341.3010   5   8   4.8432   3.6991   8.1618   1.8674  -1.9205  -2.9581   0.00    0.0
1651 453939.000   48.780709428    9.171576049   341.5374   5   8   4.8434   3.6990   8.1623   1.8672  -1.9199  -2.9584   0.00    0.0
1651 453940.000   48.780712680    9.171577721   341.1703   5   8   4.8435   3.6989   8.1628   1.8671  -1.9193  -2.9587   0.00    0.0
1651 453941.000   48.780712568    9.171579780   341.7199   5   8   4.8437   3.6988   8.1633   1.8669  -1.9188  -2.9590   0.00    0.0
1651 453942.000   48.780709601    9.171579266   341.1647   5   8   4.8438   3.6986   8.1639   1.8667  -1.9182  -2.9593   0.00    0.0
1651 453943.000   48.780707274    9.171579309   341.5096   5   8   4.8440   3.6985   8.1644   1.8666  -1.9176  -2.9596   0.00    0.0
1651 453944.000   48.780711070    9.171577825   341.4271   5   8   4.8441   3.6984   8.1649   1.8664  -1.9170  -2.9600   0.00    0.0
1651 453945.000   48.780709840    9.171578749   340.8079   5   8   4.8443   3.6983   8.1654   1.8663  -1.9165  -2.9603   0.00    0.0
1651 453946.000   48.780708657    9.171575677   341.6240   5   8   4.8445   3.6982   8.1659   1.8661  -1.9159  -2.9606   0.00    0.0
1651 453947.000   48.780709006    9.171579579   341.2608   5   8   4.8446   3.6980   8.1664   1.8660  -1.9153  -2.9609   0.00    0.0
1651 453948.000   48.780710253    9.171580754   341.0417   5   8   4.8448   3.6979   8.1669   1.8658  -1.9148  -2.9612   0.00    0.0
1651 453949.000   48.780709677    9.171580957   341.2592   5   8   4.8449   3.6978   8.1674   1.8657  -1.9142  -2.9615   0.00    0.0
1651 453950.000   48.780709873    9.171578734   340.9323   5   8   4.8451   3.6977   8.1679   1.8655  -1.9136  -2.9618   0.00    0.0
1651 453951.000   48.780709740    9.171578072   340.9106   5   8   4.8452   3.6976   8.1684   1.8653  -1.9130  -2.9621   0.00    0.0
1651 453952.000   48.780712597    9.171576770   340.6563   5   8   4.8454   3.6974   8.1689   1.8652  -1.9125  -2.9624   0.00    0.0
1651 453953.000   48.780706673    9.171577137   341.1961   5   8   4.8456   3.6973   8.1693   1.8650  -1.9119  -2.9628   0.00    0.0
1651 453954.000   48.780711052    9.171580078   340.9381   5   8   4.8457   3.6972   8.1698   1.8649  -1.9113  -2.9631   0.00    0.0
1651 453955.000   48.780710431    9.171576955   341.2845   5   8   4.8459   3.6971   8.1703   1.8647  -1.9107  -2.9634   0.00    0.0
1651 453956.000   48.780708423    9.171577955   341.4211   5   8   4.8460   3.6969   8.1708   1.8646  -1.9102  -2.9637   0.00    0.0
1651 453957.000   48.780707468    9.171577452   341.6232   5   8   4.8462   3.6968   8.1713   1.8644  -1.9096  -2.9640   0.00    0.0
1651 453958.000   48.780706212    9.171577534   341.8807   5   8   4.8463   3.6967   8.1718   1.8643  -1.9090  -2.9643   0.00    0.0
1651 453959.000   48.780708594    9.171578729   341.0806   5   8   4.8465   3.6966   8.1723   1.8641  -1.9084  -2.9646   0.00    0.0
1651 453960.000   48.780710457    9.171574602   341.4451   5   8   4.8466   3.6965   8.1728   1.8639  -1.9078  -2.9649   0.00    0.0
1651 453961.000   48.780710567    9.171577753   341.2942   5   8   4.8468   3.6963   8.1733   1.8638  -1.9073  -2.9652   0.00    0.0
1651 453962.000   48.780713599    9.171577088   340.8972   5   8   4.8470   3.6962   8.1738   1.8636  -1.9067  -2.9655   0.00    0.0
1651 453963.000   48.780711617    9.171574409   340.7458   5   8   4.8471   3.6961   8.1743   1.8635  -1.9061  -2.9659   0.00    0.0
1651 453964.000   48.780709409    9.171575402   341.1875   5   8   4.8473   3.6960   8.1748   1.8633  -1.9055  -2.9662   0.00    0.0
1651 453965.000   48.780712410    9.171579668   340.8829   5   8   4.8474   3.6959   8.1753   1.8632  -1.9049  -2.9665   0.00    0.0
1651 453966.000   48.780713521    9.171579739   340.5995   5   8   4.8476   3.6957   8.1758   1.8630  -1.9044  -2.9668   0.00    0.0
1651 453967.000   48.780713653    9.171581508   340.9540   5   8   4.8477   3.6956   8.1763   1.8629  -1.9038  -2.9671   0.00    0.0
1651 453968.000   48.780713881    9.171579762   340.7769   5   8   4.8479   3.6955   8.1768   1.8627  -1.9032  -2.9674   0.00    0.0
1651 453969.000   48.780712122    9.171580784   341.3517   5   8   4.8481   3.6954   8.1773   1.8625  -1.9026  -2.9677   0.00    0.0
1651 453970.000   48.780708514    9.171578530   340.9738   5   8   4.8482   3.6953   8.1778   1.8624  -1.9020  -2.9680   0.00    0.0
1651 453971.000   48.780712191    9.171579743   341.2702   5   8   4.8484   3.6951   8.1783   1.8622  -1.9015  -2.9683   0.00    0.0
1651 453972.000   48.780712432    9.171580848   340.7683   5   8   4.8485   3.6950   8.1787   1.8621  -1.9009  -2.9686   0.00    0.0
1651 453973.000   48.780709477    9.171578657   341.1648   5   8   4.8487   3.6949   8.1792   1.8619  -1.9003  -2.9690   0.00    0.0
1651 453974.000   48.780709998    9.171578229   341.0692   5   8   4.8488   3.6948   8.1797   1.8618  -1.8997  -2.9693   0.00    0.0
1651 453975.000   48.780711068    9.171580033   340.6706   5   8   4.8490   3.6947   8.1802   1.8616  -1.8991  -2.9696   0.00    0.0
1651 453976.000   48.780707945    9.171580634   341.3695   5   8   4.8491   3.6945   8.1807   1.8614  -1.8985  -2.9699   0.00    0.0
1651 453977.000   48.780710874    9.171577923   340.8869   5   8   4.8493   3.6944   8.1812   1.8613  -1.8979  -2.9702   0.00    0.0
1651 453978.000   48.780714105    9.171579885   340.6086   5   8   4.8495   3.6943   8.1817   1.8611  -1.8974  -2.9705   0.00    0.0
1651 453979.000   48.780708659    9.171580457   341.4959   5   8   4.8496   3.6942   8.1822   1.8610  -1.8968  -2.9708   0.00    0.0
1651 453980.000   48.780708064    9.171582402   341.1855   5   8   4.8498   3.6941   8.1827   1.8608  -1.8962  -2.9711   0.00    0.0
1651 453981.000   48.780714008    9.171579975   340.9955   5   8   4.8499   3.6940   8.1831   1.8607  -1.8956  -2.9714   0.00    0.0
1651 453982.000   48.780708724    9.171576531   341.3154   5   8   4.8501   3.6938   8.1836   1.8605  -1.8950  -2.9717   0.00    0.0
1651 453983.000   48.780710016    9.171578358   340.9246   5   8   4.8502   3.6937   8.1841   1.8604  -1.8944  -2.9720   0.00    0.0
1651 453984.000   48.780710962    9.171576826   341.1364   5   8   4.8504   3.6936   8.1846   1.8602  -1.8938  -2.9723   0.00    0.0
1651 453985.000   48.780708408    9.171576163   341.1060   5   8   4.8505   3.6935   8.1851   1.8600  -1.8932  -2.9727   0.00    0.0
1651 453986.000   48.780710798    9.171578286   340.9625   5   8   4.8507   3.6934   8.1856   1.8599  -1.8927  -2.9730   0.00    0.0
1651 453987.000   48.780710495    9.171579328   341.0957   5   8   4.8509   3.6932   8.1861   1.8597  -1.8921  -2.9733   0.00    0.0
1651 453988.000   48.780708929    9.171582154   341.1820   5   8   4.8510   3.6931   8.1866   1.8596  -1.8915  -2.9736   0.00    0.0
1651 453989.000   48.780712402    9.171583229   341.2758   5   8   4.8512   3.6930   8.1870   1.8594  -1.8909  -2.9739   0.00    0.0
1651 453990.000   48.780708672    9.171579417   340.9655   5   8   4.8513   3.6929   8.1875   1.8593  -1.8903  -2.9742   0.00    0.0
1651 453991.000   48.780711485    9.171579585   341.1146   5   8   4.8515   3.6928   8.1880   1.8591  -1.8897  -2.9745   0.00    0.0
1651 453992.000   48.780711124    9.171575896   340.8947   5   8   4.8516   3.6926   8.1885   1.8589  -1.8891  -2.9748   0.00    0.0
1651 453993.000   48.780711055    9.171580956   340.6473   5   8   4.8518   3.6925   8.1890   1.8588  -1.8885  -2.9751   0.00    0.0
1651 453994.000   48.780708597    9.171579480   341.0865   5   8   4.8520   3.6924   8.1895   1.8586  -1.8879  -2.9754   0.00    0.0
1651 453995.000   48.780709306    9.171576753   341.1481   5   8   4.8521   3.6923   8.1899   1.8585  -1.8873  -2.9757   0.00    0.0
1651 453996.000   48.780708862    9.171579747   340.8044   5   8   4.8523   3.6922   8.1904   1.8583  -1.8867  -2.9760   0.00    0.0
1651 453997.000   48.780707186    9.171580821   340.5965   5   8   4.8524   3.6920   8.1909   1.8582  -1.8861  -2.9763   0.00    0.0
1651 453998.000   48.780706919    9.171579928   341.0279   5   8   4.8526   3.6919   8.1914   1.8580  -1.8855  -2.9766   0.00    0.0
1651 453999.000   48.780709870    9.171575396   340.5394   5   8   4.8527   3.6918   8.1919   1.8579  -1.8849  -2.9770   0.00    0.0
1651 454000.000   48.780709916    9.171576135   341.0539   5   8   4.8529   3.6917   8.1924   1.8577  -1.8844  -2.9773   0.00    0.0
1651 454001.000   48.780708540    9.171578536   340.6513   5   8   4.8530   3.6916   8.1928   1.8575  -1.8838  -2.9776   0.00    0.0
1651 454002.000   48.780704225    9.171575856   340.8775   5   8   4.8532   3.6915   8.1933   1.8574  -1.8832  -2.9779   0.00    0.0
1651 454003.000   48.780707006    9.171577203   340.6350   5   8   4.8534   3.6913   8.1938   1.8572  -1.8826  -2.9782   0.00    0.0
1651 454004.000   48.780708890    9.171577549   340.6726   5   8   4.8535   3.6912   8.1943   1.8571  -1.8820  -2.9785   0.00    0.0
1651 454005.000   48.780709480    9.171578152   340.5884   5   8   4.8537   3.6911   8.1948   1.8569  -1.8814  -2.9788   0.00    0.0
1651 454006.000   48.780709631    9.171578051   340.6878   5   8   4.8538   3.6910   8.1952   1.8568  -1.8808  -2.9791   0.00    0.0
1651 454007.000   48.780707578    9.171577945   340.8650   5   8   4.8540   3.6909   8.1957   1.8566  -1.8802  -2.9794   0.00    0.0
1651 454008.000   48.780706798    9.171576218   340.8887   5   8   4.8541   3.6907   8.1962   1.8564  -1.8796  -2.9797   0.00    0.0
1651 454009.000   48.780710321    9.171575500   340.9162   5   8   4.8543   3.6906   8.1967   1.8563  -1.8790  -2.9800   0.00    0.0
1651 454010.000   48.780711088    9.171581474   341.0605   5   8   4.8545   3.6905   8.1971   1.8561  -1.8784  -2.9803   0.00    0.0
1651 454011.000   48.780708093    9.171577596   341.2948   5   8   4.8546   3.6904   8.1976   1.8560  -1.8778  -2.9806   0.00    0.0
1651 454012.000   48.780707637    9.171579578   341.1747   5   8   4.8548   3.6903   8.1981   1.8558  -1.8772  -2.9809   0.00    0.0
1651 454013.000   48.780707672    9.171577395   341.2073   5   8   4.8549   3.6902   8.1986   1.8557  -1.8766  -2.9812   0.00    0.0
1651 454014.000   48.780704399    9.171580789   340.9830   5   8   4.8551   3.6900   8.1990   1.8555  -1.8760  -2.9815   0.00    0.0
1651 454015.000   48.780708399    9.171583868   341.2894   5   8   4.8552   3.6899   8.1995   1.8553  -1.8754  -2.9819   0.00    0.0
1651 454016.000   48.780710049    9.171576780   340.9330   5   8   4.8554   3.6898   8.2000   1.8552  -1.8748  -2.9822   0.00    0.0
1651 454017.000   48.780708599    9.171578930   341.1930   5   8   4.8555   3.6897   8.2005   1.8550  -1.8742  -2.9825   0.00    0.0
1651 454018.000   48.780709046    9.171578486   341.0735   5   8   4.8557   3.6896   8.2009   1.8549  -1.8735  -2.9828   0.00    0.0
1651 454019.000   48.780710034    9.171576891   341.2103   5   8   4.8559   3.6895   8.2014   1.8547  -1.8729  -2.9831   0.00    0.0
1651 454020.000   48.780709190    9.171582359   340.8930   5   8   4.8560   3.6893   8.2019   1.8546  -1.8723  -2.9834   0.00    0.0
1651 454021.000   48.780709027    9.171576974   340.8773   5   8   4.8562   3.6892   8.2024   1.8544  -1.8717  -2.9837   0.00    0.0
1651 454022.000   48.780709119    9.171578214   340.9161   5   8   4.8563   3.6891   8.2028   1.8542  -1.8711  -2.9840   0.00    0.0
1651 454023.000   48.780709801    9.171579104   340.7526   5   8   4.8565   3.6890   8.2033   1.8541  -1.8705  -2.9843   0.00    0.0
1651 454024.000   48.780709022    9.171577823   340.8015   5   8   4.8566   3.6889   8.2038   1.8539  -1.8699  -2.9846   0.00    0.0
1651 454025.000   48.780704569    9.171579063   340.7474   5   8   4.8568   3.6888   8.2043   1.8538  -1.8693  -2.9849   0.00    0.0
1651 454026.000   48.780708954    9.171579164   340.8461   5   8   4.8569   3.6886   8.2047   1.8536  -1.8687  -2.9852   0.00    0.0
1651 454027.000   48.780709669    9.171578433   340.9267   5   8   4.8571   3.6885   8.2052   1.8535  -1.8681  -2.9855   0.00    0.0
1651 454028.000   48.780709382    9.171578558   340.5428   5   8   4.8573   3.6884   8.2057   1.8533  -1.8675  -2.9858   0.00    0.0
1651 454029.000   48.780706085    9.171577223   340.5997   5   8   4.8574   3.6883   8.2061   1.8531  -1.8669  -2.9861   0.00    0.0
1651 454030.000   48.780706636    9.171580804   341.4350   5   8   4.8576   3.6882   8.2066   1.8530  -1.8663  -2.9864   0.00    0.0
1651 454031.000   48.780707541    9.171580105   340.6838   5   8   4.8577   3.6880   8.2071   1.8528  -1.8657  -2.9867   0.00    0.0
1651 454032.000   48.780706172    9.171577985   341.0192   5   8   4.8579   3.6879   8.2076   1.8527  -1.8650  -2.9870   0.00    0.0
1651 454033.000   48.780705960    9.171575202   340.8291   5   8   4.8580   3.6878   8.2080   1.8525  -1.8644  -2.9873   0.00    0.0
1651 454034.000   48.780710252    9.171575205   340.6538   5   8   4.8582   3.6877   8.2085   1.8523  -1.8638  -2.9876   0.00    0.0
1651 454035.000   48.780705958    9.171575783   341.1780   5   8   4.8584   3.6876   8.2090   1.8522  -1.8632  -2.9879   0.00    0.0
1651 454036.000   48.780708425    9.171576745   340.5795   5   8   4.8585   3.6875   8.2094   1.8520  -1.8626  -2.9882   0.00    0.0
1651 454037.000   48.780713351    9.171576480   340.3299   5   8   4.8587   3.6873   8.2099   1.8519  -1.8620  -2.9885   0.00    0.0
1651 454038.000   48.780710208    9.171574838   340.8586   5   8   4.8588   3.6872   8.2104   1.8517  -1.8614  -2.9888   0.00    0.0
1651 454039.000   48.780708616    9.171579766   341.0692   5   8   4.8590   3.6871   8.2108   1.8516  -1.8608  -2.9891   0.00    0.0
1651 454040.000   48.780707594    9.171576432   341.1595   5   8   4.8591   3.6870   8.2113   1.8514  -1.8601  -2.9894   0.00    0.0
1651 454041.000   48.780710120    9.171575090   340.7674   5   8   4.8593   3.6869   8.2118   1.8512  -1.8595  -2.9898   0.00    0.0
1651 454042.000   48.780711387    9.171581652   340.9576   5   8   4.8594   3.6868   8.2122   1.8511  -1.8589  -2.9901   0.00    0.0
1651 454043.000   48.780707966    9.171581102   341.0103   5   8   4.8596   3.6867   8.2127   1.8509  -1.8583  -2.9904   0.00    0.0
1651 454044.000   48.780710430    9.171581411   340.7647   5   8   4.8598   3.6865   8.2132   1.8508  -1.8577  -2.9907   0.00    0.0
1651 454045.000   48.780710220    9.171576057   341.0745   5   8   4.8599   3.6864   8.2136   1.8506  -1.8571  -2.9910   0.00    0.0
