% program   : RTKPOST ver.2.4.3 b33
% inp file  : E:\Study\master\semester 3\Satellite Navigation\lab5\data_sets\110902_092045.obs
% inp file  : E:\Study\master\semester 3\Satellite Navigation\lab5\data_sets\INSA245gA.OBS
% inp file  : E:\Study\master\semester 3\Satellite Navigation\lab5\data_sets\INSA245gA.NAV
% obs start : 2011/09/02 09:21:01.0 GPST (week1651 465661.0s)
% obs end   : 2011/09/02 10:27:55.5 GPST (week1651 469675.5s)
% pos mode  : dgps
% freqs     : L1+L2
% solution  : forward
% elev mask : 5.0 deg
% dynamics  : off
% tidecorr  : off
% ionos opt : broadcast
% tropo opt : saastamoinen
% ephemeris : broadcast
% antenna1  :                       ( 0.0000  0.0000  0.0000)
% antenna2  :                       ( 0.0000  0.0000  0.0000)
% ref pos   : 48.780700000    9.171600000   328.0000
%
% (lat/lon/height=WGS84/ellipsoidal,Q=1:fix,2:float,3:sbas,4:dgps,5:single,6:ppp,ns=# of satellites)
%  GPST          latitude(deg) longitude(deg)  height(m)   Q  ns   sdn(m)   sde(m)   sdu(m)  sdne(m)  sdeu(m)  sdun(m) age(s)  ratio
1651 465661.000   48.780884056    8.917931373   494.7708   4   9   0.7914   0.5133   1.0220   0.0552  -0.4012   0.3894   0.00    0.0
1651 465661.500   48.780884063    8.917931384   494.7729   4   9   0.7914   0.5133   1.0220   0.0555  -0.4012   0.3895   0.50    0.0
1651 465662.000   48.780886696    8.917928918   494.7402   4  10   0.7856   0.5085   1.0065   0.0988  -0.3856   0.3669   0.00    0.0
1651 465662.500   48.780886771    8.917928799   494.7481   4  10   0.7856   0.5085   1.0065   0.0990  -0.3855   0.3670   0.50    0.0
1651 465663.000   48.780887302    8.917928481   494.3445   4  10   0.7792   0.5048   0.9921   0.1262  -0.3719   0.3429   0.00    0.0
1651 465663.500   48.780887528    8.917928265   494.3814   4  10   0.7792   0.5048   0.9921   0.1263  -0.3718   0.3429   0.50    0.0
1651 465664.000   48.780887231    8.917928733   494.1512   4  10   0.7793   0.5048   0.9921   0.1265  -0.3717   0.3429   0.00    0.0
1651 465664.500   48.780887223    8.917928740   494.1511   4  10   0.7793   0.5047   0.9921   0.1266  -0.3717   0.3430   0.50    0.0
1651 465665.000   48.780889183    8.917932025   494.2043   4  10   0.7793   0.5047   0.9921   0.1268  -0.3716   0.3430   0.00    0.0
1651 465665.500   48.780889299    8.917931935   494.2027   4  10   0.7794   0.5047   0.9921   0.1269  -0.3716   0.3430   0.50    0.0
1651 465666.000   48.780889077    8.917930197   494.2956   4  10   0.7794   0.5046   0.9921   0.1270  -0.3715   0.3430   0.00    0.0
1651 465666.500   48.780889156    8.917930141   494.3075   4  10   0.7794   0.5046   0.9921   0.1272  -0.3714   0.3430   0.50    0.0
1651 465667.000   48.780888910    8.917930053   494.1608   4  10   0.7795   0.5045   0.9921   0.1273  -0.3714   0.3430   0.00    0.0
1651 465667.500   48.780888857    8.917930072   494.1449   4  10   0.7795   0.5045   0.9921   0.1275  -0.3713   0.3430   0.50    0.0
1651 465668.000   48.780888127    8.917927784   494.2675   4  10   0.7795   0.5045   0.9921   0.1276  -0.3713   0.3430   0.00    0.0
1651 465668.500   48.780888047    8.917927802   494.2566   4  10   0.7796   0.5044   0.9921   0.1277  -0.3712   0.3431   0.50    0.0
1651 465669.000   48.780887599    8.917928959   494.0053   4  10   0.7796   0.5044   0.9921   0.1279  -0.3711   0.3431   0.00    0.0
1651 465669.500   48.780887573    8.917929045   493.9924   4  10   0.7796   0.5044   0.9921   0.1280  -0.3711   0.3431   0.50    0.0
1651 465670.000   48.780890404    8.917929793   494.4961   4  10   0.7797   0.5043   0.9922   0.1282  -0.3710   0.3431   0.00    0.0
1651 465670.500   48.780890524    8.917929741   494.5171   4  10   0.7797   0.5043   0.9922   0.1283  -0.3710   0.3431   0.50    0.0
1651 465671.000   48.780888170    8.917931520   494.1954   4  10   0.7797   0.5043   0.9922   0.1284  -0.3709   0.3431   0.00    0.0
1651 465671.500   48.780888252    8.917931511   494.2056   4  10   0.7798   0.5042   0.9922   0.1286  -0.3709   0.3431   0.50    0.0
1651 465672.000   48.780887512    8.917932440   494.6165   4  10   0.7798   0.5042   0.9922   0.1287  -0.3708   0.3431   0.00    0.0
1651 465672.500   48.780887529    8.917932358   494.6115   4  10   0.7798   0.5041   0.9922   0.1289  -0.3707   0.3432   0.50    0.0
1651 465673.000   48.780884576    8.917931581   494.2893   4  10   0.7799   0.5041   0.9922   0.1290  -0.3707   0.3432   0.00    0.0
1651 465673.500   48.780884640    8.917931549   494.2972   4  10   0.7799   0.5041   0.9922   0.1291  -0.3706   0.3432   0.50    0.0
1651 465674.000   48.780887710    8.917928517   494.3855   4  10   0.7799   0.5040   0.9922   0.1293  -0.3706   0.3432   0.00    0.0
1651 465674.500   48.780887783    8.917928493   494.3919   4  10   0.7800   0.5040   0.9922   0.1294  -0.3705   0.3432   0.50    0.0
1651 465675.000   48.780887229    8.917930687   494.2419   4  10   0.7800   0.5040   0.9922   0.1296  -0.3704   0.3432   0.00    0.0
1651 465675.500   48.780887120    8.917930702   494.2330   4  10   0.7800   0.5039   0.9922   0.1297  -0.3704   0.3432   0.50    0.0
1651 465676.000   48.780885510    8.917928544   494.4061   4  10   0.7801   0.5039   0.9922   0.1298  -0.3703   0.3433   0.00    0.0
1651 465676.500   48.780885499    8.917928478   494.4094   4  10   0.7801   0.5038   0.9922   0.1300  -0.3703   0.3433   0.50    0.0
1651 465677.000   48.780886860    8.917931013   494.3044   4  10   0.7801   0.5038   0.9922   0.1301  -0.3702   0.3433   0.00    0.0
1651 465677.500   48.780886932    8.917931001   494.3093   4  10   0.7802   0.5038   0.9922   0.1302  -0.3701   0.3433   0.50    0.0
1651 465678.000   48.780889370    8.917932399   493.5804   4  10   0.7802   0.5037   0.9922   0.1304  -0.3701   0.3433   0.00    0.0
1651 465678.500   48.780889326    8.917932308   493.5798   4  10   0.7802   0.5037   0.9922   0.1305  -0.3700   0.3433   0.50    0.0
1651 465679.000   48.780888065    8.917930191   494.4447   4  10   0.7803   0.5037   0.9923   0.1307  -0.3700   0.3433   0.00    0.0
1651 465679.500   48.780888020    8.917930164   494.4510   4  10   0.7803   0.5036   0.9923   0.1308  -0.3699   0.3434   0.50    0.0
1651 465680.000   48.780889293    8.917931204   493.6791   4  10   0.7803   0.5036   0.9923   0.1309  -0.3698   0.3434   0.00    0.0
1651 465680.500   48.780889293    8.917931221   493.6837   4  10   0.7804   0.5036   0.9923   0.1311  -0.3698   0.3434   0.50    0.0
1651 465681.000   48.780891032    8.917930708   494.0943   4  10   0.7804   0.5035   0.9923   0.1312  -0.3697   0.3434   0.00    0.0
1651 465681.500   48.780891057    8.917930681   494.0971   4  10   0.7805   0.5035   0.9923   0.1313  -0.3697   0.3434   0.50    0.0
1651 465682.000   48.780887647    8.917928845   494.2109   4  10   0.7805   0.5034   0.9923   0.1315  -0.3696   0.3434   0.00    0.0
1651 465682.500   48.780887673    8.917928838   494.2076   4  10   0.7805   0.5034   0.9923   0.1316  -0.3696   0.3434   0.50    0.0
1651 465683.000   48.780889921    8.917931462   494.8794   4  10   0.7806   0.5034   0.9923   0.1318  -0.3695   0.3435   0.00    0.0
1651 465683.500   48.780889888    8.917931473   494.8828   4  10   0.7806   0.5033   0.9923   0.1319  -0.3694   0.3435   0.50    0.0
1651 465684.000   48.780892561    8.917929758   493.9644   4  10   0.7806   0.5033   0.9923   0.1320  -0.3694   0.3435   0.00    0.0
1651 465684.500   48.780892591    8.917929745   493.9635   4  10   0.7807   0.5033   0.9923   0.1322  -0.3693   0.3435   0.50    0.0
1651 465685.000   48.780887371    8.917931080   494.4129   4  10   0.7807   0.5032   0.9923   0.1323  -0.3693   0.3435   0.00    0.0
1651 465685.500   48.780887443    8.917931020   494.4045   4  10   0.7807   0.5032   0.9923   0.1324  -0.3692   0.3435   0.50    0.0
1651 465686.000   48.780889612    8.917930797   494.2771   4  10   0.7808   0.5031   0.9923   0.1326  -0.3691   0.3435   0.00    0.0
1651 465686.500   48.780889650    8.917930777   494.2706   4  10   0.7808   0.5031   0.9923   0.1327  -0.3691   0.3435   0.50    0.0
1651 465687.000   48.780886503    8.917928895   494.0320   4  10   0.7808   0.5031   0.9923   0.1328  -0.3690   0.3436   0.00    0.0
1651 465687.500   48.780886544    8.917928931   494.0418   4  10   0.7809   0.5030   0.9924   0.1330  -0.3690   0.3436   0.50    0.0
1651 465688.000   48.780887744    8.917925610   494.3180   4  10   0.7809   0.5030   0.9924   0.1331  -0.3689   0.3436   0.00    0.0
1651 465688.500   48.780887771    8.917925526   494.3198   4  10   0.7809   0.5030   0.9924   0.1333  -0.3688   0.3436   0.50    0.0
1651 465689.000   48.780889630    8.917929322   494.4410   4  10   0.7810   0.5029   0.9924   0.1334  -0.3688   0.3436   0.00    0.0
1651 465689.500   48.780889680    8.917929283   494.4391   4  10   0.7810   0.5029   0.9924   0.1335  -0.3687   0.3436   0.50    0.0
1651 465690.000   48.780887836    8.917929847   494.1332   4  10   0.7810   0.5029   0.9924   0.1337  -0.3687   0.3436   0.00    0.0
1651 465690.500   48.780887856    8.917929871   494.1327   4  10   0.7811   0.5028   0.9924   0.1338  -0.3686   0.3437   0.50    0.0
1651 465691.000   48.780891895    8.917929986   494.0111   4  10   0.7811   0.5028   0.9924   0.1339  -0.3685   0.3437   0.00    0.0
1651 465691.500   48.780891909    8.917929955   494.0083   4  10   0.7811   0.5027   0.9924   0.1341  -0.3685   0.3437   0.50    0.0
1651 465692.000   48.780890710    8.917930157   493.8194   4  10   0.7812   0.5027   0.9924   0.1342  -0.3684   0.3437   0.00    0.0
1651 465692.500   48.780890747    8.917930189   493.8278   4  10   0.7812   0.5027   0.9924   0.1343  -0.3684   0.3437   0.50    0.0
1651 465693.000   48.780886822    8.917933469   493.8026   4  10   0.7813   0.5026   0.9924   0.1345  -0.3683   0.3437   0.00    0.0
1651 465693.500   48.780886828    8.917933445   493.8077   4  10   0.7813   0.5026   0.9924   0.1346  -0.3682   0.3437   0.50    0.0
1651 465694.000   48.780887681    8.917928277   494.4376   4  10   0.7813   0.5026   0.9924   0.1347  -0.3682   0.3438   0.00    0.0
1651 465694.500   48.780887693    8.917928249   494.4387   4  10   0.7814   0.5025   0.9924   0.1349  -0.3681   0.3438   0.50    0.0
1651 465695.000   48.780886817    8.917927607   494.1622   4  10   0.7814   0.5025   0.9924   0.1350  -0.3681   0.3438   0.00    0.0
1651 465695.500   48.780886814    8.917927586   494.1548   4  10   0.7814   0.5025   0.9925   0.1351  -0.3680   0.3438   0.50    0.0
1651 465696.000   48.780887363    8.917930329   494.5615   4  10   0.7815   0.5024   0.9925   0.1353  -0.3679   0.3438   0.00    0.0
1651 465696.500   48.780887399    8.917930274   494.5601   4  10   0.7815   0.5024   0.9925   0.1354  -0.3679   0.3438   0.50    0.0
1651 465697.000   48.780886118    8.917928826   494.3601   4  10   0.7815   0.5023   0.9925   0.1355  -0.3678   0.3438   0.00    0.0
1651 465697.500   48.780886092    8.917928818   494.3543   4  10   0.7816   0.5023   0.9925   0.1357  -0.3678   0.3439   0.50    0.0
1651 465698.000   48.780887079    8.917930248   494.2731   4  10   0.7816   0.5023   0.9925   0.1358  -0.3677   0.3439   0.00    0.0
1651 465698.500   48.780887047    8.917930296   494.2715   4  10   0.7816   0.5022   0.9925   0.1359  -0.3676   0.3439   0.50    0.0
1651 465699.000   48.780886822    8.917928708   493.7568   4  10   0.7817   0.5022   0.9925   0.1361  -0.3676   0.3439   0.00    0.0
1651 465699.500   48.780886885    8.917928668   493.7469   4  10   0.7817   0.5022   0.9925   0.1362  -0.3675   0.3439   0.50    0.0
1651 465700.000   48.780887785    8.917931394   494.3492   4  10   0.7817   0.5021   0.9925   0.1363  -0.3675   0.3439   0.00    0.0
1651 465700.500   48.780887787    8.917931419   494.3484   4  10   0.7818   0.5021   0.9925   0.1365  -0.3674   0.3439   0.50    0.0
1651 465701.000   48.780887090    8.917930931   494.4196   4  10   0.7818   0.5021   0.9925   0.1366  -0.3674   0.3440   0.00    0.0
1651 465701.500   48.780887181    8.917930823   494.4215   4  10   0.7818   0.5020   0.9925   0.1367  -0.3673   0.3440   0.50    0.0
1651 465702.000   48.780886260    8.917928638   494.6045   4  10   0.7819   0.5020   0.9925   0.1369  -0.3672   0.3440   0.00    0.0
1651 465702.500   48.780886207    8.917928687   494.6074   4  10   0.7819   0.5019   0.9925   0.1370  -0.3672   0.3440   0.50    0.0
1651 465703.000   48.780885351    8.917931913   494.1618   4  10   0.7820   0.5019   0.9925   0.1371  -0.3671   0.3440   0.00    0.0
1651 465703.500   48.780885314    8.917931965   494.1755   4  10   0.7820   0.5019   0.9926   0.1372  -0.3671   0.3440   0.50    0.0
1651 465704.000   48.780887150    8.917931321   494.1193   4  10   0.7820   0.5018   0.9926   0.1374  -0.3670   0.3440   0.00    0.0
1651 465704.500   48.780887167    8.917931263   494.1211   4  10   0.7821   0.5018   0.9926   0.1375  -0.3669   0.3441   0.50    0.0
1651 465705.000   48.780886097    8.917929472   493.7665   4  10   0.7821   0.5018   0.9926   0.1376  -0.3669   0.3441   0.00    0.0
1651 465705.500   48.780886142    8.917929498   493.7745   4  10   0.7821   0.5017   0.9926   0.1378  -0.3668   0.3441   0.50    0.0
1651 465706.000   48.780882874    8.917928965   494.4589   4  10   0.7822   0.5017   0.9926   0.1379  -0.3668   0.3441   0.00    0.0
1651 465706.500   48.780882903    8.917928938   494.4604   4  10   0.7822   0.5017   0.9926   0.1380  -0.3667   0.3441   0.50    0.0
1651 465707.000   48.780886908    8.917928158   494.2660   4  10   0.7822   0.5016   0.9926   0.1382  -0.3666   0.3441   0.00    0.0
1651 465707.500   48.780886890    8.917928213   494.2580   4  10   0.7823   0.5016   0.9926   0.1383  -0.3666   0.3442   0.50    0.0
1651 465708.000   48.780885144    8.917929822   494.1001   4  10   0.7823   0.5015   0.9926   0.1384  -0.3665   0.3442   0.00    0.0
1651 465708.500   48.780885168    8.917929877   494.0975   4  10   0.7823   0.5015   0.9926   0.1386  -0.3665   0.3442   0.50    0.0
1651 465709.000   48.780885197    8.917929666   494.2232   4  10   0.7824   0.5015   0.9926   0.1387  -0.3664   0.3442   0.00    0.0
1651 465709.500   48.780885275    8.917929635   494.2219   4  10   0.7824   0.5014   0.9926   0.1388  -0.3663   0.3442   0.50    0.0
1651 465710.000   48.780888039    8.917931542   494.2739   4  10   0.7824   0.5014   0.9926   0.1390  -0.3663   0.3442   0.00    0.0
1651 465710.500   48.780888049    8.917931572   494.2698   4  10   0.7825   0.5014   0.9927   0.1391  -0.3662   0.3442   0.50    0.0
1651 465711.000   48.780885710    8.917930585   493.5624   4  10   0.7825   0.5013   0.9927   0.1392  -0.3662   0.3443   0.00    0.0
1651 465711.500   48.780885700    8.917930524   493.5692   4  10   0.7826   0.5013   0.9927   0.1393  -0.3661   0.3443   0.50    0.0
1651 465712.000   48.780888662    8.917927695   494.5386   4  10   0.7826   0.5013   0.9927   0.1395  -0.3660   0.3443   0.00    0.0
1651 465712.500   48.780888643    8.917927637   494.5432   4  10   0.7826   0.5012   0.9927   0.1396  -0.3660   0.3443   0.50    0.0
1651 465713.000   48.780888069    8.917927433   494.5584   4  10   0.7827   0.5012   0.9927   0.1397  -0.3659   0.3443   0.00    0.0
1651 465713.500   48.780888056    8.917927499   494.5572   4  10   0.7827   0.5011   0.9927   0.1399  -0.3659   0.3443   0.50    0.0
1651 465714.000   48.780889669    8.917928946   494.2836   4  10   0.7827   0.5011   0.9927   0.1400  -0.3658   0.3443   0.00    0.0
1651 465714.500   48.780889679    8.917928981   494.2861   4  10   0.7828   0.5011   0.9927   0.1401  -0.3657   0.3444   0.50    0.0
1651 465715.000   48.780890673    8.917929172   494.0812   4  10   0.7828   0.5010   0.9927   0.1402  -0.3657   0.3444   0.00    0.0
1651 465715.500   48.780890727    8.917929195   494.0745   4  10   0.7828   0.5010   0.9927   0.1404  -0.3656   0.3444   0.50    0.0
1651 465716.000   48.780887107    8.917929756   494.3095   4  10   0.7829   0.5010   0.9927   0.1405  -0.3656   0.3444   0.00    0.0
1651 465716.500   48.780887041    8.917929777   494.3104   4  10   0.7829   0.5009   0.9927   0.1406  -0.3655   0.3444   0.50    0.0
1651 465717.000   48.780888398    8.917928228   494.3414   4  10   0.7829   0.5009   0.9927   0.1408  -0.3654   0.3444   0.00    0.0
1651 465717.500   48.780888422    8.917928216   494.3369   4  10   0.7830   0.5009   0.9928   0.1409  -0.3654   0.3445   0.50    0.0
1651 465718.000   48.780888037    8.917930730   494.0772   4  10   0.7830   0.5008   0.9928   0.1410  -0.3653   0.3445   0.00    0.0
1651 465718.500   48.780888094    8.917930743   494.0726   4  10   0.7830   0.5008   0.9928   0.1411  -0.3653   0.3445   0.50    0.0
1651 465719.000   48.780885196    8.917928337   494.3760   4  10   0.7831   0.5008   0.9928   0.1413  -0.3652   0.3445   0.00    0.0
1651 465719.500   48.780885254    8.917928369   494.3699   4  10   0.7831   0.5007   0.9928   0.1414  -0.3651   0.3445   0.50    0.0
1651 465720.000   48.780885813    8.917929504   494.1823   4  10   0.7832   0.5007   0.9928   0.1415  -0.3651   0.3445   0.00    0.0
1651 465720.500   48.780885892    8.917929499   494.1823   4  10   0.7832   0.5006   0.9928   0.1417  -0.3650   0.3445   0.50    0.0
1651 465721.000   48.780888306    8.917930565   494.4981   4  10   0.7832   0.5006   0.9928   0.1418  -0.3650   0.3446   0.00    0.0
1651 465721.500   48.780888290    8.917930673   494.4894   4  10   0.7833   0.5006   0.9928   0.1419  -0.3649   0.3446   0.50    0.0
1651 465722.000   48.780890218    8.917926586   494.2731   4  10   0.7833   0.5005   0.9928   0.1420  -0.3648   0.3446   0.00    0.0
1651 465722.500   48.780890282    8.917926617   494.2816   4  10   0.7833   0.5005   0.9928   0.1422  -0.3648   0.3446   0.50    0.0
1651 465723.000   48.780887126    8.917928857   494.4156   4  10   0.7834   0.5005   0.9928   0.1423  -0.3647   0.3446   0.00    0.0
1651 465723.500   48.780887127    8.917928877   494.4131   4  10   0.7834   0.5004   0.9928   0.1424  -0.3647   0.3446   0.50    0.0
1651 465724.000   48.780891611    8.917931601   494.1517   4  10   0.7834   0.5004   0.9928   0.1426  -0.3646   0.3447   0.00    0.0
1651 465724.500   48.780891651    8.917931649   494.1416   4  10   0.7835   0.5004   0.9929   0.1427  -0.3645   0.3447   0.50    0.0
1651 465725.000   48.780886233    8.917929611   493.9165   4  10   0.7835   0.5003   0.9929   0.1428  -0.3645   0.3447   0.00    0.0
1651 465725.500   48.780886175    8.917929580   493.9189   4  10   0.7835   0.5003   0.9929   0.1429  -0.3644   0.3447   0.50    0.0
1651 465726.000   48.780887613    8.917931878   493.9604   4  10   0.7836   0.5002   0.9929   0.1431  -0.3644   0.3447   0.00    0.0
1651 465726.500   48.780887584    8.917931925   493.9581   4  10   0.7836   0.5002   0.9929   0.1432  -0.3643   0.3447   0.50    0.0
1651 465727.000   48.780889976    8.917930593   493.9788   4  10   0.7837   0.5002   0.9929   0.1433  -0.3642   0.3447   0.00    0.0
1651 465727.500   48.780890041    8.917930546   493.9843   4  10   0.7837   0.5001   0.9929   0.1434  -0.3642   0.3448   0.50    0.0
1651 465728.000   48.780888741    8.917928858   493.5437   4  10   0.7837   0.5001   0.9929   0.1436  -0.3641   0.3448   0.00    0.0
1651 465728.500   48.780888755    8.917928860   493.5487   4  10   0.7838   0.5001   0.9929   0.1437  -0.3641   0.3448   0.50    0.0
1651 465729.000   48.780890095    8.917928589   493.6139   4  10   0.7838   0.5000   0.9929   0.1438  -0.3640   0.3448   0.00    0.0
1651 465729.500   48.780890106    8.917928589   493.6224   4  10   0.7838   0.5000   0.9929   0.1439  -0.3639   0.3448   0.50    0.0
1651 465730.000   48.780889519    8.917927744   494.0189   4  10   0.7839   0.5000   0.9929   0.1441  -0.3639   0.3448   0.00    0.0
1651 465730.500   48.780889546    8.917927697   494.0115   4  10   0.7839   0.4999   0.9929   0.1442  -0.3638   0.3449   0.50    0.0
1651 465731.000   48.780888272    8.917928315   493.9743   4  10   0.7839   0.4999   0.9930   0.1443  -0.3638   0.3449   0.00    0.0
1651 465731.500   48.780888249    8.917928321   493.9802   4  10   0.7840   0.4999   0.9930   0.1445  -0.3637   0.3449   0.50    0.0
1651 465732.000   48.780887465    8.917927529   493.9185   4  10   0.7840   0.4998   0.9930   0.1446  -0.3636   0.3449   0.00    0.0
1651 465732.500   48.780887429    8.917927529   493.9194   4  10   0.7840   0.4998   0.9930   0.1447  -0.3636   0.3449   0.50    0.0
1651 465733.000   48.780889439    8.917928199   494.3906   4  10   0.7841   0.4997   0.9930   0.1448  -0.3635   0.3449   0.00    0.0
1651 465733.500   48.780889416    8.917928204   494.3994   4  10   0.7841   0.4997   0.9930   0.1450  -0.3635   0.3449   0.50    0.0
1651 465734.000   48.780889379    8.917929231   494.2212   4  10   0.7842   0.4997   0.9930   0.1451  -0.3634   0.3450   0.00    0.0
1651 465734.500   48.780889408    8.917929254   494.2263   4  10   0.7842   0.4996   0.9930   0.1452  -0.3633   0.3450   0.50    0.0
1651 465735.000   48.780888834    8.917928420   494.2634   4  10   0.7842   0.4996   0.9930   0.1453  -0.3633   0.3450   0.00    0.0
1651 465735.500   48.780888875    8.917928448   494.2624   4  10   0.7843   0.4996   0.9930   0.1455  -0.3632   0.3450   0.50    0.0
1651 465736.000   48.780890050    8.917928059   494.2432   4  10   0.7843   0.4995   0.9930   0.1456  -0.3632   0.3450   0.00    0.0
1651 465736.500   48.780890126    8.917928097   494.2473   4  10   0.7843   0.4995   0.9930   0.1457  -0.3631   0.3450   0.50    0.0
1651 465737.000   48.780888861    8.917925501   494.3346   4  10   0.7844   0.4995   0.9931   0.1458  -0.3630   0.3451   0.00    0.0
1651 465737.500   48.780888878    8.917925473   494.3261   4  10   0.7844   0.4994   0.9931   0.1460  -0.3630   0.3451   0.50    0.0
1651 465738.000   48.780887797    8.917923706   494.5047   4  10   0.7844   0.4994   0.9931   0.1461  -0.3629   0.3451   0.00    0.0
1651 465738.500   48.780887786    8.917923668   494.4956   4  10   0.7845   0.4994   0.9931   0.1462  -0.3628   0.3451   0.50    0.0
1651 465739.000   48.780888369    8.917926608   494.4164   4  10   0.7845   0.4993   0.9931   0.1463  -0.3628   0.3451   0.00    0.0
1651 465739.500   48.780888373    8.917926601   494.4127   4  10   0.7846   0.4993   0.9931   0.1465  -0.3627   0.3451   0.50    0.0
1651 465740.000   48.780886330    8.917927057   494.0838   4  10   0.7846   0.4992   0.9931   0.1466  -0.3627   0.3452   0.00    0.0
1651 465740.500   48.780886369    8.917927115   494.0858   4  10   0.7846   0.4992   0.9931   0.1467  -0.3626   0.3452   0.50    0.0
1651 465741.000   48.780886174    8.917928772   494.0202   4  10   0.7847   0.4992   0.9931   0.1468  -0.3625   0.3452   0.00    0.0
1651 465741.500   48.780886267    8.917928807   494.0212   4  10   0.7847   0.4991   0.9931   0.1469  -0.3625   0.3452   0.50    0.0
1651 465742.000   48.780889847    8.917928452   494.2432   4  10   0.7847   0.4991   0.9931   0.1471  -0.3624   0.3452   0.00    0.0
1651 465742.500   48.780889910    8.917928407   494.2509   4  10   0.7848   0.4991   0.9931   0.1472  -0.3624   0.3452   0.50    0.0
1651 465743.000   48.780887514    8.917925397   494.3536   4  10   0.7848   0.4990   0.9932   0.1473  -0.3623   0.3453   0.00    0.0
1651 465743.500   48.780887469    8.917925400   494.3520   4  10   0.7848   0.4990   0.9932   0.1474  -0.3622   0.3453   0.50    0.0
1651 465744.000   48.780889118    8.917928596   494.4487   4  10   0.7849   0.4990   0.9932   0.1476  -0.3622   0.3453   0.00    0.0
1651 465744.500   48.780889082    8.917928694   494.4543   4  10   0.7849   0.4989   0.9932   0.1477  -0.3621   0.3453   0.50    0.0
1651 465745.000   48.780890237    8.917926951   494.7698   4  10   0.7850   0.4989   0.9932   0.1478  -0.3621   0.3453   0.00    0.0
1651 465745.500   48.780890282    8.917926879   494.7702   4  10   0.7850   0.4989   0.9932   0.1479  -0.3620   0.3453   0.50    0.0
1651 465746.000   48.780890789    8.917928370   494.3692   4  10   0.7850   0.4988   0.9932   0.1481  -0.3619   0.3453   0.00    0.0
1651 465746.500   48.780890798    8.917928409   494.3725   4  10   0.7851   0.4988   0.9932   0.1482  -0.3619   0.3454   0.50    0.0
1651 465747.000   48.780889661    8.917928566   494.3750   4  10   0.7851   0.4988   0.9932   0.1483  -0.3618   0.3454   0.00    0.0
1651 465747.500   48.780889709    8.917928506   494.3685   4  10   0.7851   0.4987   0.9932   0.1484  -0.3618   0.3454   0.50    0.0
1651 465748.000   48.780889361    8.917930183   493.9486   4  10   0.7852   0.4987   0.9932   0.1485  -0.3617   0.3454   0.00    0.0
1651 465748.500   48.780889355    8.917930124   493.9539   4  10   0.7852   0.4986   0.9932   0.1487  -0.3616   0.3454   0.50    0.0
1651 465749.000   48.780890593    8.917927834   493.7471   4  10   0.7852   0.4986   0.9933   0.1488  -0.3616   0.3454   0.00    0.0
1651 465749.500   48.780890612    8.917927863   493.7438   4  10   0.7853   0.4986   0.9933   0.1489  -0.3615   0.3455   0.50    0.0
1651 465750.000   48.780890421    8.917927967   493.6401   4  10   0.7853   0.4985   0.9933   0.1490  -0.3615   0.3455   0.00    0.0
1651 465750.500   48.780890429    8.917927961   493.6376   4  10   0.7854   0.4985   0.9933   0.1492  -0.3614   0.3455   0.50    0.0
1651 465751.000   48.780891470    8.917927355   494.4108   4  10   0.7854   0.4985   0.9933   0.1493  -0.3613   0.3455   0.00    0.0
1651 465751.500   48.780891404    8.917927321   494.4104   4  10   0.7854   0.4984   0.9933   0.1494  -0.3613   0.3455   0.50    0.0
1651 465752.000   48.780889150    8.917926487   494.3515   4  10   0.7855   0.4984   0.9933   0.1495  -0.3612   0.3455   0.00    0.0
1651 465752.500   48.780889144    8.917926486   494.3503   4  10   0.7855   0.4984   0.9933   0.1497  -0.3612   0.3456   0.50    0.0
1651 465753.000   48.780887974    8.917928157   494.3110   4  10   0.7855   0.4983   0.9933   0.1498  -0.3611   0.3456   0.00    0.0
1651 465753.500   48.780887973    8.917928070   494.3113   4  10   0.7856   0.4983   0.9933   0.1499  -0.3610   0.3456   0.50    0.0
1651 465754.000   48.780888730    8.917928164   493.9936   4  10   0.7856   0.4983   0.9933   0.1500  -0.3610   0.3456   0.00    0.0
1651 465754.500   48.780888751    8.917928162   493.9815   4  10   0.7856   0.4982   0.9934   0.1501  -0.3609   0.3456   0.50    0.0
1651 465755.000   48.780887251    8.917927869   494.1983   4  10   0.7857   0.4982   0.9934   0.1503  -0.3609   0.3456   0.00    0.0
1651 465755.500   48.780887256    8.917927947   494.2014   4  10   0.7857   0.4981   0.9934   0.1504  -0.3608   0.3457   0.50    0.0
1651 465756.000   48.780889027    8.917929088   494.1597   4  10   0.7858   0.4981   0.9934   0.1505  -0.3607   0.3457   0.00    0.0
1651 465756.500   48.780889030    8.917929039   494.1638   4  10   0.7858   0.4981   0.9934   0.1506  -0.3607   0.3457   0.50    0.0
1651 465757.000   48.780890681    8.917927333   494.0860   4  10   0.7858   0.4980   0.9934   0.1507  -0.3606   0.3457   0.00    0.0
1651 465757.500   48.780890640    8.917927254   494.0676   4  10   0.7859   0.4980   0.9934   0.1509  -0.3605   0.3457   0.50    0.0
1651 465758.000   48.780888420    8.917928228   494.3577   4  10   0.7859   0.4980   0.9934   0.1510  -0.3605   0.3457   0.00    0.0
1651 465758.500   48.780888423    8.917928214   494.3696   4  10   0.7859   0.4979   0.9934   0.1511  -0.3604   0.3458   0.50    0.0
1651 465759.000   48.780891321    8.917929877   494.3206   4  10   0.7860   0.4979   0.9934   0.1512  -0.3604   0.3458   0.00    0.0
1651 465759.500   48.780891293    8.917929874   494.3296   4  10   0.7860   0.4979   0.9934   0.1514  -0.3603   0.3458   0.50    0.0
1651 465760.000   48.780890137    8.917927143   494.3147   4  10   0.7860   0.4978   0.9934   0.1515  -0.3602   0.3458   0.00    0.0
1651 465760.500   48.780890243    8.917927077   494.3240   4  10   0.7861   0.4978   0.9935   0.1516  -0.3602   0.3458   0.50    0.0
1651 465761.000   48.780890509    8.917929976   493.9453   4  10   0.7861   0.4978   0.9935   0.1517  -0.3601   0.3458   0.00    0.0
1651 465761.500   48.780890478    8.917929941   493.9444   4  10   0.7862   0.4977   0.9935   0.1518  -0.3601   0.3459   0.50    0.0
1651 465762.000   48.780888648    8.917929191   494.1146   4  10   0.7862   0.4977   0.9935   0.1520  -0.3600   0.3459   0.00    0.0
1651 465762.500   48.780888642    8.917929107   494.1100   4  10   0.7862   0.4977   0.9935   0.1521  -0.3599   0.3459   0.50    0.0
1651 465763.000   48.780888493    8.917926923   494.4166   4  10   0.7863   0.4976   0.9935   0.1522  -0.3599   0.3459   0.00    0.0
1651 465763.500   48.780888510    8.917926983   494.4091   4  10   0.7863   0.4976   0.9935   0.1523  -0.3598   0.3459   0.50    0.0
1651 465764.000   48.780891778    8.917929710   493.9466   4  10   0.7863   0.4976   0.9935   0.1524  -0.3598   0.3459   0.00    0.0
1651 465764.500   48.780891817    8.917929720   493.9459   4  10   0.7864   0.4975   0.9935   0.1526  -0.3597   0.3460   0.50    0.0
1651 465765.000   48.780891118    8.917931658   494.3662   4  10   0.7864   0.4975   0.9935   0.1527  -0.3596   0.3460   0.00    0.0
1651 465765.500   48.780891172    8.917931632   494.3684   4  10   0.7865   0.4974   0.9936   0.1528  -0.3596   0.3460   0.50    0.0
1651 465766.000   48.780888179    8.917927181   494.2895   4  10   0.7865   0.4974   0.9936   0.1529  -0.3595   0.3460   0.00    0.0
1651 465766.500   48.780888197    8.917927178   494.2955   4  10   0.7865   0.4974   0.9936   0.1530  -0.3595   0.3460   0.50    0.0
1651 465767.000   48.780890663    8.917930180   493.9899   4  10   0.7866   0.4973   0.9936   0.1532  -0.3594   0.3461   0.00    0.0
1651 465767.500   48.780890751    8.917930123   493.9909   4  10   0.7866   0.4973   0.9936   0.1533  -0.3593   0.3461   0.50    0.0
1651 465768.000   48.780888581    8.917925728   494.3369   4  10   0.7866   0.4973   0.9936   0.1534  -0.3593   0.3461   0.00    0.0
1651 465768.500   48.780888577    8.917925714   494.3243   4  10   0.7867   0.4972   0.9936   0.1535  -0.3592   0.3461   0.50    0.0
1651 465769.000   48.780888371    8.917930451   494.2435   4  10   0.7867   0.4972   0.9936   0.1536  -0.3591   0.3461   0.00    0.0
1651 465769.500   48.780888354    8.917930338   494.2468   4  10   0.7867   0.4972   0.9936   0.1537  -0.3591   0.3461   0.50    0.0
1651 465770.000   48.780890221    8.917926817   494.2327   4  10   0.7868   0.4971   0.9936   0.1539  -0.3590   0.3462   0.00    0.0
1651 465770.500   48.780890206    8.917926840   494.2338   4  10   0.7868   0.4971   0.9936   0.1540  -0.3590   0.3462   0.50    0.0
1651 465771.000   48.780889815    8.917929118   494.4906   4  10   0.7869   0.4971   0.9937   0.1541  -0.3589   0.3462   0.00    0.0
1651 465771.500   48.780889836    8.917929185   494.4920   4  10   0.7869   0.4970   0.9937   0.1542  -0.3588   0.3462   0.50    0.0
1651 465772.000   48.780890172    8.917928319   494.2798   4  10   0.7869   0.4970   0.9937   0.1543  -0.3588   0.3462   0.00    0.0
1651 465772.500   48.780890187    8.917928237   494.2748   4  10   0.7870   0.4970   0.9937   0.1545  -0.3587   0.3462   0.50    0.0
1651 465773.000   48.780888124    8.917927802   494.2129   4  10   0.7870   0.4969   0.9937   0.1546  -0.3587   0.3463   0.00    0.0
1651 465773.500   48.780888157    8.917927800   494.2199   4  10   0.7870   0.4969   0.9937   0.1547  -0.3586   0.3463   0.50    0.0
1651 465774.000   48.780887239    8.917929183   494.1395   4  10   0.7871   0.4969   0.9937   0.1548  -0.3585   0.3463   0.00    0.0
1651 465774.500   48.780887246    8.917929209   494.1255   4  10   0.7871   0.4968   0.9937   0.1549  -0.3585   0.3463   0.50    0.0
1651 465775.000   48.780888775    8.917927647   494.2268   4  10   0.7872   0.4968   0.9937   0.1551  -0.3584   0.3463   0.00    0.0
1651 465775.500   48.780888829    8.917927625   494.2320   4  10   0.7872   0.4967   0.9937   0.1552  -0.3584   0.3463   0.50    0.0
1651 465776.000   48.780889568    8.917925470   494.0407   4  10   0.7872   0.4967   0.9937   0.1553  -0.3583   0.3464   0.00    0.0
1651 465776.500   48.780889543    8.917925467   494.0330   4  10   0.7873   0.4967   0.9938   0.1554  -0.3582   0.3464   0.50    0.0
1651 465777.000   48.780889598    8.917927206   494.3285   4  10   0.7873   0.4966   0.9938   0.1555  -0.3582   0.3464   0.00    0.0
1651 465777.500   48.780889532    8.917927232   494.3331   4  10   0.7873   0.4966   0.9938   0.1556  -0.3581   0.3464   0.50    0.0
1651 465778.000   48.780890087    8.917929192   494.0333   4  10   0.7874   0.4966   0.9938   0.1558  -0.3580   0.3464   0.00    0.0
1651 465778.500   48.780890072    8.917929150   494.0316   4  10   0.7874   0.4965   0.9938   0.1559  -0.3580   0.3464   0.50    0.0
1651 465779.000   48.780889628    8.917928167   494.7826   4  10   0.7875   0.4965   0.9938   0.1560  -0.3579   0.3465   0.00    0.0
1651 465779.500   48.780889624    8.917928208   494.7807   4  10   0.7875   0.4965   0.9938   0.1561  -0.3579   0.3465   0.50    0.0
1651 465780.000   48.780887067    8.917927281   494.4392   4  10   0.7875   0.4964   0.9938   0.1562  -0.3578   0.3465   0.00    0.0
1651 465780.500   48.780887053    8.917927235   494.4434   4  10   0.7876   0.4964   0.9938   0.1564  -0.3577   0.3465   0.50    0.0
1651 465781.000   48.780889851    8.917924408   494.0910   4  10   0.7876   0.4964   0.9938   0.1565  -0.3577   0.3465   0.00    0.0
1651 465781.500   48.780889889    8.917924382   494.0871   4  10   0.7876   0.4963   0.9939   0.1566  -0.3576   0.3466   0.50    0.0
1651 465782.000   48.780892525    8.917926659   494.3195   4  10   0.7877   0.4963   0.9939   0.1567  -0.3576   0.3466   0.00    0.0
1651 465782.500   48.780892511    8.917926632   494.3279   4  10   0.7877   0.4963   0.9939   0.1568  -0.3575   0.3466   0.50    0.0
1651 465783.000   48.780887088    8.917926339   494.4643   4  10   0.7877   0.4962   0.9939   0.1569  -0.3574   0.3466   0.00    0.0
1651 465783.500   48.780887115    8.917926335   494.4620   4  10   0.7878   0.4962   0.9939   0.1571  -0.3574   0.3466   0.50    0.0
1651 465784.000   48.780889202    8.917927435   493.8643   4  10   0.7878   0.4962   0.9939   0.1572  -0.3573   0.3466   0.00    0.0
1651 465784.500   48.780889175    8.917927412   493.8665   4  10   0.7879   0.4961   0.9939   0.1573  -0.3573   0.3467   0.50    0.0
1651 465785.000   48.780889294    8.917928025   494.6165   4  10   0.7879   0.4961   0.9939   0.1574  -0.3572   0.3467   0.00    0.0
1651 465785.500   48.780889292    8.917927984   494.6089   4  10   0.7879   0.4960   0.9939   0.1575  -0.3571   0.3467   0.50    0.0
1651 465786.000   48.780888746    8.917927941   494.4924   4  10   0.7880   0.4960   0.9939   0.1576  -0.3571   0.3467   0.00    0.0
1651 465786.500   48.780888749    8.917928003   494.5011   4  10   0.7880   0.4960   0.9940   0.1578  -0.3570   0.3467   0.50    0.0
1651 465787.000   48.780888129    8.917926002   493.9786   4  10   0.7880   0.4959   0.9940   0.1579  -0.3569   0.3468   0.00    0.0
1651 465787.500   48.780888137    8.917926000   493.9842   4  10   0.7881   0.4959   0.9940   0.1580  -0.3569   0.3468   0.50    0.0
1651 465788.000   48.780890905    8.917927850   494.2953   4  10   0.7881   0.4959   0.9940   0.1581  -0.3568   0.3468   0.00    0.0
1651 465788.500   48.780890880    8.917927851   494.2824   4  10   0.7882   0.4958   0.9940   0.1582  -0.3568   0.3468   0.50    0.0
1651 465789.000   48.780887507    8.917926086   494.2984   4  10   0.7882   0.4958   0.9940   0.1583  -0.3567   0.3468   0.00    0.0
1651 465789.500   48.780887515    8.917926147   494.2959   4  10   0.7882   0.4958   0.9940   0.1585  -0.3566   0.3468   0.50    0.0
1651 465790.000   48.780887444    8.917924872   494.3693   4  10   0.7883   0.4957   0.9940   0.1586  -0.3566   0.3469   0.00    0.0
1651 465790.500   48.780887527    8.917924919   494.3766   4  10   0.7883   0.4957   0.9940   0.1587  -0.3565   0.3469   0.50    0.0
1651 465791.000   48.780890386    8.917925482   494.1521   4  10   0.7883   0.4957   0.9941   0.1588  -0.3565   0.3469   0.00    0.0
1651 465791.500   48.780890382    8.917925526   494.1391   4  10   0.7884   0.4956   0.9941   0.1589  -0.3564   0.3469   0.50    0.0
1651 465792.000   48.780891041    8.917927983   494.7674   4  10   0.7884   0.4956   0.9941   0.1590  -0.3563   0.3469   0.00    0.0
1651 465792.500   48.780891060    8.917927992   494.7580   4  10   0.7885   0.4956   0.9941   0.1591  -0.3563   0.3470   0.50    0.0
1651 465793.000   48.780888248    8.917930158   494.5359   4  10   0.7885   0.4955   0.9941   0.1593  -0.3562   0.3470   0.00    0.0
1651 465793.500   48.780888266    8.917930150   494.5315   4  10   0.7885   0.4955   0.9941   0.1594  -0.3561   0.3470   0.50    0.0
1651 465794.000   48.780888192    8.917927099   494.0707   4  10   0.7886   0.4955   0.9941   0.1595  -0.3561   0.3470   0.00    0.0
1651 465794.500   48.780888176    8.917927055   494.0781   4  10   0.7886   0.4954   0.9941   0.1596  -0.3560   0.3470   0.50    0.0
1651 465795.000   48.780890133    8.917930912   494.1019   4  10   0.7886   0.4954   0.9941   0.1597  -0.3560   0.3470   0.00    0.0
1651 465795.500   48.780890080    8.917930895   494.0971   4  10   0.7887   0.4954   0.9941   0.1598  -0.3559   0.3471   0.50    0.0
1651 465796.000   48.780890144    8.917929090   494.1226   4  10   0.7887   0.4953   0.9942   0.1600  -0.3558   0.3471   0.00    0.0
1651 465796.500   48.780890122    8.917929044   494.1308   4  10   0.7888   0.4953   0.9942   0.1601  -0.3558   0.3471   0.50    0.0
1651 465797.000   48.780891710    8.917928302   494.2033   4  10   0.7888   0.4953   0.9942   0.1602  -0.3557   0.3471   0.00    0.0
1651 465797.500   48.780891715    8.917928306   494.2038   4  10   0.7888   0.4952   0.9942   0.1603  -0.3557   0.3471   0.50    0.0
1651 465798.000   48.780890127    8.917930398   494.3588   4  10   0.7889   0.4952   0.9942   0.1604  -0.3556   0.3472   0.00    0.0
1651 465798.500   48.780890137    8.917930403   494.3636   4  10   0.7889   0.4952   0.9942   0.1605  -0.3555   0.3472   0.50    0.0
1651 465799.000   48.780890761    8.917927570   494.3510   4  10   0.7890   0.4951   0.9942   0.1606  -0.3555   0.3472   0.00    0.0
1651 465799.500   48.780890762    8.917927539   494.3508   4  10   0.7890   0.4951   0.9942   0.1608  -0.3554   0.3472   0.50    0.0
1651 465800.000   48.780888808    8.917928238   494.0007   4  10   0.7890   0.4950   0.9942   0.1609  -0.3553   0.3472   0.00    0.0
1651 465800.500   48.780888780    8.917928167   494.0078   4  10   0.7891   0.4950   0.9943   0.1610  -0.3553   0.3472   0.50    0.0
1651 465801.000   48.780891791    8.917926289   494.4373   4  10   0.7891   0.4950   0.9943   0.1611  -0.3552   0.3473   0.00    0.0
1651 465801.500   48.780891783    8.917926339   494.4295   4  10   0.7891   0.4949   0.9943   0.1612  -0.3552   0.3473   0.50    0.0
1651 465802.000   48.780887735    8.917929552   494.2715   4  10   0.7892   0.4949   0.9943   0.1613  -0.3551   0.3473   0.00    0.0
1651 465802.500   48.780887800    8.917929565   494.2624   4  10   0.7892   0.4949   0.9943   0.1614  -0.3550   0.3473   0.50    0.0
1651 465803.000   48.780890653    8.917925126   494.5777   4  10   0.7893   0.4948   0.9943   0.1616  -0.3550   0.3473   0.00    0.0
1651 465803.500   48.780890589    8.917925174   494.5834   4  10   0.7893   0.4948   0.9943   0.1617  -0.3549   0.3474   0.50    0.0
1651 465804.000   48.780888931    8.917928037   494.3758   4  10   0.7893   0.4948   0.9943   0.1618  -0.3549   0.3474   0.00    0.0
1651 465804.500   48.780888941    8.917928047   494.3713   4  10   0.7894   0.4947   0.9943   0.1619  -0.3548   0.3474   0.50    0.0
1651 465805.000   48.780887709    8.917928537   494.2834   4  10   0.7894   0.4947   0.9944   0.1620  -0.3547   0.3474   0.00    0.0
1651 465805.500   48.780887684    8.917928573   494.2909   4  10   0.7894   0.4947   0.9944   0.1621  -0.3547   0.3474   0.50    0.0
1651 465806.000   48.780891489    8.917927267   494.1828   4  10   0.7895   0.4946   0.9944   0.1622  -0.3546   0.3474   0.00    0.0
1651 465806.500   48.780891445    8.917927288   494.1825   4  10   0.7895   0.4946   0.9944   0.1624  -0.3545   0.3475   0.50    0.0
1651 465807.000   48.780892403    8.917925862   493.9573   4  10   0.7896   0.4946   0.9944   0.1625  -0.3545   0.3475   0.00    0.0
1651 465807.500   48.780892390    8.917925825   493.9659   4  10   0.7896   0.4945   0.9944   0.1626  -0.3544   0.3475   0.50    0.0
1651 465808.000   48.780888009    8.917927825   494.1662   4  10   0.7896   0.4945   0.9944   0.1627  -0.3544   0.3475   0.00    0.0
1651 465808.500   48.780888007    8.917927816   494.1673   4  10   0.7897   0.4945   0.9944   0.1628  -0.3543   0.3475   0.50    0.0
1651 465809.000   48.780890569    8.917927715   494.5957   4  10   0.7897   0.4944   0.9944   0.1629  -0.3542   0.3476   0.00    0.0
1651 465809.500   48.780890532    8.917927717   494.5915   4  10   0.7897   0.4944   0.9945   0.1630  -0.3542   0.3476   0.50    0.0
1651 465810.000   48.780891450    8.917929662   494.3737   4  10   0.7898   0.4944   0.9945   0.1632  -0.3541   0.3476   0.00    0.0
1651 465810.500   48.780891405    8.917929673   494.3746   4  10   0.7898   0.4943   0.9945   0.1633  -0.3541   0.3476   0.50    0.0
1651 465811.000   48.780888870    8.917929234   494.3897   4  10   0.7899   0.4943   0.9945   0.1634  -0.3540   0.3476   0.00    0.0
1651 465811.500   48.780888766    8.917929316   494.3834   4  10   0.7899   0.4943   0.9945   0.1635  -0.3539   0.3477   0.50    0.0
1651 465812.000   48.780891031    8.917929029   493.8763   4  10   0.7899   0.4942   0.9945   0.1636  -0.3539   0.3477   0.00    0.0
1651 465812.500   48.780891034    8.917929047   493.8688   4  10   0.7900   0.4942   0.9945   0.1637  -0.3538   0.3477   0.50    0.0
1651 465813.000   48.780892061    8.917930934   494.3889   4  10   0.7900   0.4942   0.9945   0.1638  -0.3537   0.3477   0.00    0.0
1651 465813.500   48.780892007    8.917930906   494.3920   4  10   0.7901   0.4941   0.9945   0.1639  -0.3537   0.3477   0.50    0.0
1651 465814.000   48.780891753    8.917930831   493.9912   4  10   0.7901   0.4941   0.9946   0.1641  -0.3536   0.3478   0.00    0.0
1651 465814.500   48.780891759    8.917930861   493.9989   4  10   0.7901   0.4941   0.9946   0.1642  -0.3536   0.3478   0.50    0.0
1651 465815.000   48.780890106    8.917929399   493.9505   4  10   0.7902   0.4940   0.9946   0.1643  -0.3535   0.3478   0.00    0.0
1651 465815.500   48.780890108    8.917929423   493.9416   4  10   0.7902   0.4940   0.9946   0.1644  -0.3534   0.3478   0.50    0.0
1651 465816.000   48.780885763    8.917931385   494.1621   4  10   0.7902   0.4940   0.9946   0.1645  -0.3534   0.3478   0.00    0.0
1651 465816.500   48.780885769    8.917931368   494.1603   4  10   0.7903   0.4939   0.9946   0.1646  -0.3533   0.3478   0.50    0.0
1651 465817.000   48.780888686    8.917929101   493.8432   4  10   0.7903   0.4939   0.9946   0.1647  -0.3532   0.3479   0.00    0.0
1651 465817.500   48.780888703    8.917929147   493.8359   4  10   0.7904   0.4938   0.9946   0.1648  -0.3532   0.3479   0.50    0.0
1651 465818.000   48.780887873    8.917927314   494.2032   4  10   0.7904   0.4938   0.9946   0.1650  -0.3531   0.3479   0.00    0.0
1651 465818.500   48.780887854    8.917927418   494.2001   4  10   0.7904   0.4938   0.9947   0.1651  -0.3531   0.3479   0.50    0.0
1651 465819.000   48.780886313    8.917927239   494.3687   4  10   0.7905   0.4937   0.9947   0.1652  -0.3530   0.3479   0.00    0.0
1651 465819.500   48.780886267    8.917927299   494.3687   4  10   0.7905   0.4937   0.9947   0.1653  -0.3529   0.3480   0.50    0.0
1651 465820.000   48.780888768    8.917927562   494.7129   4  10   0.7905   0.4937   0.9947   0.1654  -0.3529   0.3480   0.00    0.0
1651 465820.500   48.780888751    8.917927486   494.7168   4  10   0.7906   0.4936   0.9947   0.1655  -0.3528   0.3480   0.50    0.0
1651 465821.000   48.780887775    8.917928388   493.8642   4  10   0.7906   0.4936   0.9947   0.1656  -0.3527   0.3480   0.00    0.0
1651 465821.500   48.780887865    8.917928304   493.8702   4  10   0.7907   0.4936   0.9947   0.1657  -0.3527   0.3480   0.50    0.0
1651 465822.000   48.780888275    8.917929134   494.1866   4  10   0.7907   0.4935   0.9947   0.1659  -0.3526   0.3481   0.00    0.0
1651 465822.500   48.780888233    8.917929164   494.1768   4  10   0.7907   0.4935   0.9948   0.1660  -0.3526   0.3481   0.50    0.0
1651 465823.000   48.780885967    8.917926881   493.9879   4  10   0.7908   0.4935   0.9948   0.1661  -0.3525   0.3481   0.00    0.0
1651 465823.500   48.780885934    8.917926768   493.9894   4  10   0.7908   0.4934   0.9948   0.1662  -0.3524   0.3481   0.50    0.0
1651 465824.000   48.780889894    8.917926969   494.0959   4  10   0.7909   0.4934   0.9948   0.1663  -0.3524   0.3481   0.00    0.0
1651 465824.500   48.780889936    8.917926898   494.0962   4  10   0.7909   0.4934   0.9948   0.1664  -0.3523   0.3482   0.50    0.0
1651 465825.000   48.780889237    8.917929545   494.3089   4  10   0.7909   0.4933   0.9948   0.1665  -0.3523   0.3482   0.00    0.0
1651 465825.500   48.780889255    8.917929518   494.3173   4  10   0.7910   0.4933   0.9948   0.1666  -0.3522   0.3482   0.50    0.0
1651 465826.000   48.780889038    8.917929534   494.3098   4  10   0.7910   0.4933   0.9948   0.1668  -0.3521   0.3482   0.00    0.0
1651 465826.500   48.780889018    8.917929449   494.3162   4  10   0.7910   0.4932   0.9948   0.1669  -0.3521   0.3482   0.50    0.0
1651 465827.000   48.780886606    8.917931906   494.2420   4  10   0.7911   0.4932   0.9949   0.1670  -0.3520   0.3483   0.00    0.0
1651 465827.500   48.780886615    8.917931941   494.2498   4  10   0.7911   0.4932   0.9949   0.1671  -0.3519   0.3483   0.50    0.0
1651 465828.000   48.780886545    8.917930234   494.0412   4  10   0.7912   0.4931   0.9949   0.1672  -0.3519   0.3483   0.00    0.0
1651 465828.500   48.780886536    8.917930286   494.0368   4  10   0.7912   0.4931   0.9949   0.1673  -0.3518   0.3483   0.50    0.0
1651 465829.000   48.780885774    8.917929451   494.2254   4  10   0.7912   0.4931   0.9949   0.1674  -0.3518   0.3483   0.00    0.0
1651 465829.500   48.780885803    8.917929490   494.2404   4  10   0.7913   0.4930   0.9949   0.1675  -0.3517   0.3484   0.50    0.0
1651 465830.000   48.780886440    8.917928645   494.1409   4  10   0.7913   0.4930   0.9949   0.1676  -0.3516   0.3484   0.00    0.0
1651 465830.500   48.780886453    8.917928612   494.1387   4  10   0.7914   0.4930   0.9949   0.1677  -0.3516   0.3484   0.50    0.0
1651 465831.000   48.780889453    8.917930596   494.2583   4  10   0.7914   0.4929   0.9950   0.1679  -0.3515   0.3484   0.00    0.0
1651 465831.500   48.780889370    8.917930594   494.2606   4  10   0.7914   0.4929   0.9950   0.1680  -0.3514   0.3484   0.50    0.0
1651 465832.000   48.780889325    8.917929932   494.2746   4  10   0.7915   0.4929   0.9950   0.1681  -0.3514   0.3485   0.00    0.0
1651 465832.500   48.780889272    8.917929939   494.2618   4  10   0.7915   0.4928   0.9950   0.1682  -0.3513   0.3485   0.50    0.0
1651 465833.000   48.780887490    8.917925571   494.6505   4  10   0.7916   0.4928   0.9950   0.1683  -0.3513   0.3485   0.00    0.0
1651 465833.500   48.780887417    8.917925597   494.6499   4  10   0.7916   0.4928   0.9950   0.1684  -0.3512   0.3485   0.50    0.0
1651 465834.000   48.780888117    8.917927250   494.1785   4  10   0.7916   0.4927   0.9950   0.1685  -0.3511   0.3485   0.00    0.0
1651 465834.500   48.780888072    8.917927200   494.1756   4  10   0.7917   0.4927   0.9950   0.1686  -0.3511   0.3485   0.50    0.0
1651 465835.000   48.780891127    8.917928688   494.3501   4  10   0.7917   0.4927   0.9951   0.1687  -0.3510   0.3486   0.00    0.0
1651 465835.500   48.780891140    8.917928623   494.3529   4  10   0.7917   0.4926   0.9951   0.1689  -0.3509   0.3486   0.50    0.0
1651 465836.000   48.780885909    8.917929156   494.3579   4  10   0.7918   0.4926   0.9951   0.1690  -0.3509   0.3486   0.00    0.0
1651 465836.500   48.780885899    8.917929169   494.3496   4  10   0.7918   0.4926   0.9951   0.1691  -0.3508   0.3486   0.50    0.0
1651 465837.000   48.780889617    8.917927714   493.9547   4  10   0.7919   0.4925   0.9951   0.1692  -0.3508   0.3486   0.00    0.0
1651 465837.500   48.780889631    8.917927723   493.9603   4  10   0.7919   0.4925   0.9951   0.1693  -0.3507   0.3487   0.50    0.0
1651 465838.000   48.780889404    8.917930865   494.1887   4  10   0.7919   0.4925   0.9951   0.1694  -0.3506   0.3487   0.00    0.0
1651 465838.500   48.780889368    8.917930866   494.1960   4  10   0.7920   0.4924   0.9951   0.1695  -0.3506   0.3487   0.50    0.0
1651 465839.000   48.780886466    8.917927642   493.7791   4  10   0.7920   0.4924   0.9951   0.1696  -0.3505   0.3487   0.00    0.0
1651 465839.500   48.780886455    8.917927648   493.7889   4  10   0.7921   0.4924   0.9952   0.1697  -0.3504   0.3487   0.50    0.0
1651 465840.000   48.780884808    8.917928347   494.0491   4  10   0.7921   0.4923   0.9952   0.1698  -0.3504   0.3488   0.00    0.0
1651 465840.500   48.780884774    8.917928353   494.0500   4  10   0.7921   0.4923   0.9952   0.1700  -0.3503   0.3488   0.50    0.0
1651 465841.000   48.780889415    8.917928838   494.4089   4  10   0.7922   0.4923   0.9952   0.1701  -0.3503   0.3488   0.00    0.0
1651 465841.500   48.780889336    8.917928855   494.4170   4  10   0.7922   0.4922   0.9952   0.1702  -0.3502   0.3488   0.50    0.0
1651 465842.000   48.780886075    8.917929220   494.0051   4  10   0.7923   0.4922   0.9952   0.1703  -0.3501   0.3489   0.00    0.0
1651 465842.500   48.780885994    8.917929184   493.9994   4  10   0.7923   0.4922   0.9952   0.1704  -0.3501   0.3489   0.50    0.0
1651 465843.000   48.780891511    8.917930245   493.9939   4  10   0.7923   0.4921   0.9953   0.1705  -0.3500   0.3489   0.00    0.0
1651 465843.500   48.780891440    8.917930285   493.9858   4  10   0.7924   0.4921   0.9953   0.1706  -0.3499   0.3489   0.50    0.0
1651 465844.000   48.780887483    8.917931757   494.2752   4  10   0.7924   0.4921   0.9953   0.1707  -0.3499   0.3489   0.00    0.0
1651 465844.500   48.780887486    8.917931659   494.2850   4  10   0.7924   0.4920   0.9953   0.1708  -0.3498   0.3490   0.50    0.0
1651 465845.000   48.780884349    8.917932231   494.0755   4  10   0.7925   0.4920   0.9953   0.1709  -0.3498   0.3490   0.00    0.0
1651 465845.500   48.780884387    8.917932240   494.0833   4  10   0.7925   0.4920   0.9953   0.1710  -0.3497   0.3490   0.50    0.0
1651 465846.000   48.780887822    8.917930581   493.7702   4  10   0.7926   0.4919   0.9953   0.1712  -0.3496   0.3490   0.00    0.0
1651 465846.500   48.780887797    8.917930600   493.7793   4  10   0.7926   0.4919   0.9953   0.1713  -0.3496   0.3490   0.50    0.0
1651 465847.000   48.780887746    8.917928352   493.6976   4  10   0.7926   0.4919   0.9954   0.1714  -0.3495   0.3491   0.00    0.0
1651 465847.500   48.780887766    8.917928358   493.6988   4  10   0.7927   0.4918   0.9954   0.1715  -0.3494   0.3491   0.50    0.0
1651 465848.000   48.780887642    8.917931399   494.1955   4  10   0.7927   0.4918   0.9954   0.1716  -0.3494   0.3491   0.00    0.0
1651 465848.500   48.780887680    8.917931422   494.2016   4  10   0.7928   0.4918   0.9954   0.1717  -0.3493   0.3491   0.50    0.0
1651 465849.000   48.780889403    8.917930288   494.1448   4  10   0.7928   0.4917   0.9954   0.1718  -0.3493   0.3491   0.00    0.0
1651 465849.500   48.780889356    8.917930237   494.1454   4  10   0.7928   0.4917   0.9954   0.1719  -0.3492   0.3492   0.50    0.0
1651 465850.000   48.780889190    8.917929143   494.3076   4  10   0.7929   0.4917   0.9954   0.1720  -0.3491   0.3492   0.00    0.0
1651 465850.500   48.780889182    8.917929148   494.3105   4  10   0.7929   0.4916   0.9954   0.1721  -0.3491   0.3492   0.50    0.0
1651 465851.000   48.780886067    8.917930157   493.9169   4  10   0.7930   0.4916   0.9955   0.1722  -0.3490   0.3492   0.00    0.0
1651 465851.500   48.780886018    8.917930214   493.9296   4  10   0.7930   0.4916   0.9955   0.1723  -0.3489   0.3492   0.50    0.0
1651 465852.000   48.780885170    8.917930212   494.1474   4  10   0.7930   0.4915   0.9955   0.1725  -0.3489   0.3493   0.00    0.0
1651 465852.500   48.780885129    8.917930219   494.1486   4  10   0.7931   0.4915   0.9955   0.1726  -0.3488   0.3493   0.50    0.0
1651 465853.000   48.780887730    8.917930832   494.2491   4  10   0.7931   0.4915   0.9955   0.1727  -0.3488   0.3493   0.00    0.0
1651 465853.500   48.780887705    8.917930895   494.2450   4  10   0.7932   0.4914   0.9955   0.1728  -0.3487   0.3493   0.50    0.0
1651 465854.000   48.780884082    8.917931863   494.0917   4  10   0.7932   0.4914   0.9955   0.1729  -0.3486   0.3493   0.00    0.0
1651 465854.500   48.780884108    8.917931880   494.0928   4  10   0.7932   0.4914   0.9955   0.1730  -0.3486   0.3494   0.50    0.0
1651 465855.000   48.780887258    8.917929426   493.9697   4  10   0.7933   0.4913   0.9956   0.1731  -0.3485   0.3494   0.00    0.0
1651 465855.500   48.780887221    8.917929415   493.9729   4  10   0.7933   0.4913   0.9956   0.1732  -0.3484   0.3494   0.50    0.0
1651 465856.000   48.780889759    8.917931560   494.4477   4  10   0.7933   0.4913   0.9956   0.1733  -0.3484   0.3494   0.00    0.0
1651 465856.500   48.780889711    8.917931571   494.4422   4  10   0.7934   0.4912   0.9956   0.1734  -0.3483   0.3494   0.50    0.0
1651 465857.000   48.780885507    8.917931645   494.0431   4  10   0.7934   0.4912   0.9956   0.1735  -0.3483   0.3495   0.00    0.0
1651 465857.500   48.780885479    8.917931698   494.0432   4  10   0.7935   0.4912   0.9956   0.1736  -0.3482   0.3495   0.50    0.0
1651 465858.000   48.780884525    8.917931492   494.1483   4  10   0.7935   0.4911   0.9956   0.1738  -0.3481   0.3495   0.00    0.0
1651 465858.500   48.780884467    8.917931482   494.1573   4  10   0.7935   0.4911   0.9957   0.1739  -0.3481   0.3495   0.50    0.0
1651 465859.000   48.780888683    8.917929834   494.0123   4  10   0.7936   0.4911   0.9957   0.1740  -0.3480   0.3496   0.00    0.0
1651 465859.500   48.780888689    8.917929781   494.0063   4  10   0.7936   0.4910   0.9957   0.1741  -0.3479   0.3496   0.50    0.0
1651 465860.000   48.780888880    8.917927788   494.3403   4  10   0.7937   0.4910   0.9957   0.1742  -0.3479   0.3496   0.00    0.0
1651 465860.500   48.780888924    8.917927896   494.3492   4  10   0.7937   0.4910   0.9957   0.1743  -0.3478   0.3496   0.50    0.0
1651 465861.000   48.780888772    8.917931414   494.3114   4  10   0.7937   0.4909   0.9957   0.1744  -0.3477   0.3496   0.00    0.0
1651 465861.500   48.780888847    8.917931464   494.3128   4  10   0.7938   0.4909   0.9957   0.1745  -0.3477   0.3497   0.50    0.0
1651 465862.000   48.780888616    8.917933353   494.5955   4  10   0.7938   0.4909   0.9957   0.1746  -0.3476   0.3497   0.00    0.0
1651 465862.500   48.780888610    8.917933381   494.5865   4  10   0.7939   0.4908   0.9958   0.1747  -0.3476   0.3497   0.50    0.0
1651 465863.000   48.780890124    8.917929306   494.3321   4  10   0.7939   0.4908   0.9958   0.1748  -0.3475   0.3497   0.00    0.0
1651 465863.500   48.780890129    8.917929310   494.3261   4  10   0.7939   0.4908   0.9958   0.1749  -0.3474   0.3497   0.50    0.0
1651 465864.000   48.780890465    8.917932179   494.1466   4  10   0.7940   0.4907   0.9958   0.1750  -0.3474   0.3498   0.00    0.0
1651 465864.500   48.780890428    8.917932170   494.1433   4  10   0.7940   0.4907   0.9958   0.1751  -0.3473   0.3498   0.50    0.0
1651 465865.000   48.780889133    8.917933377   494.2978   4  10   0.7941   0.4907   0.9958   0.1753  -0.3472   0.3498   0.00    0.0
1651 465865.500   48.780889096    8.917933333   494.2884   4  10   0.7941   0.4906   0.9958   0.1754  -0.3472   0.3498   0.50    0.0
1651 465866.000   48.780885280    8.917929650   494.2758   4  10   0.7941   0.4906   0.9959   0.1755  -0.3471   0.3498   0.00    0.0
1651 465866.500   48.780885354    8.917929648   494.2804   4  10   0.7942   0.4906   0.9959   0.1756  -0.3471   0.3499   0.50    0.0
1651 465867.000   48.780887486    8.917932233   494.4752   4  10   0.7942   0.4905   0.9959   0.1757  -0.3470   0.3499   0.00    0.0
1651 465867.500   48.780887423    8.917932244   494.4685   4  10   0.7943   0.4905   0.9959   0.1758  -0.3469   0.3499   0.50    0.0
1651 465868.000   48.780888441    8.917932798   494.1267   4  10   0.7943   0.4905   0.9959   0.1759  -0.3469   0.3499   0.00    0.0
1651 465868.500   48.780888350    8.917932832   494.1264   4  10   0.7943   0.4904   0.9959   0.1760  -0.3468   0.3500   0.50    0.0
1651 465869.000   48.780888188    8.917930825   494.2887   4  10   0.7944   0.4904   0.9959   0.1761  -0.3467   0.3500   0.00    0.0
1651 465869.500   48.780888139    8.917930880   494.2841   4  10   0.7944   0.4904   0.9960   0.1762  -0.3467   0.3500   0.50    0.0
1651 465870.000   48.780886462    8.917932073   493.9246   4  10   0.7945   0.4903   0.9960   0.1763  -0.3466   0.3500   0.00    0.0
1651 465870.500   48.780886449    8.917932076   493.9303   4  10   0.7945   0.4903   0.9960   0.1764  -0.3465   0.3500   0.50    0.0
1651 465871.000   48.780889691    8.917931748   493.7750   4  10   0.7945   0.4903   0.9960   0.1765  -0.3465   0.3501   0.00    0.0
1651 465871.500   48.780889698    8.917931823   493.7853   4  10   0.7946   0.4902   0.9960   0.1766  -0.3464   0.3501   0.50    0.0
1651 465872.000   48.780890411    8.917930102   494.2696   4  10   0.7946   0.4902   0.9960   0.1767  -0.3464   0.3501   0.00    0.0
1651 465872.500   48.780890395    8.917930092   494.2621   4  10   0.7947   0.4902   0.9960   0.1769  -0.3463   0.3501   0.50    0.0
1651 465873.000   48.780890463    8.917930360   494.7451   4  10   0.7947   0.4901   0.9960   0.1770  -0.3462   0.3501   0.00    0.0
1651 465873.500   48.780890359    8.917930431   494.7409   4  10   0.7947   0.4901   0.9961   0.1771  -0.3462   0.3502   0.50    0.0
1651 465874.000   48.780891867    8.917933868   494.1862   4  10   0.7948   0.4901   0.9961   0.1772  -0.3461   0.3502   0.00    0.0
1651 465874.500   48.780891845    8.917933839   494.1780   4  10   0.7948   0.4900   0.9961   0.1773  -0.3460   0.3502   0.50    0.0
1651 465875.000   48.780887746    8.917931713   494.2745   4  10   0.7949   0.4900   0.9961   0.1774  -0.3460   0.3502   0.00    0.0
1651 465875.500   48.780887706    8.917931675   494.2818   4  10   0.7949   0.4900   0.9961   0.1775  -0.3459   0.3503   0.50    0.0
1651 465876.000   48.780888024    8.917934694   494.2563   4  10   0.7949   0.4899   0.9961   0.1776  -0.3459   0.3503   0.00    0.0
1651 465876.500   48.780888017    8.917934721   494.2617   4  10   0.7950   0.4899   0.9961   0.1777  -0.3458   0.3503   0.50    0.0
1651 465877.000   48.780887090    8.917934072   494.7133   4  10   0.7950   0.4899   0.9962   0.1778  -0.3457   0.3503   0.00    0.0
1651 465877.500   48.780887083    8.917934061   494.7111   4  10   0.7951   0.4898   0.9962   0.1779  -0.3457   0.3503   0.50    0.0
1651 465878.000   48.780890519    8.917932661   494.0310   4  10   0.7951   0.4898   0.9962   0.1780  -0.3456   0.3504   0.00    0.0
1651 465878.500   48.780890556    8.917932681   494.0273   4  10   0.7951   0.4898   0.9962   0.1781  -0.3455   0.3504   0.50    0.0
1651 465879.000   48.780890504    8.917932992   494.3640   4  10   0.7952   0.4897   0.9962   0.1782  -0.3455   0.3504   0.00    0.0
1651 465879.500   48.780890525    8.917932993   494.3607   4  10   0.7952   0.4897   0.9962   0.1783  -0.3454   0.3504   0.50    0.0
1651 465880.000   48.780889064    8.917930098   494.3745   4  10   0.7953   0.4897   0.9962   0.1784  -0.3453   0.3504   0.00    0.0
1651 465880.500   48.780889020    8.917930107   494.3696   4  10   0.7953   0.4896   0.9963   0.1785  -0.3453   0.3505   0.50    0.0
1651 465881.000   48.780887742    8.917929639   494.6376   4  10   0.7953   0.4896   0.9963   0.1786  -0.3452   0.3505   0.00    0.0
1651 465881.500   48.780887772    8.917929673   494.6335   4  10   0.7954   0.4896   0.9963   0.1788  -0.3452   0.3505   0.50    0.0
1651 465882.000   48.780890131    8.917930750   494.3682   4  10   0.7954   0.4895   0.9963   0.1789  -0.3451   0.3505   0.00    0.0
