% program   : RTKPOST ver.2.4.3 b33
% inp file  : E:\Study\master\semester 3\Satellite Navigation\lab5\data_sets\INSA245gA.OBS
% inp file  : E:\Study\master\semester 3\Satellite Navigation\lab5\data_sets\INSA245gA.NAV
% obs start : 2011/09/02 06:00:00.0 GPST (week1651 453600.0s)
% obs end   : 2011/09/02 10:59:59.0 GPST (week1651 471599.0s)
% pos mode  : single
% elev mask : 5.0 deg
% ionos opt : broadcast
% tropo opt : saastamoinen
% ephemeris : broadcast
%
% (lat/lon/height=WGS84/ellipsoidal,Q=1:fix,2:float,3:sbas,4:dgps,5:single,6:ppp,ns=# of satellites)
%  GPST          latitude(deg) longitude(deg)  height(m)   Q  ns   sdn(m)   sde(m)   sdu(m)  sdne(m)  sdeu(m)  sdun(m) age(s)  ratio
1651 453600.000   48.780706812    9.171596229   328.3690   5   8   2.3708   1.9192   3.7513   0.9552  -1.3380  -1.4143   0.00    0.0
1651 453601.000   48.780710638    9.171595449   328.0204   5   8   2.3709   1.9191   3.7515   0.9552  -1.3379  -1.4145   0.00    0.0
1651 453602.000   48.780710964    9.171594414   327.9658   5   8   2.3710   1.9190   3.7516   0.9553  -1.3377  -1.4148   0.00    0.0
1651 453603.000   48.780707598    9.171594617   328.2547   5   8   2.3710   1.9189   3.7518   0.9553  -1.3376  -1.4150   0.00    0.0
1651 453604.000   48.780707795    9.171595625   328.4782   5   8   2.3711   1.9188   3.7519   0.9553  -1.3375  -1.4152   0.00    0.0
1651 453605.000   48.780708971    9.171597463   328.5639   5   8   2.3712   1.9187   3.7520   0.9554  -1.3373  -1.4154   0.00    0.0
1651 453606.000   48.780706514    9.171592902   328.2516   5   8   2.3713   1.9186   3.7522   0.9554  -1.3372  -1.4157   0.00    0.0
1651 453607.000   48.780706002    9.171594101   328.3718   5   8   2.3713   1.9185   3.7523   0.9554  -1.3370  -1.4159   0.00    0.0
1651 453608.000   48.780704893    9.171592168   328.9950   5   8   2.3714   1.9184   3.7525   0.9555  -1.3369  -1.4161   0.00    0.0
1651 453609.000   48.780705602    9.171591021   328.2194   5   8   2.3715   1.9183   3.7526   0.9555  -1.3368  -1.4163   0.00    0.0
1651 453610.000   48.780707468    9.171592188   328.0757   5   8   2.3715   1.9182   3.7528   0.9555  -1.3366  -1.4166   0.00    0.0
1651 453611.000   48.780706451    9.171595483   328.0484   5   8   2.3716   1.9181   3.7529   0.9556  -1.3365  -1.4168   0.00    0.0
1651 453612.000   48.780707908    9.171595677   327.9147   5   8   2.3717   1.9180   3.7530   0.9556  -1.3363  -1.4170   0.00    0.0
1651 453613.000   48.780708086    9.171593546   327.5532   5   8   2.3718   1.9179   3.7532   0.9556  -1.3362  -1.4172   0.00    0.0
1651 453614.000   48.780708620    9.171595084   327.9542   5   8   2.3718   1.9178   3.7533   0.9557  -1.3361  -1.4175   0.00    0.0
1651 453615.000   48.780707363    9.171594804   327.8852   5   8   2.3719   1.9177   3.7535   0.9557  -1.3359  -1.4177   0.00    0.0
1651 453616.000   48.780703412    9.171596875   328.8861   5   8   2.3720   1.9176   3.7536   0.9557  -1.3358  -1.4179   0.00    0.0
1651 453617.000   48.780704318    9.171596830   328.1969   5   8   2.3721   1.9175   3.7538   0.9558  -1.3356  -1.4181   0.00    0.0
1651 453618.000   48.780706361    9.171595843   327.5547   5   8   2.3721   1.9174   3.7539   0.9558  -1.3355  -1.4184   0.00    0.0
1651 453619.000   48.780704595    9.171597970   327.7122   5   8   2.3722   1.9173   3.7541   0.9558  -1.3353  -1.4186   0.00    0.0
1651 453620.000   48.780709904    9.171594044   327.3944   5   8   2.3723   1.9172   3.7542   0.9559  -1.3352  -1.4188   0.00    0.0
1651 453621.000   48.780704185    9.171595428   327.8414   5   8   2.3724   1.9171   3.7543   0.9559  -1.3351  -1.4190   0.00    0.0
1651 453622.000   48.780703803    9.171595593   328.6208   5   8   2.3724   1.9170   3.7545   0.9559  -1.3349  -1.4193   0.00    0.0
1651 453623.000   48.780705193    9.171593876   328.0237   5   8   2.3725   1.9169   3.7546   0.9560  -1.3348  -1.4195   0.00    0.0
1651 453624.000   48.780704052    9.171595452   327.7221   5   8   2.3726   1.9168   3.7548   0.9560  -1.3346  -1.4197   0.00    0.0
1651 453625.000   48.780707153    9.171596214   328.0077   5   8   2.3727   1.9167   3.7549   0.9560  -1.3345  -1.4199   0.00    0.0
1651 453626.000   48.780706723    9.171595067   328.2631   5   8   2.3727   1.9166   3.7551   0.9561  -1.3344  -1.4202   0.00    0.0
1651 453627.000   48.780707209    9.171594527   327.7311   5   8   2.3728   1.9165   3.7552   0.9561  -1.3342  -1.4204   0.00    0.0
1651 453628.000   48.780707247    9.171595168   327.9304   5   8   2.3729   1.9164   3.7554   0.9561  -1.3341  -1.4206   0.00    0.0
1651 453629.000   48.780706504    9.171594406   328.3589   5   8   2.3730   1.9163   3.7555   0.9562  -1.3339  -1.4208   0.00    0.0
1651 453630.000   48.780708130    9.171597158   328.4380   5   8   2.3730   1.9162   3.7556   0.9562  -1.3338  -1.4211   0.00    0.0
1651 453631.000   48.780708340    9.171593949   328.1939   5   8   2.3731   1.9161   3.7558   0.9562  -1.3336  -1.4213   0.00    0.0
1651 453632.000   48.780706236    9.171596062   328.0240   5   8   2.3732   1.9160   3.7559   0.9563  -1.3335  -1.4215   0.00    0.0
1651 453633.000   48.780704297    9.171594975   328.5049   5   8   2.3733   1.9159   3.7561   0.9563  -1.3334  -1.4217   0.00    0.0
1651 453634.000   48.780704248    9.171592342   328.0500   5   8   2.3733   1.9158   3.7562   0.9563  -1.3332  -1.4220   0.00    0.0
1651 453635.000   48.780707451    9.171593584   328.6658   5   8   2.3734   1.9157   3.7564   0.9564  -1.3331  -1.4222   0.00    0.0
1651 453636.000   48.780705213    9.171592978   328.3655   5   8   2.3735   1.9156   3.7565   0.9564  -1.3329  -1.4224   0.00    0.0
1651 453637.000   48.780707049    9.171593796   328.1483   5   8   2.3736   1.9155   3.7567   0.9564  -1.3328  -1.4226   0.00    0.0
1651 453638.000   48.780707305    9.171594486   328.3245   5   8   2.3736   1.9154   3.7568   0.9565  -1.3327  -1.4229   0.00    0.0
1651 453639.000   48.780707531    9.171590934   328.2846   5   8   2.3737   1.9153   3.7569   0.9565  -1.3325  -1.4231   0.00    0.0
1651 453640.000   48.780702841    9.171590620   328.3089   5   8   2.3738   1.9152   3.7571   0.9565  -1.3324  -1.4233   0.00    0.0
1651 453641.000   48.780705760    9.171590753   327.9388   5   8   2.3739   1.9151   3.7572   0.9566  -1.3322  -1.4235   0.00    0.0
1651 453642.000   48.780706790    9.171594032   328.6035   5   8   2.3739   1.9150   3.7574   0.9566  -1.3321  -1.4237   0.00    0.0
1651 453643.000   48.780706359    9.171597370   328.2233   5   8   2.3740   1.9149   3.7575   0.9566  -1.3319  -1.4240   0.00    0.0
1651 453644.000   48.780704753    9.171590929   327.9176   5   8   2.3741   1.9148   3.7577   0.9567  -1.3318  -1.4242   0.00    0.0
1651 453645.000   48.780704160    9.171594406   328.4900   5   8   2.3742   1.9147   3.7578   0.9567  -1.3317  -1.4244   0.00    0.0
1651 453646.000   48.780706894    9.171594460   328.6349   5   8   2.3742   1.9146   3.7580   0.9568  -1.3315  -1.4246   0.00    0.0
1651 453647.000   48.780704966    9.171595042   328.1136   5   8   2.3743   1.9145   3.7581   0.9568  -1.3314  -1.4249   0.00    0.0
1651 453648.000   48.780711169    9.171592376   328.3910   5   8   2.3744   1.9144   3.7582   0.9568  -1.3312  -1.4251   0.00    0.0
1651 453649.000   48.780705622    9.171592994   328.3206   5   8   2.3745   1.9143   3.7584   0.9569  -1.3311  -1.4253   0.00    0.0
1651 453650.000   48.780705896    9.171593099   328.3843   5   8   2.3745   1.9142   3.7585   0.9569  -1.3309  -1.4255   0.00    0.0
1651 453651.000   48.780709273    9.171593840   327.7242   5   8   2.3746   1.9141   3.7587   0.9569  -1.3308  -1.4257   0.00    0.0
1651 453652.000   48.780707235    9.171594670   327.7616   5   8   2.3747   1.9140   3.7588   0.9570  -1.3307  -1.4260   0.00    0.0
1651 453653.000   48.780708436    9.171594136   328.2703   5   8   2.3748   1.9139   3.7590   0.9570  -1.3305  -1.4262   0.00    0.0
1651 453654.000   48.780710890    9.171593228   327.8413   5   8   2.3748   1.9138   3.7591   0.9570  -1.3304  -1.4264   0.00    0.0
1651 453655.000   48.780704384    9.171595292   328.3839   5   8   2.3749   1.9137   3.7593   0.9571  -1.3302  -1.4266   0.00    0.0
1651 453656.000   48.780704447    9.171593567   328.3069   5   8   2.3750   1.9136   3.7594   0.9571  -1.3301  -1.4269   0.00    0.0
1651 453657.000   48.780708305    9.171595874   328.0053   5   8   2.3751   1.9135   3.7596   0.9571  -1.3300  -1.4271   0.00    0.0
1651 453658.000   48.780709278    9.171597218   327.4823   5   8   2.3752   1.9134   3.7597   0.9572  -1.3298  -1.4273   0.00    0.0
1651 453659.000   48.780708893    9.171596464   327.8514   5   8   2.3752   1.9133   3.7598   0.9572  -1.3297  -1.4275   0.00    0.0
1651 453660.000   48.780705411    9.171593582   328.2257   5   8   2.3753   1.9132   3.7600   0.9572  -1.3295  -1.4277   0.00    0.0
1651 453661.000   48.780708023    9.171594769   327.8159   5   8   2.3754   1.9131   3.7601   0.9573  -1.3294  -1.4280   0.00    0.0
1651 453662.000   48.780703357    9.171591774   328.2444   5   8   2.3755   1.9130   3.7603   0.9573  -1.3292  -1.4282   0.00    0.0
1651 453663.000   48.780703600    9.171593011   328.0241   5   8   2.3755   1.9129   3.7604   0.9573  -1.3291  -1.4284   0.00    0.0
1651 453664.000   48.780706781    9.171596429   327.8366   5   8   2.3756   1.9128   3.7606   0.9574  -1.3290  -1.4286   0.00    0.0
1651 453665.000   48.780703577    9.171596924   328.1564   5   8   2.3757   1.9127   3.7607   0.9574  -1.3288  -1.4288   0.00    0.0
1651 453666.000   48.780706034    9.171598493   328.0033   5   8   2.3758   1.9126   3.7609   0.9574  -1.3287  -1.4291   0.00    0.0
1651 453667.000   48.780707899    9.171594534   328.4079   5   8   2.3758   1.9125   3.7610   0.9575  -1.3285  -1.4293   0.00    0.0
1651 453668.000   48.780702882    9.171595428   328.5689   5   8   2.3759   1.9124   3.7611   0.9575  -1.3284  -1.4295   0.00    0.0
1651 453669.000   48.780706017    9.171595373   328.4340   5   8   2.3760   1.9123   3.7613   0.9575  -1.3282  -1.4297   0.00    0.0
1651 453670.000   48.780707082    9.171590668   328.1924   5   8   2.3761   1.9122   3.7614   0.9576  -1.3281  -1.4299   0.00    0.0
1651 453671.000   48.780703026    9.171592234   328.0216   5   8   2.3762   1.9121   3.7616   0.9576  -1.3280  -1.4302   0.00    0.0
1651 453672.000   48.780702868    9.171591800   327.9395   5   8   2.3762   1.9120   3.7617   0.9577  -1.3278  -1.4304   0.00    0.0
1651 453673.000   48.780703081    9.171592593   328.0903   5   8   2.3763   1.9119   3.7619   0.9577  -1.3277  -1.4306   0.00    0.0
1651 453674.000   48.780706458    9.171591498   328.6905   5   8   2.3764   1.9118   3.7620   0.9577  -1.3275  -1.4308   0.00    0.0
1651 453675.000   48.780703272    9.171594710   328.4271   5   8   2.3765   1.9117   3.7622   0.9578  -1.3274  -1.4310   0.00    0.0
1651 453676.000   48.780707255    9.171596310   328.1962   5   8   2.3765   1.9116   3.7623   0.9578  -1.3272  -1.4313   0.00    0.0
1651 453677.000   48.780711173    9.171591997   328.1275   5   8   2.3766   1.9115   3.7625   0.9578  -1.3271  -1.4315   0.00    0.0
1651 453678.000   48.780708991    9.171590838   327.5251   5   8   2.3767   1.9115   3.7626   0.9579  -1.3270  -1.4317   0.00    0.0
1651 453679.000   48.780708849    9.171593116   328.0449   5   8   2.3768   1.9114   3.7627   0.9579  -1.3268  -1.4319   0.00    0.0
1651 453680.000   48.780705724    9.171592421   328.0863   5   8   2.3768   1.9113   3.7629   0.9579  -1.3267  -1.4321   0.00    0.0
1651 453681.000   48.780705579    9.171592206   328.1453   5   8   2.3769   1.9112   3.7630   0.9580  -1.3265  -1.4324   0.00    0.0
1651 453682.000   48.780709277    9.171594460   327.8211   5   8   2.3770   1.9111   3.7632   0.9580  -1.3264  -1.4326   0.00    0.0
1651 453683.000   48.780703540    9.171593869   328.4036   5   8   2.3771   1.9110   3.7633   0.9580  -1.3262  -1.4328   0.00    0.0
1651 453684.000   48.780706105    9.171594300   328.5319   5   8   2.3772   1.9109   3.7635   0.9581  -1.3261  -1.4330   0.00    0.0
1651 453685.000   48.780705505    9.171595549   328.2463   5   8   2.3772   1.9108   3.7636   0.9581  -1.3260  -1.4332   0.00    0.0
1651 453686.000   48.780710606    9.171596820   328.3378   5   8   2.3773   1.9107   3.7638   0.9581  -1.3258  -1.4335   0.00    0.0
1651 453687.000   48.780706998    9.171592281   328.4234   5   8   2.3774   1.9106   3.7639   0.9582  -1.3257  -1.4337   0.00    0.0
1651 453688.000   48.780707080    9.171594122   327.7913   5   8   2.3775   1.9105   3.7641   0.9582  -1.3255  -1.4339   0.00    0.0
1651 453689.000   48.780706057    9.171590540   328.0645   5   8   2.3775   1.9104   3.7642   0.9582  -1.3254  -1.4341   0.00    0.0
1651 453690.000   48.780704494    9.171592835   327.9217   5   8   2.3776   1.9103   3.7643   0.9583  -1.3253  -1.4343   0.00    0.0
1651 453691.000   48.780706845    9.171593176   327.8470   5   8   2.3777   1.9102   3.7645   0.9583  -1.3251  -1.4345   0.00    0.0
1651 453692.000   48.780707672    9.171594666   328.1630   5   8   2.3778   1.9101   3.7646   0.9583  -1.3250  -1.4348   0.00    0.0
1651 453693.000   48.780707392    9.171597180   328.1063   5   8   2.3779   1.9100   3.7648   0.9584  -1.3248  -1.4350   0.00    0.0
1651 453694.000   48.780705921    9.171595024   328.3129   5   8   2.3779   1.9099   3.7649   0.9584  -1.3247  -1.4352   0.00    0.0
1651 453695.000   48.780708129    9.171593281   327.9207   5   8   2.3780   1.9098   3.7651   0.9585  -1.3245  -1.4354   0.00    0.0
1651 453696.000   48.780703976    9.171595286   328.2733   5   8   2.3781   1.9097   3.7652   0.9585  -1.3244  -1.4356   0.00    0.0
1651 453697.000   48.780707577    9.171598023   328.3487   5   8   2.3782   1.9096   3.7654   0.9585  -1.3243  -1.4358   0.00    0.0
1651 453698.000   48.780706212    9.171600423   328.1372   5   8   2.3782   1.9095   3.7655   0.9586  -1.3241  -1.4361   0.00    0.0
1651 453699.000   48.780708219    9.171597146   328.2559   5   8   2.3783   1.9094   3.7657   0.9586  -1.3240  -1.4363   0.00    0.0
1651 453700.000   48.780705320    9.171594987   328.2991   5   8   2.3784   1.9093   3.7658   0.9586  -1.3238  -1.4365   0.00    0.0
1651 453701.000   48.780708492    9.171593970   328.2052   5   8   2.3785   1.9092   3.7659   0.9587  -1.3237  -1.4367   0.00    0.0
1651 453702.000   48.780707553    9.171592288   328.2175   5   8   2.3786   1.9091   3.7661   0.9587  -1.3235  -1.4369   0.00    0.0
1651 453703.000   48.780707248    9.171594715   328.3418   5   8   2.3786   1.9090   3.7662   0.9587  -1.3234  -1.4372   0.00    0.0
1651 453704.000   48.780706969    9.171592289   328.4819   5   8   2.3787   1.9089   3.7664   0.9588  -1.3232  -1.4374   0.00    0.0
1651 453705.000   48.780706075    9.171598936   328.0444   5   8   2.3788   1.9088   3.7665   0.9588  -1.3231  -1.4376   0.00    0.0
1651 453706.000   48.780708717    9.171595132   328.0392   5   8   2.3789   1.9088   3.7667   0.9588  -1.3230  -1.4378   0.00    0.0
1651 453707.000   48.780704404    9.171598755   328.1717   5   8   2.3790   1.9087   3.7668   0.9589  -1.3228  -1.4380   0.00    0.0
1651 453708.000   48.780706735    9.171594716   328.2424   5   8   2.3790   1.9086   3.7670   0.9589  -1.3227  -1.4382   0.00    0.0
1651 453709.000   48.780707143    9.171597831   328.0772   5   8   2.3791   1.9085   3.7671   0.9589  -1.3225  -1.4385   0.00    0.0
1651 453710.000   48.780710459    9.171594837   328.2932   5   8   2.3792   1.9084   3.7673   0.9590  -1.3224  -1.4387   0.00    0.0
1651 453711.000   48.780710322    9.171596863   327.9753   5   8   2.3793   1.9083   3.7674   0.9590  -1.3222  -1.4389   0.00    0.0
1651 453712.000   48.780709345    9.171595457   328.2623   5   8   2.3793   1.9082   3.7675   0.9591  -1.3221  -1.4391   0.00    0.0
1651 453713.000   48.780707943    9.171596329   328.7479   5   8   2.3794   1.9081   3.7677   0.9591  -1.3220  -1.4393   0.00    0.0
1651 453714.000   48.780706569    9.171597431   327.8185   5   8   2.3795   1.9080   3.7678   0.9591  -1.3218  -1.4395   0.00    0.0
1651 453715.000   48.780708127    9.171595940   328.3832   5   8   2.3796   1.9079   3.7680   0.9592  -1.3217  -1.4398   0.00    0.0
1651 453716.000   48.780704446    9.171592546   328.6497   5   8   2.3797   1.9078   3.7681   0.9592  -1.3215  -1.4400   0.00    0.0
1651 453717.000   48.780703251    9.171588828   328.4645   5   8   2.3797   1.9077   3.7683   0.9592  -1.3214  -1.4402   0.00    0.0
1651 453718.000   48.780705024    9.171590432   328.2299   5   8   2.3798   1.9076   3.7684   0.9593  -1.3212  -1.4404   0.00    0.0
1651 453719.000   48.780704811    9.171594557   328.7281   5   8   2.3799   1.9075   3.7686   0.9593  -1.3211  -1.4406   0.00    0.0
1651 453720.000   48.780705507    9.171589973   328.2946   5   8   2.3800   1.9074   3.7687   0.9593  -1.3210  -1.4408   0.00    0.0
1651 453721.000   48.780707258    9.171593304   328.6181   5   8   2.3801   1.9073   3.7689   0.9594  -1.3208  -1.4410   0.00    0.0
1651 453722.000   48.780703937    9.171591698   328.5148   5   8   2.3801   1.9072   3.7690   0.9594  -1.3207  -1.4413   0.00    0.0
1651 453723.000   48.780706679    9.171594453   327.9403   5   8   2.3802   1.9071   3.7691   0.9594  -1.3205  -1.4415   0.00    0.0
1651 453724.000   48.780707225    9.171595668   327.8342   5   8   2.3803   1.9070   3.7693   0.9595  -1.3204  -1.4417   0.00    0.0
1651 453725.000   48.780703265    9.171593697   327.6261   5   8   2.3804   1.9069   3.7694   0.9595  -1.3202  -1.4419   0.00    0.0
1651 453726.000   48.780704354    9.171592097   328.0903   5   8   2.3805   1.9068   3.7696   0.9596  -1.3201  -1.4421   0.00    0.0
1651 453727.000   48.780709114    9.171595162   328.0853   5   8   2.3805   1.9067   3.7697   0.9596  -1.3200  -1.4423   0.00    0.0
1651 453728.000   48.780706959    9.171596072   328.5027   5   8   2.3806   1.9067   3.7699   0.9596  -1.3198  -1.4425   0.00    0.0
1651 453729.000   48.780709562    9.171592806   327.8536   5   8   2.3807   1.9066   3.7700   0.9597  -1.3197  -1.4428   0.00    0.0
1651 453730.000   48.780706281    9.171591504   328.1643   5   8   2.3808   1.9065   3.7702   0.9597  -1.3195  -1.4430   0.00    0.0
1651 453731.000   48.780701211    9.171591322   328.2913   5   8   2.3808   1.9064   3.7703   0.9597  -1.3194  -1.4432   0.00    0.0
1651 453732.000   48.780707089    9.171594186   327.7284   5   8   2.3809   1.9063   3.7705   0.9598  -1.3192  -1.4434   0.00    0.0
1651 453733.000   48.780705423    9.171594818   327.4205   5   8   2.3810   1.9062   3.7706   0.9598  -1.3191  -1.4436   0.00    0.0
1651 453734.000   48.780706205    9.171592572   328.1570   5   8   2.3811   1.9061   3.7708   0.9598  -1.3189  -1.4438   0.00    0.0
1651 453735.000   48.780704719    9.171597771   327.7500   5   8   2.3812   1.9060   3.7709   0.9599  -1.3188  -1.4440   0.00    0.0
1651 453736.000   48.780704871    9.171595080   328.1023   5   8   2.3812   1.9059   3.7710   0.9599  -1.3187  -1.4443   0.00    0.0
1651 453737.000   48.780703409    9.171595803   328.0620   5   8   2.3813   1.9058   3.7712   0.9599  -1.3185  -1.4445   0.00    0.0
1651 453738.000   48.780705556    9.171596499   328.0533   5   8   2.3814   1.9057   3.7713   0.9600  -1.3184  -1.4447   0.00    0.0
1651 453739.000   48.780708319    9.171598768   327.9687   5   8   2.3815   1.9056   3.7715   0.9600  -1.3182  -1.4449   0.00    0.0
1651 453740.000   48.780705919    9.171590638   328.7957   5   8   2.3816   1.9055   3.7716   0.9601  -1.3181  -1.4451   0.00    0.0
1651 453741.000   48.780706879    9.171593267   328.7328   5   8   2.3816   1.9054   3.7718   0.9601  -1.3179  -1.4453   0.00    0.0
1651 453742.000   48.780705080    9.171596078   327.9730   5   8   2.3817   1.9053   3.7719   0.9601  -1.3178  -1.4455   0.00    0.0
1651 453743.000   48.780706028    9.171595470   328.2020   5   8   2.3818   1.9052   3.7721   0.9602  -1.3177  -1.4458   0.00    0.0
1651 453744.000   48.780707406    9.171592048   328.1996   5   8   2.3819   1.9051   3.7722   0.9602  -1.3175  -1.4460   0.00    0.0
1651 453745.000   48.780708434    9.171595858   328.3347   5   8   2.3820   1.9050   3.7724   0.9602  -1.3174  -1.4462   0.00    0.0
1651 453746.000   48.780707675    9.171595766   328.3384   5   8   2.3821   1.9050   3.7725   0.9603  -1.3172  -1.4464   0.00    0.0
1651 453747.000   48.780707940    9.171596517   327.7608   5   8   2.3821   1.9049   3.7726   0.9603  -1.3171  -1.4466   0.00    0.0
1651 453748.000   48.780705874    9.171596541   328.1369   5   8   2.3822   1.9048   3.7728   0.9603  -1.3169  -1.4468   0.00    0.0
1651 453749.000   48.780703926    9.171595455   328.3055   5   8   2.3823   1.9047   3.7729   0.9604  -1.3168  -1.4470   0.00    0.0
1651 453750.000   48.780708794    9.171597122   328.2137   5   8   2.3824   1.9046   3.7731   0.9604  -1.3166  -1.4472   0.00    0.0
1651 453751.000   48.780707093    9.171595759   328.2984   5   8   2.3825   1.9045   3.7732   0.9604  -1.3165  -1.4475   0.00    0.0
1651 453752.000   48.780709161    9.171596294   327.2858   5   8   2.3825   1.9044   3.7734   0.9605  -1.3164  -1.4477   0.00    0.0
1651 453753.000   48.780704922    9.171594880   327.8016   5   8   2.3826   1.9043   3.7735   0.9605  -1.3162  -1.4479   0.00    0.0
1651 453754.000   48.780707654    9.171592514   328.2432   5   8   2.3827   1.9042   3.7737   0.9606  -1.3161  -1.4481   0.00    0.0
1651 453755.000   48.780710396    9.171593739   327.9308   5   8   2.3828   1.9041   3.7738   0.9606  -1.3159  -1.4483   0.00    0.0
1651 453756.000   48.780709629    9.171593765   328.1925   5   8   2.3829   1.9040   3.7740   0.9606  -1.3158  -1.4485   0.00    0.0
1651 453757.000   48.780707403    9.171591921   328.0837   5   8   2.3829   1.9039   3.7741   0.9607  -1.3156  -1.4487   0.00    0.0
1651 453758.000   48.780705179    9.171589290   328.2531   5   8   2.3830   1.9038   3.7743   0.9607  -1.3155  -1.4489   0.00    0.0
1651 453759.000   48.780704079    9.171589642   328.6360   5   8   2.3831   1.9037   3.7744   0.9607  -1.3153  -1.4492   0.00    0.0
1651 453760.000   48.780704233    9.171590677   328.6184   5   8   2.3832   1.9036   3.7745   0.9608  -1.3152  -1.4494   0.00    0.0
1651 453761.000   48.780704053    9.171593464   328.4527   5   8   2.3833   1.9036   3.7747   0.9608  -1.3151  -1.4496   0.00    0.0
1651 453762.000   48.780706309    9.171590355   328.8753   5   8   2.3833   1.9035   3.7748   0.9608  -1.3149  -1.4498   0.00    0.0
1651 453763.000   48.780706369    9.171591963   328.2734   5   8   2.3834   1.9034   3.7750   0.9609  -1.3148  -1.4500   0.00    0.0
1651 453764.000   48.780706185    9.171591077   328.1760   5   8   2.3835   1.9033   3.7751   0.9609  -1.3146  -1.4502   0.00    0.0
1651 453765.000   48.780708020    9.171592888   328.1912   5   8   2.3836   1.9032   3.7753   0.9610  -1.3145  -1.4504   0.00    0.0
1651 453766.000   48.780709438    9.171593196   328.2430   5   8   2.3837   1.9031   3.7754   0.9610  -1.3143  -1.4506   0.00    0.0
1651 453767.000   48.780709349    9.171597173   328.3033   5   8   2.3837   1.9030   3.7756   0.9610  -1.3142  -1.4508   0.00    0.0
1651 453768.000   48.780704411    9.171597356   328.4804   5   8   2.3838   1.9029   3.7757   0.9611  -1.3141  -1.4511   0.00    0.0
1651 453769.000   48.780707821    9.171592166   328.3764   5   8   2.3839   1.9028   3.7759   0.9611  -1.3139  -1.4513   0.00    0.0
1651 453770.000   48.780704178    9.171592709   328.7092   5   8   2.3840   1.9027   3.7760   0.9611  -1.3138  -1.4515   0.00    0.0
1651 453771.000   48.780708587    9.171594635   328.6651   5   8   2.3841   1.9026   3.7762   0.9612  -1.3136  -1.4517   0.00    0.0
1651 453772.000   48.780705516    9.171594589   328.5629   5   8   2.3842   1.9025   3.7763   0.9612  -1.3135  -1.4519   0.00    0.0
1651 453773.000   48.780707229    9.171590959   328.4046   5   8   2.3842   1.9024   3.7764   0.9612  -1.3133  -1.4521   0.00    0.0
1651 453774.000   48.780707169    9.171594090   328.2881   5   8   2.3843   1.9023   3.7766   0.9613  -1.3132  -1.4523   0.00    0.0
1651 453775.000   48.780706257    9.171594323   328.0279   5   8   2.3844   1.9023   3.7767   0.9613  -1.3130  -1.4525   0.00    0.0
1651 453776.000   48.780704704    9.171594627   328.0384   5   8   2.3845   1.9022   3.7769   0.9614  -1.3129  -1.4527   0.00    0.0
1651 453777.000   48.780707913    9.171597035   328.2094   5   8   2.3846   1.9021   3.7770   0.9614  -1.3128  -1.4530   0.00    0.0
1651 453778.000   48.780705521    9.171595319   328.3115   5   8   2.3846   1.9020   3.7772   0.9614  -1.3126  -1.4532   0.00    0.0
1651 453779.000   48.780703708    9.171592461   328.6579   5   8   2.3847   1.9019   3.7773   0.9615  -1.3125  -1.4534   0.00    0.0
1651 453780.000   48.780706079    9.171594518   328.2087   5   8   2.3848   1.9018   3.7775   0.9615  -1.3123  -1.4536   0.00    0.0
1651 453781.000   48.780710905    9.171592928   327.6487   5   8   2.3849   1.9017   3.7776   0.9615  -1.3122  -1.4538   0.00    0.0
1651 453782.000   48.780708095    9.171595590   328.1836   5   8   2.3850   1.9016   3.7778   0.9616  -1.3120  -1.4540   0.00    0.0
1651 453783.000   48.780707773    9.171597157   327.6982   5   8   2.3851   1.9015   3.7779   0.9616  -1.3119  -1.4542   0.00    0.0
1651 453784.000   48.780709253    9.171597044   327.7965   5   8   2.3851   1.9014   3.7781   0.9616  -1.3117  -1.4544   0.00    0.0
1651 453785.000   48.780708378    9.171595715   327.8781   5   8   2.3852   1.9013   3.7782   0.9617  -1.3116  -1.4546   0.00    0.0
1651 453786.000   48.780707350    9.171594549   327.8647   5   8   2.3853   1.9012   3.7783   0.9617  -1.3114  -1.4548   0.00    0.0
1651 453787.000   48.780709927    9.171593825   327.6564   5   8   2.3854   1.9011   3.7785   0.9618  -1.3113  -1.4550   0.00    0.0
1651 453788.000   48.780704500    9.171592844   327.9921   5   8   2.3855   1.9011   3.7786   0.9618  -1.3112  -1.4553   0.00    0.0
1651 453789.000   48.780705819    9.171593561   328.3886   5   8   2.3855   1.9010   3.7788   0.9618  -1.3110  -1.4555   0.00    0.0
1651 453790.000   48.780709770    9.171594840   328.1076   5   8   2.3856   1.9009   3.7789   0.9619  -1.3109  -1.4557   0.00    0.0
1651 453791.000   48.780709371    9.171592039   328.4438   5   8   2.3857   1.9008   3.7791   0.9619  -1.3107  -1.4559   0.00    0.0
1651 453792.000   48.780705508    9.171592785   328.3340   5   8   2.3858   1.9007   3.7792   0.9619  -1.3106  -1.4561   0.00    0.0
1651 453793.000   48.780708089    9.171594471   327.9901   5   8   2.3859   1.9006   3.7794   0.9620  -1.3104  -1.4563   0.00    0.0
1651 453794.000   48.780706993    9.171593098   328.2631   5   8   2.3860   1.9005   3.7795   0.9620  -1.3103  -1.4565   0.00    0.0
1651 453795.000   48.780709209    9.171592578   327.9733   5   8   2.3860   1.9004   3.7797   0.9620  -1.3101  -1.4567   0.00    0.0
1651 453796.000   48.780707898    9.171592595   328.3177   5   8   2.3861   1.9003   3.7798   0.9621  -1.3100  -1.4569   0.00    0.0
1651 453797.000   48.780707799    9.171592250   328.0729   5   8   2.3862   1.9002   3.7800   0.9621  -1.3099  -1.4571   0.00    0.0
1651 453798.000   48.780709551    9.171591769   327.8663   5   8   2.3863   1.9001   3.7801   0.9622  -1.3097  -1.4573   0.00    0.0
1651 453799.000   48.780706891    9.171587881   327.8939   5   8   2.3864   1.9000   3.7803   0.9622  -1.3096  -1.4575   0.00    0.0
1651 453800.000   48.780708970    9.171592176   328.5292   5   8   2.3865   1.9000   3.7804   0.9622  -1.3094  -1.4578   0.00    0.0
1651 453801.000   48.780708739    9.171594143   328.4272   5   8   2.3865   1.8999   3.7805   0.9623  -1.3093  -1.4580   0.00    0.0
1651 453802.000   48.780708644    9.171596915   327.8095   5   8   2.3866   1.8998   3.7807   0.9623  -1.3091  -1.4582   0.00    0.0
1651 453803.000   48.780709877    9.171595839   327.9730   5   8   2.3867   1.8997   3.7808   0.9623  -1.3090  -1.4584   0.00    0.0
1651 453804.000   48.780711096    9.171593765   328.3502   5   8   2.3868   1.8996   3.7810   0.9624  -1.3088  -1.4586   0.00    0.0
1651 453805.000   48.780704585    9.171589554   328.6116   5   8   2.3869   1.8995   3.7811   0.9624  -1.3087  -1.4588   0.00    0.0
1651 453806.000   48.780704947    9.171597296   328.3114   5   8   2.3870   1.8994   3.7813   0.9625  -1.3085  -1.4590   0.00    0.0
1651 453807.000   48.780708820    9.171595095   328.0859   5   8   2.3870   1.8993   3.7814   0.9625  -1.3084  -1.4592   0.00    0.0
1651 453808.000   48.780710985    9.171593596   328.0093   5   8   2.3871   1.8992   3.7816   0.9625  -1.3083  -1.4594   0.00    0.0
1651 453809.000   48.780712506    9.171590097   327.4973   5   8   2.3872   1.8991   3.7817   0.9626  -1.3081  -1.4596   0.00    0.0
1651 453810.000   48.780710144    9.171592320   328.1292   5   8   2.3873   1.8990   3.7819   0.9626  -1.3080  -1.4598   0.00    0.0
1651 453811.000   48.780708142    9.171594270   328.2324   5   8   2.3874   1.8989   3.7820   0.9626  -1.3078  -1.4600   0.00    0.0
1651 453812.000   48.780711913    9.171595669   327.7993   5   8   2.3874   1.8989   3.7822   0.9627  -1.3077  -1.4602   0.00    0.0
1651 453813.000   48.780710754    9.171592050   328.5655   5   8   2.3875   1.8988   3.7823   0.9627  -1.3075  -1.4604   0.00    0.0
1651 453814.000   48.780708067    9.171592960   328.3370   5   8   2.3876   1.8987   3.7824   0.9627  -1.3074  -1.4607   0.00    0.0
1651 453815.000   48.780709293    9.171591104   328.5753   5   8   2.3877   1.8986   3.7826   0.9628  -1.3072  -1.4609   0.00    0.0
1651 453816.000   48.780705881    9.171592210   328.6683   5   8   2.3878   1.8985   3.7827   0.9628  -1.3071  -1.4611   0.00    0.0
1651 453817.000   48.780709438    9.171596782   328.3828   5   8   2.3879   1.8984   3.7829   0.9629  -1.3069  -1.4613   0.00    0.0
1651 453818.000   48.780708265    9.171591327   328.9894   5   8   2.3879   1.8983   3.7830   0.9629  -1.3068  -1.4615   0.00    0.0
1651 453819.000   48.780708579    9.171594860   328.3089   5   8   2.3880   1.8982   3.7832   0.9629  -1.3067  -1.4617   0.00    0.0
1651 453820.000   48.780709055    9.171593559   328.3436   5   8   2.3881   1.8981   3.7833   0.9630  -1.3065  -1.4619   0.00    0.0
1651 453821.000   48.780708851    9.171591428   328.5205   5   8   2.3882   1.8980   3.7835   0.9630  -1.3064  -1.4621   0.00    0.0
1651 453822.000   48.780709989    9.171594398   328.3235   5   8   2.3883   1.8980   3.7836   0.9630  -1.3062  -1.4623   0.00    0.0
1651 453823.000   48.780708041    9.171593840   328.5528   5   8   2.3884   1.8979   3.7838   0.9631  -1.3061  -1.4625   0.00    0.0
1651 453824.000   48.780706996    9.171591916   328.6053   5   8   2.3884   1.8978   3.7839   0.9631  -1.3059  -1.4627   0.00    0.0
1651 453825.000   48.780706307    9.171592098   328.4853   5   8   2.3885   1.8977   3.7841   0.9632  -1.3058  -1.4629   0.00    0.0
1651 453826.000   48.780708093    9.171590235   328.6231   5   8   2.3886   1.8976   3.7842   0.9632  -1.3056  -1.4631   0.00    0.0
1651 453827.000   48.780709981    9.171596709   327.9370   5   8   2.3887   1.8975   3.7843   0.9632  -1.3055  -1.4633   0.00    0.0
1651 453828.000   48.780707526    9.171592774   328.0953   5   8   2.3888   1.8974   3.7845   0.9633  -1.3053  -1.4635   0.00    0.0
1651 453829.000   48.780707107    9.171593962   327.9433   5   8   2.3889   1.8973   3.7846   0.9633  -1.3052  -1.4637   0.00    0.0
1651 453830.000   48.780708361    9.171592290   328.2097   5   8   2.3890   1.8972   3.7848   0.9633  -1.3050  -1.4639   0.00    0.0
1651 453831.000   48.780710516    9.171592357   328.1000   5   8   2.3890   1.8971   3.7849   0.9634  -1.3049  -1.4641   0.00    0.0
1651 453832.000   48.780708404    9.171592651   328.1663   5   8   2.3891   1.8971   3.7851   0.9634  -1.3048  -1.4644   0.00    0.0
1651 453833.000   48.780709955    9.171594230   327.9370   5   8   2.3892   1.8970   3.7852   0.9635  -1.3046  -1.4646   0.00    0.0
1651 453834.000   48.780704381    9.171591135   328.0563   5   8   2.3893   1.8969   3.7854   0.9635  -1.3045  -1.4648   0.00    0.0
1651 453835.000   48.780709992    9.171593047   327.7030   5   8   2.3894   1.8968   3.7855   0.9635  -1.3043  -1.4650   0.00    0.0
1651 453836.000   48.780709531    9.171591393   327.8397   5   8   2.3895   1.8967   3.7857   0.9636  -1.3042  -1.4652   0.00    0.0
1651 453837.000   48.780705212    9.171590478   328.4920   5   8   2.3895   1.8966   3.7858   0.9636  -1.3040  -1.4654   0.00    0.0
1651 453838.000   48.780709217    9.171592363   328.3608   5   8   2.3896   1.8965   3.7860   0.9636  -1.3039  -1.4656   0.00    0.0
1651 453839.000   48.780707846    9.171591012   327.9588   5   8   2.3897   1.8964   3.7861   0.9637  -1.3037  -1.4658   0.00    0.0
1651 453840.000   48.780707338    9.171591821   328.5711   5   8   2.3898   1.8963   3.7863   0.9637  -1.3036  -1.4660   0.00    0.0
1651 453841.000   48.780707361    9.171596568   328.5312   5   8   2.3899   1.8962   3.7864   0.9637  -1.3034  -1.4662   0.00    0.0
1651 453842.000   48.780704414    9.171592962   328.1848   5   8   2.3900   1.8962   3.7865   0.9638  -1.3033  -1.4664   0.00    0.0
1651 453843.000   48.780707214    9.171592845   327.9565   5   8   2.3900   1.8961   3.7867   0.9638  -1.3031  -1.4666   0.00    0.0
1651 453844.000   48.780708337    9.171595538   328.5139   5   8   2.3901   1.8960   3.7868   0.9639  -1.3030  -1.4668   0.00    0.0
1651 453845.000   48.780707736    9.171591764   328.2046   5   8   2.3902   1.8959   3.7870   0.9639  -1.3029  -1.4670   0.00    0.0
1651 453846.000   48.780710009    9.171593108   327.8530   5   8   2.3903   1.8958   3.7871   0.9639  -1.3027  -1.4672   0.00    0.0
1651 453847.000   48.780707020    9.171590206   328.2607   5   8   2.3904   1.8957   3.7873   0.9640  -1.3026  -1.4674   0.00    0.0
1651 453848.000   48.780708657    9.171592198   328.0373   5   8   2.3905   1.8956   3.7874   0.9640  -1.3024  -1.4676   0.00    0.0
1651 453849.000   48.780710419    9.171594873   328.0432   5   8   2.3906   1.8955   3.7876   0.9640  -1.3023  -1.4678   0.00    0.0
1651 453850.000   48.780705072    9.171591809   328.2207   5   8   2.3906   1.8954   3.7877   0.9641  -1.3021  -1.4680   0.00    0.0
1651 453851.000   48.780708172    9.171591110   327.7031   5   8   2.3907   1.8954   3.7879   0.9641  -1.3020  -1.4682   0.00    0.0
1651 453852.000   48.780707744    9.171592651   328.0896   5   8   2.3908   1.8953   3.7880   0.9642  -1.3018  -1.4684   0.00    0.0
1651 453853.000   48.780705736    9.171594719   327.9530   5   8   2.3909   1.8952   3.7882   0.9642  -1.3017  -1.4686   0.00    0.0
1651 453854.000   48.780706366    9.171596088   327.9503   5   8   2.3910   1.8951   3.7883   0.9642  -1.3015  -1.4688   0.00    0.0
1651 453855.000   48.780709050    9.171594609   328.4395   5   8   2.3911   1.8950   3.7885   0.9643  -1.3014  -1.4690   0.00    0.0
1651 453856.000   48.780708428    9.171592223   328.1839   5   8   2.3911   1.8949   3.7886   0.9643  -1.3012  -1.4692   0.00    0.0
1651 453857.000   48.780709541    9.171594707   328.2691   5   8   2.3912   1.8948   3.7887   0.9643  -1.3011  -1.4694   0.00    0.0
1651 453858.000   48.780708953    9.171589912   328.1435   5   8   2.3913   1.8947   3.7889   0.9644  -1.3009  -1.4696   0.00    0.0
1651 453859.000   48.780709244    9.171593268   328.4112   5   8   2.3914   1.8946   3.7890   0.9644  -1.3008  -1.4698   0.00    0.0
1651 453860.000   48.780707624    9.171592480   327.6823   5   8   2.3915   1.8946   3.7892   0.9645  -1.3007  -1.4700   0.00    0.0
1651 453861.000   48.780710951    9.171593853   327.2811   5   8   2.3916   1.8945   3.7893   0.9645  -1.3005  -1.4702   0.00    0.0
1651 453862.000   48.780705699    9.171591751   328.4384   5   8   2.3917   1.8944   3.7895   0.9645  -1.3004  -1.4704   0.00    0.0
1651 453863.000   48.780708012    9.171593482   328.2756   5   8   2.3917   1.8943   3.7896   0.9646  -1.3002  -1.4706   0.00    0.0
1651 453864.000   48.780706091    9.171590384   328.8543   5   8   2.3918   1.8942   3.7898   0.9646  -1.3001  -1.4708   0.00    0.0
1651 453865.000   48.780705531    9.171589332   328.4574   5   8   2.3919   1.8941   3.7899   0.9646  -1.2999  -1.4710   0.00    0.0
1651 453866.000   48.780705869    9.171591185   328.7146   5   8   2.3920   1.8940   3.7901   0.9647  -1.2998  -1.4712   0.00    0.0
1651 453867.000   48.780707910    9.171593949   328.3851   5   8   2.3921   1.8939   3.7902   0.9647  -1.2996  -1.4714   0.00    0.0
1651 453868.000   48.780708537    9.171594241   327.9168   5   8   2.3922   1.8938   3.7904   0.9648  -1.2995  -1.4716   0.00    0.0
1651 453869.000   48.780707592    9.171595395   328.3218   5   8   2.3923   1.8938   3.7905   0.9648  -1.2993  -1.4718   0.00    0.0
1651 453870.000   48.780708526    9.171591826   328.1951   5   8   2.3923   1.8937   3.7906   0.9648  -1.2992  -1.4720   0.00    0.0
1651 453871.000   48.780711210    9.171593053   328.1177   5   8   2.3924   1.8936   3.7908   0.9649  -1.2990  -1.4723   0.00    0.0
1651 453872.000   48.780707913    9.171585305   328.3469   5   8   2.3925   1.8935   3.7909   0.9649  -1.2989  -1.4725   0.00    0.0
1651 453873.000   48.780707491    9.171588357   328.2580   5   8   2.3926   1.8934   3.7911   0.9649  -1.2987  -1.4727   0.00    0.0
1651 453874.000   48.780706746    9.171592512   328.3751   5   8   2.3927   1.8933   3.7912   0.9650  -1.2986  -1.4729   0.00    0.0
1651 453875.000   48.780706947    9.171593721   328.2017   5   8   2.3928   1.8932   3.7914   0.9650  -1.2984  -1.4731   0.00    0.0
1651 453876.000   48.780709240    9.171591832   328.0458   5   8   2.3929   1.8931   3.7915   0.9651  -1.2983  -1.4733   0.00    0.0
1651 453877.000   48.780708343    9.171593220   327.8488   5   8   2.3929   1.8931   3.7917   0.9651  -1.2982  -1.4735   0.00    0.0
1651 453878.000   48.780706791    9.171594121   328.3776   5   8   2.3930   1.8930   3.7918   0.9651  -1.2980  -1.4737   0.00    0.0
1651 453879.000   48.780709462    9.171593899   328.1003   5   8   2.3931   1.8929   3.7920   0.9652  -1.2979  -1.4739   0.00    0.0
1651 453880.000   48.780707530    9.171594745   328.9365   5   8   2.3932   1.8928   3.7921   0.9652  -1.2977  -1.4741   0.00    0.0
1651 453881.000   48.780705050    9.171593234   328.6824   5   8   2.3933   1.8927   3.7923   0.9652  -1.2976  -1.4743   0.00    0.0
1651 453882.000   48.780706536    9.171594759   328.3498   5   8   2.3934   1.8926   3.7924   0.9653  -1.2974  -1.4745   0.00    0.0
1651 453883.000   48.780702305    9.171587771   328.3498   5   8   2.3935   1.8925   3.7926   0.9653  -1.2973  -1.4747   0.00    0.0
1651 453884.000   48.780702739    9.171591216   329.0011   5   8   2.3935   1.8924   3.7927   0.9654  -1.2971  -1.4748   0.00    0.0
1651 453885.000   48.780709955    9.171591891   328.2239   5   8   2.3936   1.8923   3.7928   0.9654  -1.2970  -1.4750   0.00    0.0
1651 453886.000   48.780709190    9.171594509   328.0026   5   8   2.3937   1.8923   3.7930   0.9654  -1.2968  -1.4752   0.00    0.0
1651 453887.000   48.780708551    9.171593407   327.9193   5   8   2.3938   1.8922   3.7931   0.9655  -1.2967  -1.4754   0.00    0.0
1651 453888.000   48.780707074    9.171596038   328.2178   5   8   2.3939   1.8921   3.7933   0.9655  -1.2965  -1.4756   0.00    0.0
1651 453889.000   48.780708362    9.171594688   328.0010   5   8   2.3940   1.8920   3.7934   0.9656  -1.2964  -1.4758   0.00    0.0
1651 453890.000   48.780706368    9.171592796   328.2175   5   8   2.3941   1.8919   3.7936   0.9656  -1.2962  -1.4760   0.00    0.0
1651 453891.000   48.780705069    9.171594820   327.6880   5   8   2.3941   1.8918   3.7937   0.9656  -1.2961  -1.4762   0.00    0.0
1651 453892.000   48.780704835    9.171594025   328.3346   5   8   2.3942   1.8917   3.7939   0.9657  -1.2959  -1.4764   0.00    0.0
1651 453893.000   48.780703962    9.171596185   328.0729   5   8   2.3943   1.8917   3.7940   0.9657  -1.2958  -1.4766   0.00    0.0
1651 453894.000   48.780705809    9.171594857   327.7717   5   8   2.3944   1.8916   3.7942   0.9657  -1.2956  -1.4768   0.00    0.0
1651 453895.000   48.780710428    9.171596111   328.4204   5   8   2.3945   1.8915   3.7943   0.9658  -1.2955  -1.4770   0.00    0.0
1651 453896.000   48.780709183    9.171593635   328.5200   5   8   2.3946   1.8914   3.7945   0.9658  -1.2953  -1.4772   0.00    0.0
1651 453897.000   48.780706660    9.171596517   328.5373   5   8   2.3947   1.8913   3.7946   0.9659  -1.2952  -1.4774   0.00    0.0
1651 453898.000   48.780703695    9.171595569   328.3202   5   8   2.3948   1.8912   3.7948   0.9659  -1.2951  -1.4776   0.00    0.0
1651 453899.000   48.780706749    9.171593970   328.9425   5   8   2.3948   1.8911   3.7949   0.9659  -1.2949  -1.4778   0.00    0.0
1651 453900.000   48.780703023    9.171592005   328.8223   5   8   2.3949   1.8910   3.7950   0.9660  -1.2948  -1.4780   0.00    0.0
1651 453901.000   48.780708092    9.171592801   328.1948   5   8   2.3950   1.8910   3.7952   0.9660  -1.2946  -1.4782   0.00    0.0
1651 453902.000   48.780706520    9.171590110   328.4463   5   8   2.3951   1.8909   3.7953   0.9660  -1.2945  -1.4784   0.00    0.0
1651 453903.000   48.780707794    9.171592552   327.7425   5   8   2.3952   1.8908   3.7955   0.9661  -1.2943  -1.4786   0.00    0.0
1651 453904.000   48.780706497    9.171591774   328.4752   5   8   2.3953   1.8907   3.7956   0.9661  -1.2942  -1.4788   0.00    0.0
1651 453905.000   48.780710992    9.171595003   327.3169   5   8   2.3954   1.8906   3.7958   0.9662  -1.2940  -1.4790   0.00    0.0
1651 453906.000   48.780707160    9.171593150   328.2386   5   8   2.3954   1.8905   3.7959   0.9662  -1.2939  -1.4792   0.00    0.0
1651 453907.000   48.780706661    9.171591870   328.4727   5   8   2.3955   1.8904   3.7961   0.9662  -1.2937  -1.4794   0.00    0.0
1651 453908.000   48.780709964    9.171594859   328.2885   5   8   2.3956   1.8903   3.7962   0.9663  -1.2936  -1.4796   0.00    0.0
1651 453909.000   48.780705569    9.171593284   328.3062   5   8   2.3957   1.8903   3.7964   0.9663  -1.2934  -1.4798   0.00    0.0
1651 453910.000   48.780705652    9.171593816   328.2536   5   8   2.3958   1.8902   3.7965   0.9663  -1.2933  -1.4800   0.00    0.0
1651 453911.000   48.780709925    9.171594590   328.1863   5   8   2.3959   1.8901   3.7967   0.9664  -1.2931  -1.4802   0.00    0.0
1651 453912.000   48.780708455    9.171597190   328.3459   5   8   2.3960   1.8900   3.7968   0.9664  -1.2930  -1.4804   0.00    0.0
1651 453913.000   48.780706285    9.171595534   328.1008   5   8   2.3961   1.8899   3.7969   0.9665  -1.2928  -1.4806   0.00    0.0
1651 453914.000   48.780707709    9.171595888   328.1360   5   8   2.3961   1.8898   3.7971   0.9665  -1.2927  -1.4808   0.00    0.0
1651 453915.000   48.780705556    9.171593835   328.0935   5   8   2.3962   1.8897   3.7972   0.9665  -1.2925  -1.4810   0.00    0.0
1651 453916.000   48.780705890    9.171594377   328.6602   5   8   2.3963   1.8897   3.7974   0.9666  -1.2924  -1.4812   0.00    0.0
1651 453917.000   48.780705222    9.171594923   328.4802   5   8   2.3964   1.8896   3.7975   0.9666  -1.2922  -1.4814   0.00    0.0
1651 453918.000   48.780709010    9.171593684   327.9768   5   8   2.3965   1.8895   3.7977   0.9667  -1.2921  -1.4816   0.00    0.0
1651 453919.000   48.780706640    9.171595005   328.6653   5   8   2.3966   1.8894   3.7978   0.9667  -1.2919  -1.4818   0.00    0.0
1651 453920.000   48.780707027    9.171594837   328.0357   5   8   2.3967   1.8893   3.7980   0.9667  -1.2918  -1.4820   0.00    0.0
1651 453921.000   48.780706154    9.171595450   328.8173   5   8   2.3968   1.8892   3.7981   0.9668  -1.2916  -1.4822   0.00    0.0
1651 453922.000   48.780709938    9.171590754   328.3679   5   8   2.3968   1.8891   3.7983   0.9668  -1.2915  -1.4823   0.00    0.0
1651 453923.000   48.780708106    9.171597735   328.7666   5   8   2.3969   1.8891   3.7984   0.9668  -1.2913  -1.4825   0.00    0.0
1651 453924.000   48.780708620    9.171595052   328.2522   5   8   2.3970   1.8890   3.7986   0.9669  -1.2912  -1.4827   0.00    0.0
1651 453925.000   48.780711302    9.171592028   328.2937   5   8   2.3971   1.8889   3.7987   0.9669  -1.2910  -1.4829   0.00    0.0
1651 453926.000   48.780708872    9.171592337   328.0210   5   8   2.3972   1.8888   3.7989   0.9670  -1.2909  -1.4831   0.00    0.0
1651 453927.000   48.780707938    9.171591953   328.5461   5   8   2.3973   1.8887   3.7990   0.9670  -1.2907  -1.4833   0.00    0.0
1651 453928.000   48.780706286    9.171594953   328.5909   5   8   2.3974   1.8886   3.7991   0.9670  -1.2906  -1.4835   0.00    0.0
1651 453929.000   48.780707769    9.171591722   327.9676   5   8   2.3975   1.8885   3.7993   0.9671  -1.2905  -1.4837   0.00    0.0
1651 453930.000   48.780707024    9.171593575   328.5831   5   8   2.3975   1.8885   3.7994   0.9671  -1.2903  -1.4839   0.00    0.0
1651 453931.000   48.780709844    9.171591511   328.2779   5   8   2.3976   1.8884   3.7996   0.9672  -1.2902  -1.4841   0.00    0.0
1651 453932.000   48.780705865    9.171594700   328.5519   5   8   2.3977   1.8883   3.7997   0.9672  -1.2900  -1.4843   0.00    0.0
1651 453933.000   48.780703792    9.171594255   328.8185   5   8   2.3978   1.8882   3.7999   0.9672  -1.2899  -1.4845   0.00    0.0
1651 453934.000   48.780702145    9.171594322   329.3286   5   8   2.3979   1.8881   3.8000   0.9673  -1.2897  -1.4847   0.00    0.0
1651 453935.000   48.780702730    9.171589921   328.4360   5   8   2.3980   1.8880   3.8002   0.9673  -1.2896  -1.4849   0.00    0.0
1651 453936.000   48.780706029    9.171592627   328.2585   5   8   2.3981   1.8879   3.8003   0.9673  -1.2894  -1.4851   0.00    0.0
1651 453937.000   48.780706884    9.171592767   328.2455   5   8   2.3982   1.8879   3.8005   0.9674  -1.2893  -1.4853   0.00    0.0
1651 453938.000   48.780708745    9.171595381   328.4126   5   8   2.3982   1.8878   3.8006   0.9674  -1.2891  -1.4855   0.00    0.0
1651 453939.000   48.780707570    9.171591123   328.6913   5   8   2.3983   1.8877   3.8008   0.9675  -1.2890  -1.4857   0.00    0.0
1651 453940.000   48.780710454    9.171592495   328.2935   5   8   2.3984   1.8876   3.8009   0.9675  -1.2888  -1.4858   0.00    0.0
1651 453941.000   48.780710015    9.171594845   328.8823   5   8   2.3985   1.8875   3.8010   0.9675  -1.2887  -1.4860   0.00    0.0
1651 453942.000   48.780707192    9.171594756   328.2910   5   8   2.3986   1.8874   3.8012   0.9676  -1.2885  -1.4862   0.00    0.0
1651 453943.000   48.780705223    9.171593691   328.6778   5   8   2.3987   1.8874   3.8013   0.9676  -1.2884  -1.4864   0.00    0.0
1651 453944.000   48.780708728    9.171593117   328.5520   5   8   2.3988   1.8873   3.8015   0.9677  -1.2882  -1.4866   0.00    0.0
1651 453945.000   48.780707620    9.171593718   327.9334   5   8   2.3989   1.8872   3.8016   0.9677  -1.2881  -1.4868   0.00    0.0
1651 453946.000   48.780706780    9.171590513   328.8153   5   8   2.3989   1.8871   3.8018   0.9677  -1.2879  -1.4870   0.00    0.0
1651 453947.000   48.780706885    9.171593952   328.4606   5   8   2.3990   1.8870   3.8019   0.9678  -1.2878  -1.4872   0.00    0.0
1651 453948.000   48.780708106    9.171595887   328.2260   5   8   2.3991   1.8869   3.8021   0.9678  -1.2876  -1.4874   0.00    0.0
1651 453949.000   48.780707071    9.171595669   328.4474   5   8   2.3992   1.8868   3.8022   0.9678  -1.2875  -1.4876   0.00    0.0
1651 453950.000   48.780707645    9.171593632   328.0789   5   8   2.3993   1.8868   3.8024   0.9679  -1.2873  -1.4878   0.00    0.0
1651 453951.000   48.780707231    9.171592987   328.0591   5   8   2.3994   1.8867   3.8025   0.9679  -1.2872  -1.4880   0.00    0.0
1651 453952.000   48.780710615    9.171591789   327.7904   5   8   2.3995   1.8866   3.8027   0.9680  -1.2870  -1.4882   0.00    0.0
1651 453953.000   48.780704436    9.171591411   328.4155   5   8   2.3996   1.8865   3.8028   0.9680  -1.2869  -1.4884   0.00    0.0
1651 453954.000   48.780708376    9.171594351   328.1562   5   8   2.3997   1.8864   3.8029   0.9680  -1.2867  -1.4885   0.00    0.0
1651 453955.000   48.780708726    9.171592399   328.4505   5   8   2.3997   1.8863   3.8031   0.9681  -1.2866  -1.4887   0.00    0.0
1651 453956.000   48.780706004    9.171592651   328.6098   5   8   2.3998   1.8863   3.8032   0.9681  -1.2864  -1.4889   0.00    0.0
1651 453957.000   48.780705385    9.171592391   328.8184   5   8   2.3999   1.8862   3.8034   0.9682  -1.2863  -1.4891   0.00    0.0
1651 453958.000   48.780703659    9.171592127   329.0591   5   8   2.4000   1.8861   3.8035   0.9682  -1.2861  -1.4893   0.00    0.0
1651 453959.000   48.780706705    9.171593730   328.2828   5   8   2.4001   1.8860   3.8037   0.9682  -1.2860  -1.4895   0.00    0.0
1651 453960.000   48.780707937    9.171589691   328.6133   5   8   2.4002   1.8859   3.8038   0.9683  -1.2858  -1.4897   0.00    0.0
1651 453961.000   48.780708696    9.171592977   328.5011   5   8   2.4003   1.8858   3.8040   0.9683  -1.2857  -1.4899   0.00    0.0
1651 453962.000   48.780711777    9.171591703   328.1625   5   8   2.4004   1.8857   3.8041   0.9683  -1.2855  -1.4901   0.00    0.0
1651 453963.000   48.780709120    9.171589240   327.9570   5   8   2.4005   1.8857   3.8043   0.9684  -1.2854  -1.4903   0.00    0.0
1651 453964.000   48.780707196    9.171590724   328.3680   5   8   2.4005   1.8856   3.8044   0.9684  -1.2852  -1.4905   0.00    0.0
1651 453965.000   48.780710527    9.171594056   328.1400   5   8   2.4006   1.8855   3.8046   0.9685  -1.2851  -1.4907   0.00    0.0
1651 453966.000   48.780711451    9.171594089   327.8787   5   8   2.4007   1.8854   3.8047   0.9685  -1.2849  -1.4908   0.00    0.0
1651 453967.000   48.780711299    9.171596215   328.1862   5   8   2.4008   1.8853   3.8048   0.9685  -1.2848  -1.4910   0.00    0.0
1651 453968.000   48.780711949    9.171594227   328.0555   5   8   2.4009   1.8852   3.8050   0.9686  -1.2846  -1.4912   0.00    0.0
1651 453969.000   48.780709481    9.171594785   328.6171   5   8   2.4010   1.8852   3.8051   0.9686  -1.2845  -1.4914   0.00    0.0
1651 453970.000   48.780705986    9.171592950   328.2188   5   8   2.4011   1.8851   3.8053   0.9687  -1.2843  -1.4916   0.00    0.0
1651 453971.000   48.780709843    9.171593467   328.5714   5   8   2.4012   1.8850   3.8054   0.9687  -1.2842  -1.4918   0.00    0.0
1651 453972.000   48.780710349    9.171595487   328.0130   5   8   2.4013   1.8849   3.8056   0.9687  -1.2840  -1.4920   0.00    0.0
1651 453973.000   48.780707943    9.171593546   328.3858   5   8   2.4013   1.8848   3.8057   0.9688  -1.2839  -1.4922   0.00    0.0
1651 453974.000   48.780708184    9.171592761   328.3344   5   8   2.4014   1.8847   3.8059   0.9688  -1.2837  -1.4924   0.00    0.0
1651 453975.000   48.780709123    9.171594561   327.9680   5   8   2.4015   1.8847   3.8060   0.9688  -1.2836  -1.4926   0.00    0.0
1651 453976.000   48.780706439    9.171595249   328.6431   5   8   2.4016   1.8846   3.8062   0.9689  -1.2834  -1.4927   0.00    0.0
1651 453977.000   48.780709082    9.171591824   328.1983   5   8   2.4017   1.8845   3.8063   0.9689  -1.2833  -1.4929   0.00    0.0
1651 453978.000   48.780712240    9.171594156   327.8978   5   8   2.4018   1.8844   3.8065   0.9690  -1.2831  -1.4931   0.00    0.0
1651 453979.000   48.780706662    9.171594404   328.7723   5   8   2.4019   1.8843   3.8066   0.9690  -1.2830  -1.4933   0.00    0.0
1651 453980.000   48.780706173    9.171596955   328.4333   5   8   2.4020   1.8842   3.8067   0.9690  -1.2828  -1.4935   0.00    0.0
1651 453981.000   48.780712158    9.171594808   328.2618   5   8   2.4021   1.8842   3.8069   0.9691  -1.2827  -1.4937   0.00    0.0
1651 453982.000   48.780707275    9.171591857   328.5661   5   8   2.4022   1.8841   3.8070   0.9691  -1.2825  -1.4939   0.00    0.0
1651 453983.000   48.780708444    9.171593674   328.1951   5   8   2.4022   1.8840   3.8072   0.9692  -1.2824  -1.4941   0.00    0.0
1651 453984.000   48.780709810    9.171592608   328.4129   5   8   2.4023   1.8839   3.8073   0.9692  -1.2822  -1.4943   0.00    0.0
1651 453985.000   48.780706689    9.171591004   328.4316   5   8   2.4024   1.8838   3.8075   0.9692  -1.2821  -1.4944   0.00    0.0
1651 453986.000   48.780709289    9.171593470   328.2361   5   8   2.4025   1.8837   3.8076   0.9693  -1.2819  -1.4946   0.00    0.0
1651 453987.000   48.780709057    9.171594392   328.4018   5   8   2.4026   1.8837   3.8078   0.9693  -1.2818  -1.4948   0.00    0.0
1651 453988.000   48.780707188    9.171596767   328.4661   5   8   2.4027   1.8836   3.8079   0.9694  -1.2816  -1.4950   0.00    0.0
1651 453989.000   48.780710652    9.171598330   328.5405   5   8   2.4028   1.8835   3.8081   0.9694  -1.2815  -1.4952   0.00    0.0
1651 453990.000   48.780707250    9.171593905   328.2805   5   8   2.4029   1.8834   3.8082   0.9694  -1.2813  -1.4954   0.00    0.0
1651 453991.000   48.780709429    9.171594274   328.4313   5   8   2.4030   1.8833   3.8084   0.9695  -1.2812  -1.4956   0.00    0.0
1651 453992.000   48.780708653    9.171591413   328.1091   5   8   2.4030   1.8832   3.8085   0.9695  -1.2810  -1.4958   0.00    0.0
1651 453993.000   48.780709341    9.171595697   327.9450   5   8   2.4031   1.8832   3.8086   0.9695  -1.2809  -1.4960   0.00    0.0
1651 453994.000   48.780706515    9.171594098   328.3805   5   8   2.4032   1.8831   3.8088   0.9696  -1.2807  -1.4961   0.00    0.0
1651 453995.000   48.780707956    9.171591288   328.4803   5   8   2.4033   1.8830   3.8089   0.9696  -1.2806  -1.4963   0.00    0.0
1651 453996.000   48.780706922    9.171594225   328.1284   5   8   2.4034   1.8829   3.8091   0.9697  -1.2804  -1.4965   0.00    0.0
1651 453997.000   48.780705699    9.171595074   327.9597   5   8   2.4035   1.8828   3.8092   0.9697  -1.2802  -1.4967   0.00    0.0
1651 453998.000   48.780705220    9.171594493   328.3387   5   8   2.4036   1.8828   3.8094   0.9697  -1.2801  -1.4969   0.00    0.0
1651 453999.000   48.780708182    9.171590453   327.8179   5   8   2.4037   1.8827   3.8095   0.9698  -1.2799  -1.4971   0.00    0.0
1651 454000.000   48.780708195    9.171591215   328.3371   5   8   2.4038   1.8826   3.8097   0.9698  -1.2798  -1.4973   0.00    0.0
1651 454001.000   48.780707011    9.171593202   327.9949   5   8   2.4039   1.8825   3.8098   0.9699  -1.2796  -1.4975   0.00    0.0
1651 454002.000   48.780702552    9.171590542   328.2155   5   8   2.4039   1.8824   3.8100   0.9699  -1.2795  -1.4976   0.00    0.0
1651 454003.000   48.780705613    9.171592165   327.9279   5   8   2.4040   1.8823   3.8101   0.9699  -1.2793  -1.4978   0.00    0.0
1651 454004.000   48.780707190    9.171592039   328.0145   5   8   2.4041   1.8823   3.8103   0.9700  -1.2792  -1.4980   0.00    0.0
1651 454005.000   48.780708101    9.171593902   327.8605   5   8   2.4042   1.8822   3.8104   0.9700  -1.2790  -1.4982   0.00    0.0
1651 454006.000   48.780707850    9.171592978   328.0089   5   8   2.4043   1.8821   3.8105   0.9701  -1.2789  -1.4984   0.00    0.0
1651 454007.000   48.780705967    9.171592689   328.1968   5   8   2.4044   1.8820   3.8107   0.9701  -1.2787  -1.4986   0.00    0.0
1651 454008.000   48.780704767    9.171591377   328.1904   5   8   2.4045   1.8819   3.8108   0.9701  -1.2786  -1.4988   0.00    0.0
1651 454009.000   48.780708066    9.171590294   328.2710   5   8   2.4046   1.8818   3.8110   0.9702  -1.2784  -1.4989   0.00    0.0
1651 454010.000   48.780709506    9.171596685   328.3657   5   8   2.4047   1.8818   3.8111   0.9702  -1.2783  -1.4991   0.00    0.0
1651 454011.000   48.780706249    9.171592570   328.6176   5   8   2.4048   1.8817   3.8113   0.9703  -1.2781  -1.4993   0.00    0.0
1651 454012.000   48.780705808    9.171594018   328.5410   5   8   2.4049   1.8816   3.8114   0.9703  -1.2780  -1.4995   0.00    0.0
1651 454013.000   48.780705746    9.171592292   328.5662   5   8   2.4049   1.8815   3.8116   0.9703  -1.2778  -1.4997   0.00    0.0
1651 454014.000   48.780702987    9.171595902   328.3684   5   8   2.4050   1.8814   3.8117   0.9704  -1.2777  -1.4999   0.00    0.0
1651 454015.000   48.780706696    9.171598828   328.6469   5   8   2.4051   1.8814   3.8119   0.9704  -1.2775  -1.5001   0.00    0.0
1651 454016.000   48.780708183    9.171591995   328.2697   5   8   2.4052   1.8813   3.8120   0.9704  -1.2774  -1.5002   0.00    0.0
1651 454017.000   48.780707045    9.171594535   328.5029   5   8   2.4053   1.8812   3.8121   0.9705  -1.2772  -1.5004   0.00    0.0
1651 454018.000   48.780707321    9.171593450   328.4429   5   8   2.4054   1.8811   3.8123   0.9705  -1.2771  -1.5006   0.00    0.0
1651 454019.000   48.780708633    9.171591992   328.5425   5   8   2.4055   1.8810   3.8124   0.9706  -1.2769  -1.5008   0.00    0.0
1651 454020.000   48.780707916    9.171597741   328.2456   5   8   2.4056   1.8810   3.8126   0.9706  -1.2768  -1.5010   0.00    0.0
1651 454021.000   48.780707272    9.171591807   328.2450   5   8   2.4057   1.8809   3.8127   0.9706  -1.2766  -1.5012   0.00    0.0
1651 454022.000   48.780707399    9.171593745   328.2231   5   8   2.4058   1.8808   3.8129   0.9707  -1.2765  -1.5014   0.00    0.0
1651 454023.000   48.780707497    9.171594018   328.0995   5   8   2.4059   1.8807   3.8130   0.9707  -1.2763  -1.5015   0.00    0.0
1651 454024.000   48.780707107    9.171592861   328.1461   5   8   2.4059   1.8806   3.8132   0.9708  -1.2762  -1.5017   0.00    0.0
1651 454025.000   48.780702783    9.171593191   328.1285   5   8   2.4060   1.8805   3.8133   0.9708  -1.2760  -1.5019   0.00    0.0
1651 454026.000   48.780707186    9.171594028   328.2021   5   8   2.4061   1.8805   3.8135   0.9708  -1.2758  -1.5021   0.00    0.0
1651 454027.000   48.780708049    9.171593313   328.2803   5   8   2.4062   1.8804   3.8136   0.9709  -1.2757  -1.5023   0.00    0.0
1651 454028.000   48.780707848    9.171592987   327.9416   5   8   2.4063   1.8803   3.8138   0.9709  -1.2755  -1.5025   0.00    0.0
1651 454029.000   48.780703840    9.171592267   327.9673   5   8   2.4064   1.8802   3.8139   0.9710  -1.2754  -1.5026   0.00    0.0
1651 454030.000   48.780704594    9.171595566   328.7962   5   8   2.4065   1.8801   3.8140   0.9710  -1.2752  -1.5028   0.00    0.0
1651 454031.000   48.780705685    9.171594692   328.1241   5   8   2.4066   1.8801   3.8142   0.9710  -1.2751  -1.5030   0.00    0.0
1651 454032.000   48.780704090    9.171592924   328.3767   5   8   2.4067   1.8800   3.8143   0.9711  -1.2749  -1.5032   0.00    0.0
1651 454033.000   48.780704074    9.171590448   328.2061   5   8   2.4068   1.8799   3.8145   0.9711  -1.2748  -1.5034   0.00    0.0
1651 454034.000   48.780708530    9.171590698   327.9950   5   8   2.4069   1.8798   3.8146   0.9712  -1.2746  -1.5036   0.00    0.0
1651 454035.000   48.780704234    9.171590937   328.5183   5   8   2.4069   1.8797   3.8148   0.9712  -1.2745  -1.5038   0.00    0.0
1651 454036.000   48.780706804    9.171591705   327.9804   5   8   2.4070   1.8797   3.8149   0.9712  -1.2743  -1.5039   0.00    0.0
1651 454037.000   48.780711296    9.171592057   327.6864   5   8   2.4071   1.8796   3.8151   0.9713  -1.2742  -1.5041   0.00    0.0
1651 454038.000   48.780708310    9.171590654   328.2262   5   8   2.4072   1.8795   3.8152   0.9713  -1.2740  -1.5043   0.00    0.0
1651 454039.000   48.780706645    9.171595273   328.4209   5   8   2.4073   1.8794   3.8154   0.9714  -1.2739  -1.5045   0.00    0.0
1651 454040.000   48.780705886    9.171591869   328.5353   5   8   2.4074   1.8793   3.8155   0.9714  -1.2737  -1.5047   0.00    0.0
1651 454041.000   48.780708222    9.171590849   328.1340   5   8   2.4075   1.8793   3.8156   0.9714  -1.2736  -1.5048   0.00    0.0
1651 454042.000   48.780709705    9.171597013   328.3652   5   8   2.4076   1.8792   3.8158   0.9715  -1.2734  -1.5050   0.00    0.0
1651 454043.000   48.780706099    9.171596352   328.3954   5   8   2.4077   1.8791   3.8159   0.9715  -1.2733  -1.5052   0.00    0.0
1651 454044.000   48.780708432    9.171596222   328.1960   5   8   2.4078   1.8790   3.8161   0.9716  -1.2731  -1.5054   0.00    0.0
